     3.03           OBSERVATION DATA    M                   RINEX VERSION / TYPE
GNSSToRINEXV3       Google              20210421 164654 UTC PGM / RUN BY / DATE
Google GnssLogger                                           MARKER NAME
Unknown                                                     MARKER NUMBER
Unknown             Unknown                                 OBSERVER / AGENCY
Unknown             GNSSToRINEXV3       v1.0.0.0            REC # / TYPE / VERS
Unknown             Unknown                                 ANT # / TYPE
        0.0000        0.0000        0.0000                  APPROX POSITION XYZ
        0.0000        0.0000        0.0000                  ANTENNA: DELTA H/E/N
G    8 C1C L1C D1C S1C C5X L5X D5X S5X                      SYS / # / OBS TYPES
R    4 C1C L1C D1C S1C                                      SYS / # / OBS TYPES
J    8 C5X L5X D5X S5X C1C L1C D1C S1C                      SYS / # / OBS TYPES
C    4 C2I L2I D2I S2I                                      SYS / # / OBS TYPES
E    8 C1C L1C D1C S1C C5X L5X D5X S5X                      SYS / # / OBS TYPES
  2021    04    21    16    46   54.0000000     GPS         TIME OF FIRST OBS
 11 R05  1 R06 -4 R07  5 R08  6 R09 -2 R10 -7 R15  0 R16 -1 GLONASS SLOT / FRQ #
    R17  4 R18 -3 R19  3                                    GLONASS SLOT / FRQ #
                                                            END OF HEADER
> 2021 04 21 16 46 54.4446016  0 20                      
G08                        -0.00023     -2794.95023        19.60023  23341191.317 3    310629.303 3     -2090.785 3        23.300 3
G09  24452668.55723        -0.00023     -3787.90023        21.70023                                                                
G13  22331493.61605  -4323977.06005      2661.63205        34.00005                                                                
G14  20483835.22324         0.00024       694.60024        25.50024  20481477.95505  -2148994.45905       520.32005        33.80005
G17  22620698.30424         0.00024      3261.40024        25.20024                                                                
G28  20759885.91814  -3027362.55314       752.35014        25.80014                                                                
G30  20546065.54205  -1791770.18905       383.51505        33.60005  20543714.87006  -1331631.30106       286.40806        40.00006
R18  21339531.33724         0.00024      1907.10024        25.00024
R09  21183409.31815  -4730598.36315      1726.34315        30.10015
R16  20106940.04314   1068074.55814      -748.31314        27.20014
R17  22444629.29423        -0.00023     -1513.95023        20.30023
R07  21152440.15814  -5040943.65814      1120.55014        26.50014
C25                        -0.00023     -1970.25023        19.60023
C23  22186888.42424        -0.00024      -179.45024        25.70024
C11  24014585.13623         0.00023       151.90023        23.20023
E07  25276419.68624        -0.00024     -2595.65024        26.60024  25274290.26023        -0.00023     -1935.55023        23.20023
E19                         0.00022      2033.25022        15.50022  26445744.28024         0.00024      1514.75024        23.70024
E27  23578581.67505    -15066.49505        98.15005        30.50005  23576454.94705    -57624.56905        72.49805        31.50005
J01  43627535.07323         0.00023       170.75023        20.70023                                                                
E30                                                                  24376813.27104    200502.87104     -1364.22804        29.40004
> 2021 04 21 16 46 55.4446016  0 20                      
G07  21528804.78915   2595657.54615     -1444.41915        32.00015                                                                
G09  24453413.62423        -0.00023     -3791.45023        23.10023                                                                
G13  22330987.64905  -4326636.94905      2661.45905        33.70005                                                                
G14  20483702.49824         0.00024       696.95024        24.80024  20481344.33005  -2149513.41105       520.07105        32.60005
G17  22620064.92524         0.00024      3262.45024        24.40024                                                                
G28  20759739.70124         0.00024       752.25024        24.20024                                                                
G30  20545986.48005  -1792152.09305       383.34505        33.30005  20543642.40206  -1331916.47906       286.37506        39.50006
J01  43627494.684 4   -125888.115 4       170.925 4        23.500 4                         0.00023       226.50023        18.20023
R18  21339133.59524         0.00024      1902.85024        25.00024
R09  21183098.21605  -4732323.07205      1726.30605        31.00005
R16  20107061.84114   1068823.96214      -747.85714        27.30014
R07  21152216.89514  -5042062.41014      1119.67814        26.90014
C23  22186927.18024        -0.00024      -183.70024        24.70024
C11  24014559.43623         0.00023       142.85023        22.80023
E07  25276915.32624        -0.00024     -2589.40024        27.10024                                                                
E15                         0.00023      2596.10023        19.20023                                                                
E27  23578558.67305    -15162.53705        97.38705        30.10005  23576437.34205    -57696.33105        73.55605        30.90005
G08                                                                  23341719.93424        -0.00024     -2089.25024        24.10024
E19                                                                  26445353.43323         0.00023      1513.80023        23.40023
E30                                                                  24377160.21305    201867.95005     -1363.50005        30.50005
> 2021 04 21 16 46 56.4446016  0 21                      
G07  21529081.63125   2597101.59625     -1448.55625        31.50025                                                                
G08                        -0.00023     -2796.30023        19.90023  23342251.300 4    314812.283 4     -2094.269 4        26.000 4
G09  24454100.28324        -0.00024     -3795.80024        23.80024                                                                
G13  22330486.23005  -4329298.50205      2656.94605        33.60005                                                                
G14  20483558.73124   -704336.45324       692.71224        25.80024  20481211.95605  -2150033.67805       516.95505        33.90005
G17  22619431.29824         0.00024      3252.65024        23.50024                                                                
G28  20759598.93324  -3028864.13124       748.25324        26.00024                                                                
G30  20545915.86305  -1792535.84105       379.31905        33.30005  20543569.98706  -1332203.01506       283.23806        40.80006
R18  21338821.94524         0.00024      1900.20024        24.80024
R09  21182758.08615  -4734049.82915      1722.20615        30.50015
R16  20107210.37214   1069571.46214      -752.49914        26.80014
R07  21152024.56224         0.00024      1115.60024        26.20024
C34  24963280.08523        -0.00023     -1245.80023        20.00023
C25  24513090.74523        -0.00023     -1976.05023        21.20023
C23  22186948.29924        -0.00024      -185.15024        24.80024
C11  24014522.69624    -59906.47924       146.58424        25.90024
E07  25277402.32324        -0.00024     -2592.55024        26.50024                                                                
E27  23578543.51815    -15260.69015        94.28615        30.20015  23576418.28905    -57769.48905        69.95605        32.00005
J01  43627447.45124         0.00024       165.05024        24.50024                                                                
E19                                                                  26444974.329 4   -155026.106 4      1511.994 4        23.500 4
E30                                                                  24377508.10605    203231.52205     -1366.89205        31.40005
> 2021 04 21 16 46 57.4446016  0 20                      
G07  21529359.13425   2598555.08825     -1455.03625        32.30025                                                                
G09  24454813.08423        -0.00023     -3796.05023        22.50023                                                                
G13  22329982.17405  -4331950.61905      2650.37705        33.90005                                                                
G14  20483442.90724         0.00024       685.55024        25.60024  20481081.44105  -2150546.84505       512.04905        34.10005
G17  22618827.71123         0.00023      3247.10023        23.20023                                                                
G28  20759433.04324         0.00024       740.20024        24.80024                                                                
G30  20545844.40705  -1792910.10005       372.67605        33.00005  20543498.53106  -1332482.52206       278.32906        40.90006
J01  43627409.272 4   -126224.090 4       163.659 4        24.700 4                         0.00023       221.30023        19.90023
R18  21338477.67824         0.00024      1897.10024        25.20024
R09  21182468.08215  -4735767.62415      1715.64015        30.30015
R16  20107357.16514   1070328.47114      -759.27114        27.60014
R17                        -0.00023     -1529.25023        19.90023
R07  21151797.51424  -5044292.25124      1107.57224        26.60024
C25  24513489.36423        -0.00023     -1979.35023        22.10023
C23  22187003.35624    -20231.67424      -189.94424        26.10024
C11  24014515.39624         0.00024       137.80024        24.00024
E07  25277888.18124        -0.00024     -2599.75024        27.30024                                                                
E27  23578523.02705    -15349.46905        87.53205        30.50005  23576401.09605    -57835.80805        65.78305        32.20005
G08                                                                  23342790.82124        -0.00024     -2098.55024        25.80024
E30                                                                  24377856.96005    204601.91705     -1370.65605        30.90005
> 2021 04 21 16 46 58.4446016  0 20                      
G07  21529637.59425   2600012.63925     -1458.39725        31.40025                                                                
G13  22329472.18005  -4334598.57805      2646.98705        33.50005                                                                
G14  20483301.35824   -705707.02624       681.94424        25.70024  20480950.68505  -2151056.86905       509.40705        33.80005
G17  22618193.90223         0.00023      3242.85023        20.90023                                                                
G28  20759314.87824         0.00024       736.75024        25.40024                                                                
G30  20545777.20705  -1793280.34405       369.36805        33.30005  20543428.03306  -1332758.98306       275.78406        40.30006
R18  21338058.52224         0.00024      1890.55024        25.60024
R09  21182104.68605  -4737480.50905      1712.61005        30.70005
R16  20107488.42814   1071090.35014      -762.13614        27.40014
R07  21151570.22524         0.00024      1102.90024        26.40024
C34  24963763.79823        -0.00023     -1254.20023        20.50023
C25  24513864.65723        -0.00023     -1984.85023        21.70023
C23  22187037.18624        -0.00024      -191.65024        25.00024
C11  24014467.08323         0.00023       144.65023        22.20023
E07  25278387.28924        -0.00024     -2598.45024        26.60024                                                                
E27  23578512.18805    -15434.23305        84.41505        29.60005  23576384.86105    -57899.14805        63.29605        32.60005
G08                                                                  23343323.806 4    319011.534 4     -2101.674 4        24.600 4
J01  43627366.05524         0.00024       163.65024        23.90024                                                                
E19                                                                  26444203.71123         0.00023      1503.55023        21.30023
E30                                                                  24378206.77105    205975.12205     -1372.84805        31.40005
> 2021 04 21 16 46 59.4446016  0 20                      
G07  21529912.83825   2601471.41825     -1459.29625        31.60025                                                                
G08                        -0.00023     -2816.10023        19.40023  23343858.96924        -0.00024     -2101.55024        24.40024
G09  24456269.46323        -0.00023     -3803.20023        22.00023                                                                
G13  22328970.36205  -4337245.16505      2646.10305        33.50005                                                                
G14  20483180.57514   -706388.73314       681.10814        26.20014  20480822.10805  -2151565.90705       508.61305        34.70005
G17  22617561.67423         0.00023      3245.85023        22.40023                                                                
G28  20759160.81824         0.00024       738.75024        24.30024                                                                
G30  20545704.99105  -1793649.32805       368.45405        33.70005  20543357.61606  -1333034.51006       275.11706        41.10006
R18  21337743.77423         0.00023      1888.20023        23.40023
R09  21181817.51905  -4739192.72505      1711.83805        31.30005
R16  20107611.07714   1071852.50714      -763.26314        26.70014
R17  22446141.84623        -0.00023     -1544.10023        21.10023
R07  21151376.59324  -5046500.91324      1102.42924        26.50024
C23  22187063.00224        -0.00024      -190.55024        25.30024
C11  24014460.22123         0.00023       132.75023        22.40023
E07  25278878.38324        -0.00024     -2605.45024        27.30024                                                                
E15                         0.00023      2587.10023        18.60023                                                                
E27  23578495.73315    -15517.94415        83.19915        30.70015  23576369.60505    -57961.67705        62.33905        32.50005
J01  43627324.418 3   -126546.885 3       160.657 3        22.900 3                                                                
E30                                                                  24378556.96205    207349.09605     -1373.94405        31.60005
> 2021 04 21 16 47 00.4446016  0 21                      
G07  21530184.13505   2602929.68505     -1457.83505        31.50005                                                                
G09  24456987.45124        -0.00024     -3802.00024        23.50024                        -0.00023     -2829.00023        18.10023
G13  22328471.79205  -4339892.67205      2647.30505        34.00005                                                                
G14  20483047.15304   -707070.80704       682.59804        25.90004  20480692.88305  -2152075.59505       509.64405        35.10005
G17  22616952.18123         0.00023      3247.20023        22.70023                                                                
G28  20759036.090 4  -3031818.594 4       737.685 4        26.400 4                                                                
G30  20545635.42405  -1794019.30105       369.96105        33.50005  20543287.45006  -1333310.79106       276.27206        41.40006
J01  43627280.03423         0.00023       163.40023        22.50023                         0.00023       213.55023        18.60023
R18  21337398.39823         0.00023      1887.40023        22.90023
R09  21181477.84005  -4740906.09005      1713.47105        30.70005
R16  20107783.74214   1072613.96714      -761.05114        27.70014
R07  21151167.92314  -5047604.06114      1103.42914        26.80014
C34  24964238.68923        -0.00023     -1256.40023        21.10023
C25  24514619.55423        -0.00023     -1984.65023        20.80023
C23  22187111.55424    -19653.69124      -192.25524        26.10024
C11  24014435.62423         0.00023       132.65023        23.00023
E07  25279382.61924        -0.00024     -2604.80024        26.50024                                                                
E27  23578475.03305    -15602.89005        85.18305        30.60005  23576353.10205    -58025.04305        63.81605        31.90005
G08                                                                  23344397.082 4    323215.130 4     -2101.518 4        24.600 4
E19                                                                  26443435.96223         0.00023      1507.75023        21.40023
E30                                                                  24378907.70505    208722.08305     -1372.75305        31.50005
> 2021 04 21 16 47 01.4446016  0 18                      
G07  21530456.68215   2604382.08215     -1444.29115        31.80015                                                                
G09  24457726.17624        -0.00024     -3788.10024        24.10024                                                                
G13  22327964.57905  -4342545.05205      2660.88605        33.40005                                                                
G14  20482914.98014   -707757.23714       694.00114        26.00014  20480561.60905  -2152588.87505       519.68705        31.00005
G28  20758903.91724         0.00024       751.80024        25.00024                                                                
G30  20545567.10705  -1794394.18305       383.41505        33.40005  20543216.43406  -1333590.76106       286.27506        38.30006
R18  21337043.77924         0.00024      1901.85024        23.70024
R09  21181168.78915  -4742625.01115      1727.24115        30.80015
R16  20107910.59014   1073372.07914      -754.62014        27.30014
R07  21150967.99714  -5048711.74414      1114.77214        27.60014
C25  24515014.71623        -0.00023     -1972.85023        22.00023
C23  22187147.56524        -0.00024      -175.75024        24.10024
C11  24014409.27823         0.00023       147.10023        23.40023
E07  25279877.61224        -0.00024     -2587.60024        25.30024                                                                
E27  23578459.18005    -15692.71605        97.56205        30.40005  23576336.34904    -58092.27504        78.37104        29.30004
G08                                                                  23344930.44824        -0.00024     -2093.35024        24.70024
J01  43627241.39623         0.00023       165.65023        22.50023                                                                
E30                                                                  24379258.19814    210091.13314     -1357.52314        29.10014
> 2021 04 21 16 47 02.4446016  0 20                      
G07  21530736.85315   2605828.90415     -1446.54115        31.80015                                                                
G08                        -0.00023     -2806.60023        19.50023  23345463.044 4    327414.551 4     -2093.805 4        23.700 4
G09  24458434.75023        -0.00023     -3789.05023        23.10023                                                                
G13  22327465.58905  -4345203.25405      2658.57805        33.40005                                                                
G14  20482781.73724         0.00024       690.95024        24.90024  20480429.86605  -2153106.56705       517.89305        32.50005
G17  22615742.12023         0.00023      3256.30023        21.90023                                                                
G28  20758736.79824         0.00024       750.55024        25.00024                                                                
G30  20545494.42205  -1794775.04905       381.18005        33.10005  20543143.15006  -1333875.14406       284.68506        38.80006
R18  21336705.77823         0.00023      1902.80023        22.20023
R09  21180861.36715  -4744349.17115      1724.98415        30.20015
R16  20108060.65104   1074127.08004      -749.77904        27.00004
R07  21150766.70124         0.00024      1113.95024        26.30024
C25  24515408.50823        -0.00023     -1976.50023        21.20023
C23  22187185.80324        -0.00024      -180.65024        24.70024
C11  24014389.35624         0.00024       145.10024        24.50024
E07  25280366.13924        -0.00024     -2590.35024        26.20024                                                                
E15                         0.00023      2588.35023        19.30023                                                                
E27  23578443.15615    -15788.84715        96.66515        29.80015  23576316.72815    -58163.85915        70.53115        29.70015
J01  43627198.39123         0.00023       170.30023        22.20023                                                                
E30                                                                  24379604.02404    211455.70504     -1366.02204        29.20004
> 2021 04 21 16 47 03.4446015  0 20                      
G07  21530989.60515   2607262.91315     -1433.57615        32.70015                                                                
G09  24459128.79723        -0.00023     -3775.45023        22.30023                                                                
G13  22326926.88915  -4347874.19215      2671.14315        33.40015                                                                
G14  20482608.18524         0.00024       706.05024        25.20024  20480265.30705  -2153633.73505       527.49105        32.90005
G17  22615082.00423         0.00023      3272.45023        21.30023                                                                
G28  20758556.35024         0.00024       759.40024        25.60024                                                                
G30  20545386.22405  -1795168.65305       393.99205        33.10005  20543038.25006  -1334169.06706       294.26006        39.60006
J01  43627122.87123         0.00023       184.25023        23.00023                         0.00023       237.00023        18.20023
R18  21336262.41223         0.00023      1911.10023        21.90023
R09  21180489.65115  -4746087.57915      1741.72215        30.40015
R16  20108173.10124        -0.00024      -734.40024        26.30024
R07  21150508.60724         0.00024      1125.50024        26.80024
C34                        -0.00023     -1241.70023        19.50023
C25  24515735.60923        -0.00023     -1958.55023        23.30023
C23  22187185.53024        -0.00024      -169.50024        25.30024
C11  24014324.02924         0.00024       157.15024        25.60024
E07  25280826.34724        -0.00024     -2579.60024        25.40024                                                                
E27  23578395.21605    -15897.64505       109.45505        30.10005  23576267.58905    -58245.32605        83.27105        30.70005
G08                                                                  23345967.02324        -0.00024     -2083.45024        25.80024
E30                                                                  24379919.13205    212810.27305     -1352.39505        30.50005
> 2021 04 21 16 47 04.4446016  0 19                      
G07  21531294.73215   2608713.73715     -1461.40615        31.90015                                                                
G09  24459877.01723        -0.00023     -3804.00023        23.30023                                                                
G13  22326444.46215  -4350528.31215      2644.04215        33.80015                                                                
G14  20482514.88724         0.00024       680.90024        24.80024  20480164.81405  -2154148.34805       507.09905        32.90005
G28  20758451.96024         0.00024       735.20024        25.60024                                                                
G30  20545351.68605  -1795545.63205       367.02005        33.90005  20542997.11606  -1334450.56906       273.93906        39.50006
R18  21335991.03823         0.00023      1885.10023        23.00023
R09  21180191.89625         0.00025      1710.25025        31.30025
R16  20108300.15124        -0.00024      -765.75024        27.90024
R07  21150388.02824         0.00024      1101.45024        26.40024
C25  24516129.77423        -0.00023     -1982.35023        22.70023
C23  22187249.32424    -18914.40424      -188.27224        25.80024
C11  24014325.16624         0.00024       132.40024        23.90024
E07  25281359.31724        -0.00024     -2606.00024        26.70024                                                                
E27  23578403.24805    -15990.38405        83.84205        30.50005  23576280.11805    -58314.26205        60.71105        31.50005
G08                                                                  23346529.67124        -0.00024     -2101.35024        24.80024
J01  43627106.62023         0.00023       154.90023        21.80023                                                                
E19                                                                                         0.00023      1512.05023        19.00023
E30                                                                  24380298.30805    214177.30805     -1375.41805        30.50005
> 2021 04 21 16 47 05.4446015  0 20                      
G07  21531545.84325   2610176.80125     -1462.66225        31.10025                                                                
G09  24460566.12523        -0.00023     -3802.75023        22.80023                                                                
G13  22325907.41825  -4353170.51925      2642.08825        33.50025                                                                
G14  20482361.57924   -710518.68024       677.34724        25.90024  20480005.51005  -2154654.05305       505.60205        33.60005
G28  20758301.94924         0.00024       729.05024        25.60024                                                                
G30  20545248.14305  -1795910.67605       364.98005        33.90005  20542897.47106  -1334723.19906       272.56706        39.90006
J01                                                                  43629372.03723         0.00023       211.80023        20.30023
R18  21335606.58924         0.00024      1881.75024        23.90024
R09  21179859.01125  -4749534.09325      1709.17125        31.80025
R16  20108442.43724   1076356.44324      -766.14124        26.80024
R17                        -0.00022     -1535.35022        16.20022
R07  21150122.29824  -5053164.16724      1095.54224        26.70024
C34  24965414.22623        -0.00023     -1256.05023        20.30023
C25  24516488.51123        -0.00023     -1990.60023        21.60023
C23  22187259.40214    -18717.86014      -196.17314        26.60014
C11  24014268.39024         0.00024       128.80024        24.30024
E07  25281812.48824        -0.00024     -2609.55024        25.90024                                                                
E27  23578359.66405    -16070.77805        80.72605        30.10005  23576234.43505    -58374.56505        60.90805        32.00005
G08                                                                  23347034.40723        -0.00023     -2104.80023        23.20023
E30                                                                  24380618.37205    215552.79605     -1374.55405        29.90005
> 2021 04 21 16 47 06.4446015  0 22                      
G07  21531818.73905   2611637.69105     -1459.90905        31.60005                                                                
G09  24461316.59024        -0.00024     -3799.35024        23.70024                                                                
G13  22325408.94805  -4355814.32105      2644.60505        34.30005                                                                
G14  20482229.15524         0.00024       683.60024        25.60024  20479876.08405  -2155160.94505       507.58705        33.70005
G17                         0.00023      3241.00023        18.60023                                                                
G28  20758152.437 4  -3036293.596 4       734.980 4        26.400 4                                                                
G30  20545171.78105  -1796277.48905       367.73505        33.80005  20542827.70306  -1334997.10606       274.58406        40.50006
R18  21335246.02423         0.00023      1881.65023        23.40023
R09  21179530.52315  -4751245.05015      1711.96015        30.90015
R16  20108570.23414   1077121.73514      -764.11314        26.80014
R07  21149925.71814  -5054260.23414      1097.64314        27.00014
C34  24965643.95123        -0.00023     -1256.05023        21.50023
C25  24516872.62923        -0.00023     -1983.90023        21.20023
C23  22187301.15824        -0.00024      -196.70024        25.70024
C11  24014245.99124         0.00024       134.15024        25.10024
E07  25282311.72724        -0.00024     -2606.20024        26.90024                        -0.00022     -1940.10022        15.80022
E19                         0.00022      2023.75022        16.00022  26441097.11623         0.00023      1501.50023        21.50023
E21                         0.00022      1801.15022        15.70022                                                                
E27  23578345.95815    -16153.26115        83.08215        30.50015  23576218.63105    -58436.18505        64.03705        33.10005
G08                                                                  23347570.221 4    335774.055 4     -2103.428 4        25.300 4
J01  43626997.76523         0.00023       160.40023        20.70023                                                                
E30                                                                  24380968.01405    216926.90905     -1371.75405        30.90005
> 2021 04 21 16 47 07.4446015  0 19                      
G07  21532098.79305   2613097.57905     -1459.37205        31.20005                                                                
G08                        -0.00023     -2816.05023        18.60023  23348107.79624        -0.00024     -2102.55024        25.30024
G09  24462033.74124        -0.00024     -3804.45024        24.20024                                                                
G13  22324901.74705  -4358459.05905      2645.16705        33.80005                                                                
G14  20482107.48724         0.00024       680.35024        25.40024  20479746.92105  -2155668.50505       507.89105        34.80005
G28  20758010.98314  -3037029.02314       735.17514        26.80014                                                                
G30  20545103.77505  -1796645.25905       368.29805        33.80005  20542757.30007  -1335271.72107       275.03307        41.70007
R18  21334852.14423         0.00023      1884.80023        23.40023
R09  21179193.90415  -4752957.08215      1712.66115        30.90015
R16  20108733.06924        -0.00024      -762.50024        26.40024
R07  21149670.94214  -5055357.85814      1095.74814        26.80014
C34  24965890.72823        -0.00023     -1259.80023        22.30023
C23  22187329.98624        -0.00024      -197.00024        24.30024
C11  24014210.96224         0.00024       132.20024        24.10024
E07  25282811.82824        -0.00024     -2606.60024        26.90024  25280684.80124        -0.00024     -1942.50024        24.20024
E27  23578328.01805    -16236.93005        83.78505        30.60005  23576203.98805    -58498.67305        63.77005        33.00005
J01  43626955.542 4   -127945.651 4       162.369 4        23.500 4                                                                
E19                                                                  26440714.62923         0.00023      1497.55023        22.10023
E30                                                                  24381317.92005    218300.11805     -1371.51005        31.60005
> 2021 04 21 16 47 08.4446015  0 18                      
G07  21532369.15915   2614549.79215     -1443.72715        31.40015                                                                
G08  23350989.65523        -0.00023     -2799.40023        21.20023  23348641.38024        -0.00024     -2090.00024        24.10024
G09  24462763.09024        -0.00024     -3786.65024        24.60024                                                                
G13  22324392.05315  -4361111.32215      2660.82115        33.60015                                                                
G14  20481959.34324   -712560.85324       692.66324        26.10024  20479615.56515  -2156181.71615       519.46815        30.70015
G28  20757881.12624         0.00024       749.20024        26.10024                                                                
G30  20545030.28015  -1797020.66315       383.78715        33.30015  20542686.50206  -1335552.07306       286.59606        38.80006
J01                                                                                         0.00023       228.50023        19.20023
R18  21334532.81923         0.00023      1902.20023        23.10023
R09  21178881.77415  -4754673.46215      1724.85915        30.90015
R16  20108837.05024        -0.00024      -747.55024        26.40024
R07  21149458.94324         0.00024      1114.20024        25.70024
C25  24517629.90623        -0.00023     -1975.85023        21.20023
C23  22187364.41624        -0.00024      -181.40024        25.40024
C11  24014189.63124         0.00024       143.65024        24.30024
E07  25283304.64124        -0.00024     -2587.10024        26.90024                                                                
E27  23578306.68605    -16328.34205        98.60405        30.50005  23576184.45515    -58566.93115        74.39815        30.60015
E30                                                                  24381668.03115    219667.39015     -1361.22115        31.60015
> 2021 04 21 16 47 09.4446015  0 20                      
G07  21532642.23015   2615990.07415     -1440.23515        31.50015                                                                
G09  24463491.84523        -0.00023     -3781.15023        22.30023                                                                
G13  22323890.76025  -4363775.41725      2664.08125        33.70025                                                                
G14  20481835.48924         0.00024       700.45024        25.40024  20479483.01705  -2156703.72105       522.07105        35.30005
G17                         0.00023      3243.20023        17.90023                                                                
G28  20757725.79424  -3038516.52324       753.98424        26.30024                                                                
G30  20544959.48925  -1797407.99925       387.42125        33.50025  20542612.41407  -1335841.30007       289.31407        42.00007
R18  21334114.86823         0.00023      1907.85023        22.50023
R09  21178551.66215  -4756406.36215      1732.49715        30.60015
R16  20108996.20024   1079391.74324      -743.41124        26.90024
R07  21149264.63724  -5057576.51624      1120.33824        27.60024
C34  24966366.11323        -0.00023     -1247.30023        21.50023
C23  22187391.95724        -0.00024      -173.45024        24.90024
C11  24014161.11124         0.00024       149.90024        24.00024
E07  25283788.16624        -0.00024     -2587.20024        27.20024                                                                
E27  23578287.46015    -16432.18115       104.54415        30.50015  23576165.22905    -58644.24905        76.57205        34.20005
G08                                                                  23349175.57124        -0.00024     -2088.25024        27.10024
J01  43626865.81823         0.00023       177.95023        21.90023                                                                
E19                                                                  26439941.07823         0.00023      1515.25023        21.50023
E30                                                                  24382013.65205    221025.51805     -1359.23705        33.10005
> 2021 04 21 16 47 10.4446015  0 22                      
G07  21532917.92225   2617437.70825     -1455.47325        31.40025                                                                
G09  24464193.54223        -0.00023     -3794.00023        23.20023                                                                
G13  22323392.38815  -4366432.08315      2648.65315        33.50015                                                                
G14  20481690.87224         0.00024       684.75024        24.20024  20479351.59106  -2157220.17406       510.57206        36.70006
G21                         0.00022      1085.15022        13.60022                                                                
G28  20757582.37614  -3039264.52114       739.72114        26.70014                                                                
G30  20544879.62725  -1797787.98125       372.16825        33.50025  20542540.04707  -1336125.06007       277.97107        42.90007
R18  21333752.60124         0.00024      1892.00024        23.60024
R09  21178232.26605  -4758131.31905      1717.12005        31.20005
R16  20109127.39214   1080142.05414      -758.32714        26.60014
R07  21149072.35324         0.00024      1099.40024        26.90024
C34  24966591.14023        -0.00023     -1253.30023        21.60023
C25  24518393.02123        -0.00023     -1970.10023        21.40023
C23  22187441.90524        -0.00024      -187.75024        25.50024
C11  24014134.01224         0.00024       132.30024        25.40024
E07  25284286.30424        -0.00024     -2599.30024        25.70024  25282160.77523        -0.00023     -1931.75023        20.50023
E15                         0.00023      2590.80023        17.50023                                                                
E27  23578270.85415    -16528.40015        89.20715        29.90015  23576148.02305    -58716.19005        65.53805        34.80005
G08                                                                  23349708.184 4    344165.669 4     -2100.803 4        27.100 4
J01  43626822.83024         0.00024       165.45024        23.90024                                                                
E19                                                                  26439556.92724         0.00024      1507.30024        23.80024
E30                                                                  24382360.99405    222388.90205     -1369.64305        33.90005
> 2021 04 21 16 47 11.4446015  0 19                      
G07  21533202.51525   2618899.01325     -1463.10425        30.30025                                                                
G09  24464916.13124        -0.00024     -3806.05024        23.60024                                                                
G13  22322884.02925  -4369075.00125      2640.93025        33.50025                                                                
G14  20481564.14924   -714643.41924       675.93924        26.20024  20479222.17006  -2157726.36306       504.79106        36.50006
G28  20757437.96514  -3039997.18214       731.40114        27.10014                                                                
G30  20544817.65925  -1798154.27225       364.37725        33.40025  20542470.88407  -1336398.60407       272.15307        43.80007
R18  21333463.09123         0.00023      1879.15023        23.20023
R09  21177895.38905  -4759842.44305      1709.28105        31.40005
R16  20109282.47414   1080906.12514      -765.74814        26.90014
R07  21148869.78324         0.00024      1090.20024        26.20024
C23  22187464.77824        -0.00024      -196.90024        25.20024
C11  24014114.91523         0.00023       128.45023        22.50023
E07  25284785.84724        -0.00024     -2604.85024        26.70024                                                                
E27  23578259.55105    -16611.13905        81.42305        30.10005  23576132.52405    -58778.01605        60.24905        35.40005
G08                                                                  23350244.60324        -0.00024     -2108.00024        26.70024
J01  43626784.846 4   -128610.352 4       160.796 4        23.700 4                                                                
E19                                                                  26439174.781 4   -177647.881 4      1501.271 4        24.400 4
E21                                                                                         0.00023      1343.45023        19.40023
E30                                                                  24382710.94115       747.33715     -1374.87715        34.80015
> 2021 04 21 16 47 12.4446015  0 20                      
G07  21533469.28605   2620363.54105     -1466.55405        31.00005                                                                
G09  24465640.68624        -0.00024     -3805.20024        23.60024                                                                
G13  22322378.53605  -4371714.57805      2637.48505        33.40005                                                                
G14  20481444.48824         0.00024       674.80024        25.10024  20479093.51606  -2158230.03406       502.12506        36.80006
G28  20757310.51024         0.00024       727.20024        25.50024                                                                
G30  20544746.56505  -1798517.31505       360.97205        32.80005  20542401.28907  -1336669.71207       269.52107        43.80007
J01  43626741.93224         0.00024       160.40024        26.50024                         0.00023       219.00023        18.20023
R09  21177605.44605  -4761550.41805      1705.84605        32.10005
R16  20109434.12514   1081674.02814      -769.73914        27.80014
R07  21148642.197 4  -5060888.225 4      1087.958 4        27.000 4
C34  24967080.74723        -0.00023     -1265.90023        21.00023
C25                        -0.00023     -1990.25023        19.40023
C23  22187518.39824    -17397.88924      -199.62224        26.10024
C11  24014080.69523         0.00023       124.20023        23.30023
E07  25285267.57124        -0.00024     -2609.05024        25.50024                                                                
E19                         0.00022      2011.80022        17.30022  26438793.70114   -179147.89814      1498.19114        23.70014
E27  23578240.92005    -16690.81905        77.95605        30.50005  23576117.19105    -58837.51305        57.38605        35.40005
G08                                                                  23350780.288 4    348378.338 4     -2109.183 4        26.300 4
E21                                                                  26537445.20624         0.00024      1339.55024        24.40024
E30                                                                  24383060.75505      2122.96105     -1377.73005        34.80005
> 2021 04 21 16 47 13.4446015  0 21                      
G07  21533755.72005   2621829.28405     -1464.46305        31.00005                                                                
G08                        -0.00023     -2818.25023        17.60023  23351320.64624        -0.00024     -2109.90024        28.00024
G09  24466367.51624        -0.00024     -3806.25024        24.60024                                                                
G13  22321884.61005  -4374352.90305      2639.52505        33.70005                                                                
G14  20481306.11624         0.00024       673.40024        24.90024  20478966.23606  -2158732.74606       503.59806        36.50006
G17                         0.00023      3244.25023        18.00023                                                                
G28  20757154.45024  -3041456.28024       730.17824        26.80024                                                                
G30  20544683.14105  -1798879.15505       363.01405        33.40005  20542332.46807  -1336939.93607       271.27607        43.60007
J01  43626702.492 4   -128928.980 4       160.640 4        26.100 4  43629014.19123         0.00023       213.70023        21.60023
R18  21332745.17723         0.00023      1878.10023        22.60023
R09  21177289.89705  -4763257.34105      1708.28405        31.00005
R16  20109564.96714   1082445.15014      -769.21814        27.00014
R07  21148480.14124         0.00024      1092.45024        26.30024
C34  24967333.00423        -0.00023     -1267.00023        23.00023
C23  22187548.50914    -17199.82214      -196.65114        25.80014
C11  24014052.34724         0.00024       124.15024        24.00024
E07  25285766.85724        -0.00024     -2607.35024        27.00024  25283652.12123        -0.00023     -1947.00023        20.70023
E15                         0.00023      2582.65023        19.20023                                                                
E27  23578226.36315    -16769.58515        80.13315        29.90015  23576103.23306    -58896.26206        61.40306        35.80006
E19                                                                  26438410.69814   -180647.01114      1500.62814        26.30014
E30                                                                  24383412.84405      3499.26405     -1373.73705        35.00005
> 2021 04 21 16 47 14.4446015  0 21                      
G07  21534036.04105   2623294.25905     -1462.31405        31.90005                                                                
G09  24467088.83124        -0.00024     -3801.65024        24.30024                                                                
G13  22321380.67405  -4376991.83305      2642.28905        33.30005                                                                
G14  20481173.92324         0.00024       674.75024        25.60024  20478836.74105  -2159235.94605       505.22405        33.70005
G21                         0.00023      1077.00023        17.60023                                                                
G28  20757041.14414  -3042185.02414       731.37614        27.00014                                                                
G30  20544612.70505  -1799241.72205       365.16605        33.50005  20542263.83106  -1337210.72206       272.79906        41.40006
R18  21332389.93823         0.00023      1879.60023        22.60023
R09  21176966.73505  -4764965.17605      1710.75705        31.10005
R16  20109701.38814   1083212.72414      -765.08714        26.90014
R07  21148275.997 4  -5063064.406 4      1090.253 4        26.500 4
C34  24967574.95223        -0.00023     -1262.65023        21.00023
C25  24519929.65023        -0.00023     -1986.80023        21.30023
C23  22187583.00014    -17001.94814      -196.60614        25.80014
C11  24014034.37424         0.00024       125.15024        24.80024
E07  25286275.02024        -0.00024     -2608.65024        26.20024  25284148.89224        -0.00024     -1953.50024        24.70024
E27  23578212.58705    -16848.87205        81.86005        30.50005  23576087.05905    -58955.60505        61.67005        31.40005
G08                                                                  23351852.193 4    352595.095 4     -2105.771 4        25.000 4
J01  43626662.33424         0.00024       165.40024        25.00024                                                                
E19                                                                  26438027.57914   -182146.65014      1501.67714        24.90014
E30                                                                  24383762.41705      4874.79905     -1372.90705        30.10005
> 2021 04 21 16 47 15.4446015  0 20                      
G07  21534314.81505   2624750.31405     -1457.94505        32.20005                                                                
G08                        -0.00023     -2818.60023        19.50023  23352390.58724        -0.00024     -2103.45024        24.30024
G09  24467805.60123        -0.00023     -3799.35023        23.30023                                                                
G13  22320872.49205  -4379639.58305      2645.78305        32.90005                                                                
G14  20481066.86324         0.00024       680.30024        24.40024  20478708.39616  -2159745.71016       507.87116        37.40016
G28  20756886.71714  -3042923.15914       737.59214        27.50014                                                                
G30  20544535.92405  -1799613.23305       369.64705        32.70005  20542192.74707  -1337488.08307       275.99507        44.30007
R18  21332044.84323         0.00023      1882.10023        22.90023
R09  21176635.43105  -4766682.21205      1715.16605        31.20005
R16  20109845.25514   1083971.12214      -760.25614        27.20014
R07  21148044.22414  -5064161.87714      1094.50314        27.20014
C34  24967812.05423        -0.00023     -1266.10023        21.00023
C23  22187622.23924        -0.00024      -192.45024        24.90024
C11  24014009.45824         0.00024       131.80024        24.80024
E07  25286769.94424        -0.00024     -2601.70024        25.60024  25284643.51624        -0.00024     -1943.35024        23.90024
E27  23578194.26605    -16937.46405        86.99805        31.70005  23576070.53706    -59021.73506        63.93306        35.80006
J01  43626621.229 4   -129255.596 4       165.624 4        24.600 4                                                                
E19                                                                  26437643.81123         0.00023      1500.65023        23.40023
E21                                                                  26536424.82623         0.00023      1343.25023        20.70023
E30                                                                  24384111.94105      6243.58605     -1370.70205        34.70005
> 2021 04 21 16 47 16.4446015  0 27                      
G05  24478151.11424       772.74024     -1743.20524        28.40024                                                                
G07  21534588.50007   2626208.36207     -1451.84007        43.50007                                                                
G08  23355288.35625    210402.75425     -2808.40625        32.70025  23352927.19124        -0.00024     -2096.75024        26.20024
G09  24468536.77026    308512.56426     -3789.66226        35.90026                                                                
G13  22320369.11617  -4382285.22317      2651.94717        44.60017                                                                
G14  20480911.54626   -718030.71326       687.16626        35.70026  20478579.76015  -2160253.91415       512.77915        34.90015
G17  22607042.05624         0.00024      3253.25024        23.60024                                                                
G21  24685913.88324         0.00024      1093.30024        27.30024                                                                
G28  20756749.98716  -3043660.63716       742.16216        38.40016                                                                
G30  20544465.44817  -1799982.69617       375.55017        46.40017  20542122.27007  -1337763.98807       280.59207        42.10007
J01  43626582.53123         0.00023       168.80023        22.70023  43628893.93124         0.00024       228.95024        25.10024
R18  21331701.256 5  -6501451.073 5      1892.505 5        34.000 5
R09  21176315.82707  -4768397.27307      1721.49507        42.60007
R16  20110009.21616   1084731.50216      -753.76916        38.30016
R15                        -0.00022     -2618.10022        16.20022
R05                        -0.00022     -4486.90022        16.40022
R07  21147842.73916  -5065255.37216      1100.63616        38.40016
C34  24968065.05426    131624.76626     -1252.36126        36.60026
C25  24520670.07925        -0.00025     -1973.00025        34.00025
C23  22187656.99026    -16619.12826      -184.27326        40.70026
C11  24013982.75126    -62599.13026       137.80326        41.40026
E07  25287262.478 6      1462.189 6     -2596.163 6        39.800 6  25285142.34624        -0.00024     -1934.15024        27.40024
E19  26439380.78323         0.00023      2023.40023        23.40023  26437265.148 4   -185160.467 4      1503.297 4        26.000 4
E21                         0.00023      1806.20023        19.80023  26536084.537 4    -12659.849 4      1350.838 4        26.800 4
E27  23578178.35307    -17024.15007        91.96807        43.20007  23576053.72305    -59086.49505        71.43005        34.20005
E30  24386582.50623        -0.00023     -1827.35023        21.00023  24384461.77406      7613.53006     -1363.43306        36.90006
G01                                                                  24828124.33323         0.00023      1944.05023        21.00023
> 2021 04 21 16 47 17.4446015  0 30                      
G05  24478478.27725      2515.96125     -1745.71325        32.90025                                                                
G07  21534863.20007   2627658.84807     -1452.76007        47.40007                                                                
G08  23355821.77626    213211.35826     -2811.27126        36.70026  23353462.70924        -0.00024     -2097.35024        27.10024
G09  24469255.76226    312302.09526     -3792.75526        39.90026                        -0.00023     -2837.65023        18.70023
G13  22319865.85428  -4384938.92828      2650.79528        48.50028                                                                
G14  20480784.82326   -718718.72726       685.74926        39.70026  20478447.04106  -2160767.88506       511.96106        35.70006
G15  24971132.62023         0.00023      3258.15023        22.60023                                                                
G17  22606433.86725   -895475.75625      3251.40525        32.50025                                                                
G21  24685704.71725    -20086.77725      1089.40825        34.10025                                                                
G28  20756612.47127  -3044404.22027       741.20927        42.70027                                                                
G30  20544396.28628  -1800359.81328       374.77528        50.20028  20542050.11007  -1338045.78307       279.91107        42.80007
J01  43626536.153 3   -129592.115 3       169.512 3        23.100 3  43628860.74325    -33877.68625       227.23525        32.10025
R18  21331338.29716  -6503341.82716      1887.62616        37.30016
R09  21175993.04007  -4770120.24907      1720.65707        46.30007
R16  20110149.00917   1085483.44317      -754.71917        41.90017
R15  23188376.29624      1432.50124     -2618.05724        27.40024
R05  24223508.38924      2434.19024     -4477.13324        27.60024
R19                         0.00022      4073.90022        14.10022
R17                        -0.00022     -1537.95022        14.10022
R07  21147639.26907  -5066356.96207      1098.96607        42.00007
R08  24379702.35823         0.00023      3622.45023        20.30023
C34  24968305.87726    132878.15326     -1255.90326        40.00026
C25  24521054.20327    531371.88827     -1975.68427        41.60027
C23  22187691.25627    -16436.38327      -185.25127        44.90027
C11  24013955.56027    -62738.05827       135.90127        45.70027
E07  25287757.22507      4055.77907     -2595.89507        44.00007  25285634.99423        -0.00023     -1942.25023        23.00023
E19  26439005.233 5     -1124.369 5      2020.150 5        32.800 5                                                                
E21  26537865.093 5     -1004.007 5      1805.193 5        32.200 5                                                                
E27  23578162.55308    -17118.62008        92.53808        47.50008  23576035.82505    -59157.15705        68.32405        35.10005
E30  24386925.858 5      1021.953 5     -1828.317 5        34.900 5  24384808.12405      8977.42405     -1366.39905        34.20005
> 2021 04 21 16 47 18.4446014  0 31                      
G05  24478781.76105      4262.12905     -1743.80905        33.40005                                                                
G07  21535110.92208   2629112.08808     -1450.97108        47.50008                                                                
G08  23356319.22506    216023.55406     -2809.36206        35.80006  23353966.454 4    361002.571 4     -2097.596 4        26.300 4
G09  24469954.07206    316095.04906     -3790.46306        39.60006                                                                
G13  22319331.11708  -4387588.71008      2652.62708        48.70008                                                                
G14  20480624.52706   -719403.86406       687.35906        39.60006  20478286.74605  -2161279.50305       513.15905        34.60005
G15  24970488.45924         0.00024      3259.25024        25.40024                                                                
G17  22605788.80705   -898726.73505      3253.46705        33.00005                                                                
G21  24685465.87605    -21175.76905      1091.42405        34.00005                                                                
G28  20756442.28307  -3045144.87707       742.87407        42.90007                                                                
G30  20544294.15008  -1800734.07708       376.47108        50.70008  20541948.87406  -1338325.25506       281.13806        41.40006
J01  43626459.49923         0.00023       172.00023        22.70023  43628787.98705    -34104.00305       229.10305        31.20005
R06                        -0.00022     -2763.75022        16.00022
R18  21330956.75506  -6505228.27706      1889.12806        37.80006
R09  21175641.47707  -4771840.49207      1722.58807        46.20007
R16  20110261.82407   1086239.23807      -753.01007        42.00007
R15  23188835.37214      4050.44914     -2617.40714        27.00014
R05  24224320.62114      6911.89114     -4475.35014        28.10014
R19  22999831.21724         0.00024      4078.95024        24.20024
R07  21147395.63107  -5067455.13907      1100.16807        41.70007
R08  24378977.55424         0.00024      3619.80024        24.60024
C34  24968517.32426    134134.50926     -1254.10126        39.80026
C25  24521403.25527    533347.76527     -1973.39427        41.60027
C23  22187697.34627    -16250.78627      -183.14627        45.10027
C11  24013899.89227    -62873.46727       137.66827        45.80027
E07  25288219.29907      6652.52007     -2594.80307        44.20007                                                                
E15  27090305.341 5     -3781.810 5      2595.797 5        33.600 5                                                                
E19  26438587.71505     -3144.04805      2022.04805        32.60005  26436460.68823         0.00023      1506.15023        20.70023
E21  26537491.94505     -2809.53505      1806.90005        31.90005                                                                
E27  23578111.38207    -17210.38407        93.70607        47.30007  23575987.65205    -59225.73405        70.95705        34.30005
E30  24387242.83206      2850.78406     -1827.34306        35.80006  24385126.59705     10343.39805     -1363.17805        33.20005
> 2021 04 21 16 47 19.4446014  0 31                      
G05  24479110.72205      6005.54305     -1744.24305        32.20005                                                                
G07  21535386.22007   2630562.50707     -1451.24407        47.40007                                                                
G08  23356855.34306    218832.58806     -2809.94306        35.80006  23354503.17124        -0.00024     -2099.60024        27.10024
G09  24470674.26206    319884.98806     -3790.71606        39.90006                                                                
G13  22318825.75608  -4390241.72008      2652.12108        48.80008                                                                
G14  20480492.40706   -720091.68906       686.89406        39.40006  20478156.12506  -2161793.17006       513.00306        35.50006
G15  24969895.55824         0.00024      3262.30024        25.50024                                                                
G17  22605162.32905   -901980.63905      3253.09305        33.70005                                                                
G21  24685263.90505    -22267.51505      1090.86805        34.60005                                                                
G28  20756301.46907  -3045888.28607       742.55107        42.40007                                                                
G30  20544224.68708  -1801111.15208       376.23508        50.90008  20541877.31207  -1338606.82707       280.96307        42.20007
J01  43626418.816 4   -129933.161 4       171.341 4        24.700 4  43628741.00805    -34333.99705       229.23805        31.80005
R18  21330606.68606  -6507117.61906      1888.35606        37.80006
R09  21175320.18807  -4773563.75007      1722.51907        46.30007
R16  20110404.01407   1086991.58807      -753.17007        41.60007
R15  23189328.61914      6666.60214     -2617.25414        27.10014
R05  24225131.34814     11386.20514     -4474.92914        28.50014
R19  22999002.67923         0.00023      4080.40023        22.80023
R07  21147193.06006  -5068555.61606      1099.32006        40.60006
R08  24378320.49724         0.00024      3620.55024        24.10024
C34  24968759.64526    135388.30126     -1254.76126        39.80026
C25  24521780.78227    535320.65727     -1973.59127        41.80027
C23  22187731.91027    -16068.09727      -183.44427        45.00027
C11  24013872.99927    -63011.39427       136.96827        45.70027
E07  25288713.74507      9246.34607     -2594.66507        44.10007                                                                
E15  27089811.07105     -6378.43505      2596.03905        33.60005                                                                
E19  26438205.26905     -5166.79105      2021.90905        33.50005  26436075.84324         0.00024      1505.85024        23.50024
E21  26537146.37305     -4617.51505      1807.03805        32.00005  26535014.54923         0.00023      1355.55023        20.70023
E27  23578095.58107    -17305.10607        93.92007        47.00007  23575970.95205    -59296.43605        70.60805        34.90005
E30  24387591.87905      4676.91705     -1826.74205        34.30005  24385474.14505     11707.08605     -1363.85905        32.80005
E36  28834460.17623        -0.00023     -1012.10023        22.50023                                                                
> 2021 04 21 16 47 20.4446014  0 31                      
G05  24479442.04005      7751.29605     -1747.75605        32.40005                                                                
G07  21535663.87507   2632015.23007     -1454.65407        47.40007                                                                
G08  23357381.22606    221643.97506     -2813.40406        35.50006  23355037.749 4    365199.642 4     -2100.770 4        26.900 4
G09  24471395.91006    323676.96806     -3793.87206        39.90006                                                                
G13  22318320.95308  -4392892.33908      2648.61908        48.50008                                                                
G14  20480361.14606   -720777.15106       683.52606        39.20006  20478026.06306  -2162305.02406       510.36506        36.30006
G15  24969228.26824  -1046816.67824      3257.24624        25.80024                                                                
G17  22604556.19605   -905232.25805      3249.69105        32.50005                                                                
G21  24685055.89605    -23356.92305      1087.38805        34.10005                                                                
G28  20756162.11307  -3046629.29807       739.05007        42.10007                                                                
G30  20544152.78408  -1801485.91608       372.86108        51.10008  20541806.30807  -1338886.68407       278.42307        42.70007
J01  43626373.29524         0.00024       168.85024        24.70024  43628701.48305    -34561.92805       226.24305        32.60005
R06  20752158.68423        -0.00023     -2761.20023        20.60023
R18  21330249.38106  -6509004.16906      1884.38206        38.00006
R09  21174997.35907  -4775284.80207      1719.17207        46.70007
R16  20110546.46307   1087746.19407      -756.56207        41.70007
R15  23189856.00214      9285.93814     -2620.72614        26.80014
R05  24225970.81414     15862.52414     -4478.07314        28.90014
R19  22998244.55224         0.00024      4080.30024        24.10024
R07  21146981.75406  -5069653.18906      1095.31906        40.80006
R08  24377614.83324         0.00024      3616.30024        23.60024
C34  24968998.92726    136644.57326     -1258.35726        39.70026
C25  24522160.66627    537295.57927     -1976.82127        42.10027
C23  22187767.03427    -15883.25627      -186.71227        44.70027
C11  24013846.36527    -63146.81327       133.32427        45.80027
E07  25289206.95107     11842.41207     -2597.88007        44.30007  25287081.42323        -0.00023     -1938.95023        20.30023
E15  27089319.45905     -8972.99305      2592.87105        32.80005                                                                
E19  26437817.68505     -7187.13405      2018.66605        33.50005  26435692.456 4   -191184.889 4      1507.247 4        24.200 4
E21  26536806.45605     -6423.35105      1803.93305        31.80005                                                                
E27  23578078.24107    -17397.68207        90.77807        47.00007  23575952.41305    -59365.58205        68.98105        34.70005
E30  24387934.58905      6505.05605     -1829.91605        32.80005  24385821.35205     13072.24205     -1365.36405        33.50005
> 2021 04 21 16 47 21.4446014  0 30                      
G05  24479777.99405      9500.84705     -1750.10505        33.80005                                                                
G07  21535941.66907   2633471.68107     -1456.99807        47.00007                                                                
G08  23357918.64106    224459.26506     -2815.86406        35.90006  23355571.86624        -0.00024     -2098.95024        26.80024
G09  24472114.10006    327472.49706     -3795.88606        39.80006                        -0.00023     -2831.75023        19.10023
G13  22317817.48808  -4395539.10608      2646.14008        48.70008                                                                
G14  20480233.02106   -721458.73406       680.96806        39.20006  20477896.13906  -2162814.00806       508.50706        36.90006
G15  24968639.66224         0.00024      3256.90024        24.80024                                                                
G17  22603937.31105   -908480.20005      3247.45505        32.50005                                                                
G21  24684841.13205    -24442.45205      1085.04205        33.70005                                                                
G28  20756024.39506  -3047366.49406       736.56806        41.20006                                                                
G30  20544081.02008  -1801856.92908       370.41908        51.00008  20541735.44407  -1339163.73507       276.59607        43.70007
J01  43626332.110 4   -130271.124 4       167.572 4        25.000 4  43628651.00505    -34786.45205       224.14305        32.10005
R18  21329894.61306  -6510886.47106      1881.52506        38.20006
R09  21174676.16807  -4777002.17807      1716.86607        46.80007
R16  20110686.95307   1088504.50007      -758.80807        41.60007
R15  23190325.96314     11907.72914     -2622.28314        26.50014
R05  24226822.41104     20342.19004     -4480.02404        28.80004
R19  22997537.82724         0.00024      4080.15024        25.00024
R07  21146771.78606  -5070746.41306      1092.40206        41.10006
R08  24376999.24624         0.00024      3618.30024        24.40024
C34  24969238.94706    137904.75506     -1260.79806        39.90006
C25  24522539.19107    539274.54807     -1978.83807        41.80007
C23  22187805.29407    -15694.32907      -188.93107        45.00007
C11  24013820.76907    -63277.73607       130.81807        45.80007
E07  25289702.99507     14442.16607     -2600.32807        44.20007  25287576.56723        -0.00023     -1944.40023        22.10023
E15  27088825.58805    -11564.10505      2590.52605        33.10005                         0.00023      1935.40023        19.00023
E19  26437432.33805     -9203.71105      2015.87405        33.50005  26435311.00704   -192690.83504      1505.64204        23.90004
E21  26536460.98205     -8225.66205      1801.83105        31.90005  26534332.75523         0.00023      1348.30023        22.20023
E27  23578061.33907    -17486.62507        88.41607        47.00007  23575935.81106    -59431.98806        66.04706        35.50006
E30  24388281.03605      8336.68405     -1832.10605        33.50005  24386169.59805     14440.03805     -1368.47605        35.10005
> 2021 04 21 16 47 22.4446014  0 30                      
G05  24480120.56605     11251.84505     -1752.20905        33.80005                                                                
G07  21536218.58707   2634929.49807     -1458.91707        46.80007                                                                
G08  23358458.17606    227275.98606     -2817.90006        36.20006  23356107.803 4    369405.325 4     -2104.374 4        26.300 4
G09  24472836.80806    331269.14306     -3797.63106        39.90006                                                                
G13  22317314.04508  -4398184.41708      2644.10208        48.10008                                                                
G14  20480105.21906   -722138.86506       678.93806        39.20006  20477766.83706  -2163321.92306       507.02806        37.30006
G15  24968007.00924  -1053327.48124      3254.25724        26.50024                                                                
G17  22603313.95205   -911726.79805      3245.44105        32.10005                                                                
G21  24684639.88005    -25526.61305      1082.96705        33.10005                                                                
G28  20755878.00506  -3048102.22306       734.61106        41.30006                                                                
G30  20544013.47608  -1802226.56408       368.50608        50.80008  20541664.90207  -1339439.76207       275.18107        44.10007
J01  43626287.95024         0.00024       161.65024        23.50024  43628614.03905    -35009.87405       222.43005        32.30005
R18  21329535.07106  -6512766.95906      1879.09606        38.30006
R09  21174354.99907  -4778718.29107      1715.01507        46.90007
R16  20110823.26707   1089264.11907      -760.72707        41.60007
R15  23190837.01824        -0.00024     -2623.70024        25.60024
R05  24227662.93804     24822.81604     -4481.56404        29.20004
R19  22996737.29023         0.00023      4080.55023        23.40023
R07  21146567.23706  -5071837.69806      1089.86206        41.00006
R08  24376292.54424         0.00024      3609.20024        25.10024
C34  24969480.18906    139166.48806     -1262.93706        39.90006
C25  24522918.93707    541254.13207     -1980.61607        41.50007
C23  22187840.57807    -15504.67007      -190.74807        44.80007
C11  24013795.79607    -63407.56407       128.58907        45.60007
E07  25290197.86107     17043.24207     -2602.24907        44.40007  25288074.73124        -0.00024     -1949.45024        23.50024
E15  27088332.33805    -14154.03305      2588.90105        33.20005                                                                
E19  26437053.90905    -11218.97605      2014.00705        33.00005  26434927.78104   -194195.75104      1504.13104        24.50004
E21  26536115.53005    -10026.66005      1799.79605        32.00005  26533992.100 4    -20739.953 4      1344.338 4        24.800 4
E27  23578045.95907    -17574.33307        86.64007        46.80007  23575918.63206    -59497.50706        64.80006        35.80006
E30  24388630.50305     10169.44305     -1833.80605        33.10005  24386518.46505     15808.63105     -1369.32905        35.00005
> 2021 04 21 16 47 23.4446014  0 31                      
G05  24480446.29905     13005.03905     -1753.73405        33.40005                                                                
G07  21536495.45407   2636389.45807     -1460.51507        47.40007                                                                
G08  23358991.06606    230094.99306     -2819.61506        36.30006  23356644.89124        -0.00024     -2107.40024        28.90024
G09  24473561.56506    335067.67806     -3799.01106        40.30006  24471215.39023        -0.00023     -2836.25023        20.10023
G13  22316812.35208  -4400827.47608      2642.46608        48.50008                                                                
G14  20479974.36806   -722816.75306       677.32906        39.10006  20477637.48606  -2163828.11306       505.74706        37.10006
G15  24967384.19914  -1056580.56514      3251.94614        26.50014                                                                
G17  22602698.33705   -914971.31005      3244.08105        32.80005                                                                
G21  24684434.38105    -26608.55405      1081.34805        33.80005                                                                
G28  20755739.96007  -3048835.75207       732.97107        41.60007                                                                
G30  20543941.08508  -1802594.02808       366.90308        51.40008  20541595.20907  -1339714.17107       273.99307        43.30007
J01  43626245.838 3   -130603.379 3       165.101 3        22.900 3  43628567.73005    -35231.47005       221.08705        32.50005
R06  20753668.09423        -0.00023     -2771.45023        20.50023
R18  21329194.06606  -6514644.79406      1877.10006        37.90006
R09  21174031.98207  -4780432.34807      1713.52807        46.90007
R16  20110967.02707   1090025.84207      -762.25307        41.60007
R15  23191301.85524     17156.68724     -2625.79424        27.10024
R05  24228499.21804     29305.18104     -4482.94004        28.10004
R19  22995932.80624         0.00024      4075.80024        24.20024
R07  21146358.14006  -5072926.26306      1087.72006        40.70006
R08  24375590.88924         0.00024      3611.50024        24.60024
C34  24969721.98106    140430.57506     -1264.72906        39.30006
C25  24523301.03107    543235.64707     -1981.92107        42.60007
C23  22187877.91107    -15313.02407      -192.14507        45.20007
C11  24013771.67107    -63535.00507       126.77507        45.90007
E07  25290694.17607     19646.37907     -2603.67207        44.30007                                                                
E15  27087839.63805    -16742.06105      2587.68105        32.80005  27085741.09123         0.00023      1937.35023        20.90023
E19  26436671.23305    -13232.10505      2012.41705        33.60005  26434541.80704   -195698.89004      1502.69104        24.00004
E21  26535777.22305    -11825.72405      1798.30505        31.70005  26533647.79704    -22083.31604      1342.74104        23.60004
E27  23578028.73007    -17660.03407        85.21807        46.80007  23575902.60206    -59561.49406        63.80206        36.20006
E30  24388978.72105     12004.06805     -1834.97005        32.50005  24386868.18205     17178.61705     -1370.14805        33.80005
> 2021 04 21 16 47 24.4446014  0 30                      
G05  24480785.65605     14755.05205     -1742.50005        33.40005                                                                
G07  21536774.55307   2637846.17807     -1449.30307        46.70007                                                                
G08  23359529.18606    232910.85606     -2808.40106        35.70006  23357181.811 4    373613.300 4     -2096.849 4        27.100 4
G09  24474286.15606    338862.71506     -3787.36206        39.80006                                                                
G13  22316307.79308  -4403473.69108      2653.60808        48.20008                                                                
G14  20479848.74706   -723497.74806       688.29706        39.80006  20477507.96806  -2164336.66306       513.94806        36.90006
G15  24966767.51814  -1059835.43214      3261.74314        25.70014                                                                
G17  22602086.45205   -918219.10605      3255.21305        33.60005                                                                
G21  24684240.10705    -27693.74105      1093.01605        33.70005                                                                
G28  20755602.34707  -3049572.39607       743.99107        41.70007                                                                
G30  20543874.52308  -1802964.73208       378.05908        51.00008  20541524.75007  -1339990.99907       282.29307        43.60007
J01  43626202.36024         0.00024       174.50024        24.90024  43628529.04905    -35456.55805       232.59305        32.40005
R18  21328840.90206  -6516525.55406      1888.02706        38.10006
R09  21173710.29707  -4782149.83007      1725.10107        46.10007
R16  20111114.81607   1090784.16407      -750.75607        41.70007
R15  23191788.11004     19779.39804     -2613.63604        29.00004
R05  24229320.94124        -0.00024     -4470.10024        25.80024
R19  22995204.30324         0.00024      4082.80024        23.90024
R07  21146158.47006  -5074017.48406      1098.57006        40.40006
R08  24374956.82024         0.00024      3624.15024        25.40024
C34  24969962.40606    141691.60006     -1253.32106        38.80006
C25  24523679.66107    545213.67707     -1970.48707        42.10007
C23  22187913.57807    -15124.71507      -180.88007        44.20007
C11  24013746.78007    -63665.43107       137.74507        45.40007
E07  25291187.02707     22246.23107     -2593.06907        43.40007  25289068.69324        -0.00024     -1937.05024        24.60024
E15  27087348.57005    -19333.53605      2598.48205        32.20005  27085221.24323         0.00023      1942.95023        22.90023
E19  26436284.19305    -15248.44105      2022.93505        33.50005  26434164.06014   -197204.70814      1511.86414        24.50014
E21  26535430.65505    -13628.27105      1809.24205        32.00005  26533303.92723         0.00023      1348.30023        22.20023
E27  23578010.73407    -17749.09807        95.90707        46.80007  23575886.10505    -59628.02605        73.73805        35.10005
E30  24389317.77805     13835.18405     -1824.07005        31.90005  24387216.53305     18546.02405     -1360.03805        32.30005
> 2021 04 21 16 47 25.4446014  0 31                      
G05  24481103.52705     16495.30305     -1744.59005        33.10005                                                                
G07  21537047.15407   2639293.04707     -1451.05807        46.90007                                                                
G08  23360068.00305    235717.03405     -2810.41605        35.30005  23357714.33324        -0.00024     -2097.20024        28.70024
G09  24475007.54706    342647.75406     -3789.11806        40.30006                                                                
G13  22315806.03108  -4406129.65908      2651.71908        48.40008                                                                
G14  20479717.82806   -724188.50406       686.55406        39.90006  20477376.74906  -2164852.47906       512.65906        37.00006
G15  24966154.23314  -1063100.41714      3262.25514        26.10014                                                                
G17  22601466.87205   -921476.72005      3253.37205        34.80005                                                                
G21  24684024.34705    -28788.59805      1090.60505        33.80005                                                                
G28  20755457.93706  -3050318.81606       742.24206        41.30006                                                                
G30  20543800.56508  -1803345.27108       376.39208        50.60008  20541452.29007  -1340275.17507       281.09407        43.80007
J01  43626161.079 4   -130947.462 4       172.866 4        25.200 4  43628480.57305    -35691.88605       231.29405        31.20005
R06  20754717.75023        -0.00023     -2756.35023        20.90023
R18  21328493.53306  -6518415.80606      1885.78306        38.50006
R09  21173386.61107  -4783877.44607      1723.44807        46.80007
R16  20111256.10907   1091532.35807      -752.39407        41.70007
R15  23192260.67414     22390.13414     -2615.39114        28.40014
R05  24230168.24524     38252.56924     -4472.42224        26.50024
R19  22994452.21424         0.00024      4086.25024        24.70024
R07  21145963.09606  -5075118.24206      1096.25606        40.90006
R08  24374249.10024    -27292.94824      3622.18724        26.10024
C34  24970205.32806    142943.13906     -1255.86406        39.00006
C25  24524057.79007    547181.82507     -1972.20607        42.50007
C23  22187947.54507    -14946.26507      -182.55807        44.60007
C11  24013721.08907    -63805.29207       135.58307        45.80007
E07  25291682.67407     24836.11107     -2593.75307        43.50007  25289561.942 4    432533.140 4     -1937.139 4        25.200 4
E15  27086852.80405    -21935.22905      2598.04505        32.90005  27084731.47224         0.00024      1935.40024        23.50024
E19  26435904.74605    -17274.60705      2022.33805        33.20005  26433783.11513   -198717.72713      1510.11513        23.30013
E21  26535083.58605    -15440.81805      1808.79405        32.70005                                                                
E27  23577991.93807    -17848.17307        95.25407        47.10007  23575867.60806    -59701.99406        71.84206        35.80006
E30  24389660.23105     15656.12205     -1824.33705        29.90005  24387562.88305     19905.85405     -1362.06005        32.20005
> 2021 04 21 16 47 26.4446014  0 30                      
G05  24481434.53805     18246.14405     -1754.92405        33.60005                                                                
G07  21537326.90207   2640750.47007     -1461.41007        47.30007                                                                
G08  23360600.77505    238533.84605     -2820.92305        35.10005  23358249.803 4    377812.257 4     -2106.746 4        27.400 4
G09  24475729.48806    346443.05906     -3799.26706        40.40006                                                                
G13  22315302.12108  -4408774.97508      2641.28808        48.50008                                                                
G14  20479587.75906   -724868.60306       676.07806        39.70006  20477246.98006  -2165360.34806       504.84706        37.00006
G15  24965523.51024         0.00024      3248.00024        25.10024                                                                
G17  22600849.94005   -924723.93005      3243.14505        34.70005                                                                
G21  24683822.02805    -29872.92105      1080.23405        33.30005                                                                
G28  20755314.67706  -3051054.60606       731.78206        41.00006                                                                
G30  20543734.05208  -1803715.26308       366.01408        50.60008  20541381.88007  -1340551.46307       273.30207        43.70007
J01  43626117.95023         0.00023       167.15023        23.40023  43628440.74205    -35916.92705       221.30005        31.60005
R18  21328134.42206  -6520294.89206      1874.89806        38.40006
R09  21173061.67707  -4785594.49207      1713.09107        46.70007
R16  20111403.04807   1092291.14907      -762.76707        42.00007
R15  23192734.68714     25012.34914     -2625.72214        27.60014
R05  24231017.89814     42730.71014     -4482.51614        26.80014
R19  22993713.26624         0.00024      4071.85024        25.20024
R07  21145762.57606  -5076207.70306      1085.16306        40.80006
R08  24373587.49914    -30908.60414      3610.41714        26.20014
C34  24970447.30206    144205.32606     -1266.25706        39.10006
C25  24524437.96807    549160.18207     -1982.23007        42.60007
C23  22187983.86107    -14757.49807      -192.63507        44.50007
C11  24013695.34707    -63934.49007       125.10007        45.90007
E07  25292174.97407     27436.46807     -2604.09907        43.50007  25290060.53804    434475.02804     -1944.78104        25.00004
E15  27086358.78705    -24526.51605      2587.72005        32.80005                                                                
E19  26435518.05405    -19290.19705      2011.77205        33.20005  26433393.12523         0.00023      1498.85023        23.10023
E21  26534743.06205    -17243.02205      1798.50905        32.70005                                                                
E27  23577973.39107    -17936.87807        85.03007        46.70007  23575849.96106    -59768.17306        63.24906        35.60006
E30  24390009.83015     17487.37115     -1835.17315        29.80015  24387910.08405     21273.36205     -1370.67205        32.30005
> 2021 04 21 16 47 27.4446014  0 30                      
G05  24481772.05905     20000.33905     -1747.87905        32.90005                                                                
G07  21537604.46417   2642211.76217     -1456.18217        46.80017                                                                
G08  23361136.15915    241353.48515     -2814.28515        35.30015  23358786.98524        -0.00024     -2104.75024        25.60024
G09  24476448.04506    350241.43806     -3791.88306        39.90006                                                                
G13  22314801.12218  -4411417.40918      2647.68718        48.00018                                                                
G14  20479459.40206   -725545.31206       682.41106        39.40006  20477118.62305  -2165865.68905       509.61105        34.70005
G15  24964881.01024         0.00024      3256.40024        25.50024                                                                
G17  22600227.22515   -927967.84015      3249.72415        33.80015                                                                
G21  24683609.13005    -30953.83205      1087.23305        33.20005                                                                
G28  20755175.22816  -3051786.46316       736.90616        40.70016                                                                
G30  20543656.95908  -1804081.95108       372.43108        50.30008  20541311.98306  -1340825.27606       278.05306        41.00006
J01  43626074.434 3   -131281.008 3       165.607 3        23.400 3  43628394.22815    -36139.45715       227.89015        31.80015
R18  21327788.11716  -6522170.11816      1879.70916        37.60016
R09  21172745.05107  -4787308.33107      1719.78707        45.90007
R16  20111541.80606   1093053.20906      -756.18406        41.10006
R15  23193251.78324        -0.00024     -2617.70024        25.70024
R05  24231867.46424        -0.00024     -4474.75024        23.90024
R19  22992968.83624         0.00024      4076.30024        24.70024
R07  21145551.77616  -5077293.73916      1091.14416        40.60016
R08  24372905.12614    -34519.33014      3617.11614        26.00014
C34  24970690.38806    145470.96806     -1259.48706        38.60006
C25  24524817.15907    551141.58707     -1974.99707        41.90007
C23  22188020.69007    -14565.60507      -186.03907        44.30007
C11  24013671.01907    -64060.15607       131.79707        45.10007
E07  25292671.68517     30040.09517     -2597.94217        43.60017                                                                
E15  27085867.08205    -27114.73405      2593.86005        32.40005  27083749.64723         0.00023      1930.10023        20.50023
E19  26435134.87415    -21302.56515      2017.96215        32.90015                                                                
E21  26534398.55515    -19042.05115      1804.73315        31.90015                         0.00023      1341.80023        19.70023
E27  23577958.35617    -18022.41417        91.34617        46.30017  23575834.32705    -59831.97905        67.21405        33.50005
E30  24390359.64215     19321.81215     -1829.46615        30.10015  24388259.89615     22643.10215     -1366.29715        30.30015
> 2021 04 21 16 47 28.4446014  0 32                      
G05  24482099.30605     21740.34005     -1737.94205        34.30005                                                                
G07  21537881.04627   2643658.17727     -1444.32727        47.30027                                                                
G08  23361670.56326    244159.60026     -2803.95726        36.50026  23359322.588 4    382014.537 4     -2093.882 4        26.500 4
G09  24477169.81906    354025.33006     -3781.67006        40.20006                                                                
G13  22314292.54828  -4414073.45428      2658.13728        48.20028                                                                
G14  20479328.26706   -726236.11506       692.92006        39.80006  20476986.58805  -2166381.54305       517.49905        34.90005
G15  24964259.71324         0.00024      3266.75024        24.60024                                                                
G17  22599610.72625   -931226.05725      3260.28425        34.10025                                                                
G19                         0.00022      3870.35022        16.40022                                                                
G21  24683402.44705    -32048.97505      1097.27205        33.60005                                                                
G28  20755032.40126  -3052533.08326       748.66826        40.70026                                                                
G30  20543587.28108  -1804462.81808       383.03508        50.90008  20541239.30706  -1341109.70306       286.08106        41.10006
J01                                                                  43628350.93225    -36376.00125       238.79725        32.10025
R06  20756303.82123        -0.00023     -2768.10023        20.60023
R18  21327429.43906  -6524059.47406      1891.24706        37.60006
R09  21172416.65207  -4789036.73607      1730.67907        46.40007
R16  20111675.98707   1093800.73407      -745.32207        41.60007
R15  23193673.76524        -0.00024     -2609.35024        24.30024
R05  24232710.35524        -0.00024     -4463.00024        24.90024
R19  22992148.17824         0.00024      4091.55024        24.90024
R07  21145353.18706  -5078392.74706      1101.46806        41.10006
R08  24372258.94714    -38145.15014      3627.72214        26.90014
C34  24970931.59506    146722.71206     -1249.75106        38.90006
C25  24525195.97107    553108.67007     -1964.89307        42.30007
C23  22188054.74007    -14387.93407      -175.52007        44.90007
C11  24013644.81007    -64199.65907       141.49707        45.10007
E07  25293164.11807     32629.47007     -2587.15907        43.90007                                                                
E15  27085368.10105    -29717.38205      2604.75605        33.10005                                                                
E19  26434746.21705    -23329.04805      2028.82605        33.40005                                                                
E21  26534056.36605    -20855.57305      1816.02305        32.40005                                                                
E27  23577938.44407    -18122.16207       101.96107        46.80007  23575815.01405    -59906.56405        76.60005        33.90005
E30  24390704.57705     21141.50205     -1817.61105        30.40005  24388605.73005     24002.02305     -1356.96405        32.10005
> 2021 04 21 16 47 29.4446014  0 31                      
G05  24482429.94505     23480.31505     -1742.63105        34.30005                                                                
G07  21538158.32128   2645104.57728     -1448.92828        47.60028                                                                
G08  23362204.46026    246965.71826     -2808.61126        35.60026  23359855.58724        -0.00024     -2097.10024        25.00024
G09  24477889.28806    357808.91606     -3786.04306        40.20006                                                                
G13  22313784.96628  -4416729.51328      2653.48028        48.10028                                                                
G14  20479198.42406   -726926.91406       688.19306        39.90006  20476856.14605  -2166897.38505       513.84705        35.40005
G15  24963658.29724         0.00024      3263.50024        24.40024                                                                
G17  22598999.11725   -934484.35525      3255.81625        34.40025                                                                
G21  24683195.25805    -33144.10005      1092.66005        32.70005                                                                
G28  20754889.66726  -3053279.64126       744.02026        41.00026                                                                
G30  20543514.09908  -1804843.80108       378.46008        50.80008  20541166.72406  -1341394.17506       282.55406        41.40006
J01  43625981.93923         0.00023       179.25023        21.80023  43628310.72725    -36612.97725       234.47625        32.50025
R18  21327076.55006  -6525948.44206      1886.16106        37.50006
R09  21172097.64007  -4790765.39007      1726.15707        46.90007
R16  20111814.45907   1094548.05907      -749.81307        42.00007
R15  23194217.85524        -0.00024     -2610.75024        23.50024
R05  24233488.58324     56162.45124     -4468.60324        27.00024
R19  22991437.33724         0.00024      4085.15024        26.40024
R17                        -0.00022     -1542.50022        15.90022
R07  21145143.30007  -5079491.79207      1096.21507        41.70007
R08  24371601.17014    -41770.78414      3622.72214        27.00014
C34  24971171.69606    147974.59206     -1254.51106        38.50006
C25  24525573.67707    555075.46707     -1969.19607        42.10007
C23  22188090.08307    -14210.47707      -179.89207        44.70007
C11  24013616.89707    -64338.99907       136.66907        45.40007
E07  25293658.14307     35218.63507     -2591.53607        44.40007  25291535.91223        -0.00023     -1935.55023        22.00023
E15  27084872.51105    -32320.44105      2600.91305        33.30005                                                                
E19  26434358.25305    -25355.65505      2024.28705        34.20005  26432235.42223         0.00023      1511.35023        21.50023
E21  26533708.87405    -22669.35705      1811.79505        32.40005  26531587.54223         0.00023      1352.35023        21.90023
E27  23577919.82407    -18222.26407        97.76307        46.80007  23575795.19505    -59981.31705        72.45205        33.30005
E30  24391055.00205     22960.85205     -1821.78905        31.80005  24388953.15705     25360.66805     -1360.88005        32.60005
> 2021 04 21 16 47 30.4446014  0 30                      
G05  24482761.23805     25223.52105     -1744.29905        34.80005                                                                
G07  21538433.85307   2646554.66407     -1450.49307        47.00007                                                                
G08  23362731.81806    249775.59606     -2810.52206        35.80006  23360389.240 4    386207.980 4     -2098.531 4        26.600 4
G09  24478610.61106    361595.42706     -3787.46306        40.10006                                                                
G13  22313281.93708  -4419381.78908      2651.79508        48.40008                                                                
G14  20479066.23806   -727614.43106       686.61706        40.00006  20476724.85906  -2167410.77806       512.61806        36.40006
G15  24963025.15824         0.00024      3261.95024        24.10024                                                                
G17  22598377.37005   -937739.58005      3254.27805        33.50005                                                                
G21  24682996.81805    -34235.99405      1090.77405        32.60005                                                                
G28  20754751.18606  -3054022.42106       742.39506        40.30006                                                                
G30  20543441.57208  -1805221.57608       376.92008        51.20008  20541094.79707  -1341676.28507       281.43107        42.60007
J01  43625937.89324         0.00024       167.80024        23.60024  43628267.88005    -36846.51105       233.38805        32.90005
R18  21326715.92306  -6527833.74606      1884.22006        38.20006
R09  21171777.48407  -4792490.91907      1724.64807        47.20007
R16  20111959.58107   1095298.55407      -751.33607        41.90007
R15  23194668.46623        -0.00023     -2613.35023        21.90023
R05  24234335.22014     60631.83014     -4469.81014        27.50014
R19  22990672.29024         0.00024      4084.00024        25.20024
R07  21144939.46407  -5080587.01107      1094.06507        42.10007
R08  24370927.85914    -45392.73414      3621.33614        29.20014
C34  24971413.35106    149229.78606     -1256.37006        39.00006
C25  24525950.23907    557045.16907     -1970.65907        41.60007
C23  22188125.48107    -14029.98307      -181.35707        44.90007
C11  24013590.83807    -64474.95407       134.79207        45.40007
E07  25294152.52307     37810.90207     -2593.05007        44.40007  25292061.17123        -0.00023     -1940.80023        22.60023
E15  27084378.47605    -34920.57405      2599.34105        33.30005                                                                
E19  26433978.13905    -27379.07405      2022.58705        33.70005  26431853.21023         0.00023      1512.35023        23.10023
E21  26533361.13705    -24480.02005      1810.07905        32.70005  26531240.70523         0.00023      1352.10023        23.40023
E27  23577899.16107    -18319.32207        96.31007        46.70007  23575777.53005    -60053.78505        72.83705        34.70005
E30  24391401.28505     24783.06105     -1822.57005        32.00005  24389300.04005     26721.49705     -1360.43905        33.50005
> 2021 04 21 16 47 31.4446014  0 30                      
G05  24483102.55505     26970.05905     -1744.37605        33.40005                                                                
G07  21538708.61608   2648007.49708     -1450.93908        47.70008                                                                
G08  23363271.29806    252588.34606     -2810.89706        36.60006  23360923.92324        -0.00024     -2098.75024        25.90024
G09  24479329.66706    365384.95706     -3787.25606        40.60006                                                                
G13  22312779.33808  -4422031.24108      2651.29608        48.30008                                                                
G14  20478945.87506   -728298.59506       685.92406        40.20006  20476594.60206  -2167921.69206       512.24106        35.70006
G15  24962392.14924         0.00024      3262.75024        25.40024                                                                
G17  22597753.95405   -940991.57105      3253.85805        35.20005                                                                
G21  24682775.72405    -35324.61305      1090.70005        32.00005                                                                
G28  20754607.73806  -3054762.39206       741.75406        40.20006                                                                
G30  20543369.17508  -1805596.08108       376.33208        50.70008  20541023.29907  -1341955.96707       281.06907        42.20007
J01  43625894.87523         0.00023       173.55023        23.30023  43628217.36805    -37077.57305       232.88605        32.00005
R18  21326378.20906  -6529715.31806      1883.26406        37.50006
R09  21171447.86607  -4794213.26507      1724.33107        47.20007
R16  20112095.54007   1096052.24707      -751.80707        42.10007
R05  24235182.28614     65103.01714     -4469.44814        27.20014
R19  22989938.85024         0.00024      4087.50024        25.60024
R17  22455299.77323        -0.00023     -1548.15023        20.90023
R07  21144737.25707  -5081678.35307      1092.99507        41.80007
R08  24370251.98014    -49011.69914      3621.14214        28.90014
C34  24971656.03606    150488.42206     -1256.57606        39.40006
C25  24526329.92907    559017.91207     -1970.45707        42.60007
C23  22188160.11007    -13846.42307      -181.61307        45.10007
C11  24013565.50807    -64607.39907       134.44507        45.60007
E07  25294643.13707     40406.39307     -2593.88507        44.70007  25292552.08423        -0.00023     -1932.75023        22.30023
E15  27083880.67305    -37517.54705      2598.48505        33.40005                                                                
E19  26433588.86105    -29399.17605      2021.73205        34.30005  26431469.92823         0.00023      1511.45023        23.40023
E21  26533019.82605    -26287.65205      1809.23205        33.20005  26530892.499 3    -32857.831 3      1351.798 3        23.300 3
E27  23577882.82507    -18413.19707        95.43807        46.70007  23575759.09505    -60123.91505        72.14505        34.50005
E30  24391746.19905     26608.47605     -1823.86805        31.10005  24389646.15315     28084.55315     -1360.87915        32.20015
> 2021 04 21 16 47 32.4446014  0 31                      
G05  24483426.19105     28714.35305     -1749.50205        34.30005                                                                
G07  21538985.78407   2649458.03807     -1455.60307        47.10007                                                                
G08  23363807.48606    255398.91806     -2815.73206        36.80006  23361460.111 4    390407.160 4     -2102.975 4        26.100 4
G09  24480051.12706    369171.98506     -3792.27506        40.10006                        -0.00022     -2833.00022        17.40022
G13  22312275.24708  -4424682.86708      2646.48208        48.70008                                                                
G14  20478813.22606   -728984.96706       681.28106        40.40006  20476464.35306  -2168434.26506       508.75906        36.80006
G15  24961780.73324         0.00024      3253.55024        24.90024                                                                
G17  22597140.13905   -944245.93905      3249.36105        35.00005                                                                
G21  24682584.61605    -36415.38605      1085.41105        32.20005                                                                
G28  20754467.59506  -3055504.57006       737.07606        40.20006                                                                
G30  20543297.08508  -1805972.91008       371.78908        51.10008  20540952.10907  -1342237.35807       277.62507        42.80007
J01  43625849.76624         0.00024       169.80024        24.70024  43628174.05705    -37311.35905       228.79305        32.50005
R18  21326020.71706  -6531598.79506      1878.14306        37.30006
R09  21171128.14708  -4795938.08508      1719.76408        47.70008
R16  20112232.10507   1096803.49207      -756.34007        42.40007
R15  23195751.62924        -0.00024     -2615.80024        23.60024
R05  24235972.69914     69572.03014     -4473.69114        26.90014
R19  22989154.15424         0.00024      4083.05024        25.10024
R17  22455630.90423        -0.00023     -1556.80023        22.50023
R07  21144535.05707  -5082771.51507      1087.74607        42.10007
R08  24369575.80824    -52632.98324      3615.59824        29.20024
C34  24971894.83106    151745.00906     -1262.00806        39.50006
C25  24526708.72707    560988.18607     -1975.45207        42.60007
C23  22188193.84707    -13665.23807      -186.16407        44.80007
C11  24013539.88607    -64741.86107       129.26407        45.60007
E07  25295137.35507     42999.49607     -2597.73907        44.40007                                                                
E15  27083390.37305    -40117.23905      2594.90305        33.90005                                                                
E19  26433207.98505    -31421.66105      2017.74305        34.30005  26431080.358 4   -209252.010 4      1506.152 4        24.600 4
E21  26532678.52305    -28097.78905      1805.52505        33.40005  26530553.29414    -34209.69614      1348.08514        24.70014
E27  23577862.89907    -18509.58307        91.82707        46.30007  23575741.26805    -60195.85205        67.32605        34.60005
E30  24392098.91505     28431.09105     -1827.15805        32.30005  24389993.77205     29445.66405     -1365.85005        33.30005
> 2021 04 21 16 47 33.4446014  0 30                      
G05  24483769.86305     30466.63505     -1752.27705        34.10005                                                                
G07  21539262.90307   2650916.53707     -1458.40407        47.20007                                                                
G08  23364343.32606    258217.54006     -2818.58706        37.30006  23361995.95124        -0.00024     -2103.80024        27.70024
G09  24480772.83806    372966.67106     -3794.53706        40.10006                                                                
G13  22311769.90708  -4427326.45008      2643.65208        48.70008                                                                
G14  20478682.32706   -729663.25406       678.37406        39.80006  20476335.25206  -2168940.78106       506.57106        37.20006
G15  24961163.27024         0.00024      3254.85024        24.80024                                                                
G17  22596514.88205   -947492.36605      3246.46005        35.00005                                                                
G21  24682370.07505    -37498.24305      1082.84605        31.90005                                                                
G28  20754325.90306  -3056238.68506       734.17806        40.60006                                                                
G30  20543228.24308  -1806341.73308       368.94908        51.10008  20540881.76807  -1342512.77407       275.48207        43.10007
J01  43625807.30623         0.00023       172.05023        23.20023  43628137.89305    -37537.35005       226.34005        32.50005
R18  21325667.67206  -6533473.70306      1874.92006        36.00006
R09  21170807.17908  -4797654.94608      1717.00708        48.00008
R16  20112384.21007   1097562.76307      -759.03307        42.50007
R15  23196230.20824        -0.00024     -2622.05024        25.30024
R05  24236879.38224        -0.00024     -4479.90024        25.70024
R19  22988352.31924         0.00024      4075.35024        23.90024
R07  21144343.60007  -5083855.99507      1084.36107        43.30007
R08  24368919.67225    -56246.06125      3613.20825        30.10025
C34  24972141.37006    153009.63206     -1264.68506        39.80006
C25  24527089.57307    562966.05907     -1977.77007        42.30007
C23  22188230.23207    -13476.30807      -188.76407        44.60007
C11  24013516.01307    -64868.23307       126.29107        45.90007
E07  25295633.32207     45600.48507     -2600.84607        44.20007  25293542.56923        -0.00023     -1945.75023        23.30023
E15  27082894.92605    -42709.17405      2592.27705        33.40005                         0.00023      1938.30023        19.10023
E19  26432820.76305    -33436.14705      2014.60005        34.30005  26430701.53003   -210756.25803      1504.67103        23.20003
E21  26532332.67305    -29900.13205      1802.52005        32.80005  26530209.54204    -35555.44404      1346.24704        25.20004
E27  23577848.61907    -18598.10407        88.75307        46.70007  23575723.69005    -60262.00205        67.99505        35.10005
E30  24392447.38415     30261.65315     -1830.20615        32.50015  24390341.64205     30812.50605     -1365.14105        34.30005
> 2021 04 21 16 47 34.4446014  0 32                      
G05  24484101.48705     32221.01805     -1756.20505        34.40005                                                                
G07  21539539.06507   2652377.05407     -1462.27607        47.00007                                                                
G08  23364878.80906    261038.33806     -2822.62706        37.30006  23362530.834 4    394618.473 4     -2107.732 4        27.700 4
G09  24481495.39106    376763.21006     -3798.18106        40.20006                                                                
G13  22311266.01008  -4429967.89608      2639.63508        48.50008                                                                
G14  20478549.87306   -730339.40906       674.29506        40.20006  20476206.69506  -2169445.70106       503.60906        36.60006
G15  24960539.45623         0.00023      3250.15023        23.20023                                                                
G17  22595901.56105   -950736.79805      3242.71605        35.00005                                                                
G19  25175059.84723         0.00023      3868.05023        20.20023                                                                
G21  24682161.77305    -38578.91005      1078.89005        31.20005                                                                
G28  20754183.55606  -3056970.70306       730.24206        40.30006                                                                
G30  20543156.94608  -1806708.53208       365.03508        50.80008  20540811.97007  -1342786.69407       272.60407        42.80007
J01  43625763.290 4   -132410.853 4       166.417 4        23.900 4  43628083.68405    -37761.70305       222.72405        32.00005
R18  21325312.47106  -6535346.10306      1870.41106        35.80006
R09  21170484.65608  -4799369.86908      1713.18708        47.90008
R16  20112526.66507   1098323.94307      -762.91207        42.50007
R15  23196688.64524        -0.00024     -2627.25024        24.40024
R05  24237692.17324        -0.00024     -4481.25024        26.40024
R19  22987616.08224         0.00024      4074.25024        25.20024
R17  22456185.08423        -0.00023     -1565.45023        22.80023
R07  21144137.39607  -5084937.83707      1079.78107        43.30007
R08  24368250.88925    -59856.96925      3609.09625        30.10025
C34  24972383.05706    154276.53606     -1268.72306        40.10006
C25  24527469.76407    564945.78507     -1981.34607        42.30007
C23  22188267.46007    -13285.48907      -192.50007        45.30007
C11  24013491.48407    -64992.29807       122.22007        45.70007
E07  25296127.73307     48203.44607     -2604.71607        44.40007  25294031.88423        -0.00023     -1946.55023        22.80023
E15  27082405.41905    -45299.22005      2588.29405        33.50005                                                                
E19  26432439.18105    -35448.52605      2010.55105        34.60005  26430314.85223         0.00023      1496.05023        22.20023
E21  26531991.86205    -31700.65605      1798.97205        31.40005  26529867.23304    -36900.00104      1343.44304        26.10004
E27  23577829.48607    -18684.73707        84.86907        46.80007  23575706.95605    -60326.67905        64.05405        34.70005
E30  24392797.29605     32093.78805     -1833.79005        32.60005  24390689.45505     32180.72205     -1369.10905        33.50005
> 2021 04 21 16 47 35.4446014  0 33                      
G05  24484431.90005     33978.49805     -1758.72605        33.80005                                                                
G07  21539815.51607   2653840.57607     -1464.72407        47.10007                                                                
G08  23365418.47706    263862.23206     -2825.19306        37.30006  23363068.70424        -0.00024     -2110.35024        27.80024
G09  24482217.63306    380562.51306     -3800.40906        40.40006                                                                
G13  22310766.59708  -4432606.23008      2637.07008        48.50008                                                                
G14  20478424.60106   -731012.46106       671.80406        40.60006  20476078.72506  -2169948.30506       501.69206        36.60006
G15  24959920.72624         0.00024      3251.15024        24.70024                                                                
G17  22595292.72405   -953978.23905      3240.24605        35.20005                                                                
G19  25174309.80823         0.00023      3865.85023        22.90023                                                                
G21  24681945.36405    -39656.54405      1076.33105        30.50005                                                                
G28  20754045.39306  -3057699.61806       727.65506        40.40006                                                                
G30  20543088.93508  -1807072.30408       362.57208        50.60008  20540742.45907  -1343058.32707       270.73207        42.90007
J01  43625720.46224         0.00024       167.80024        24.00024  43628048.35005    -37983.33105       220.57005        32.80005
R06                        -0.00023     -2759.25023        18.00023
R18  21324957.85806  -6537214.93406      1867.45006        36.60006
R09  21170163.02108  -4801081.87308      1710.83908        47.60008
R16  20112668.50907   1099088.12807      -765.38707        42.30007
R15  23197201.63124        -0.00024     -2626.35024        25.60024
R05  24238532.83224     83007.52824     -4482.04224        26.70024
R19  22986856.15023         0.00023      4071.80023        23.10023
R17  22456502.90623        -0.00023     -1565.65023        22.90023
R07  21143942.27307  -5086016.11507      1076.79507        43.20007
R08  24367550.31625    -63464.69225      3606.47925        30.30025
C34  24972627.13006    155546.61506     -1271.40406        39.70006
C25  24527850.24207    566928.28407     -1983.62307        42.40007
C23  22188304.37607    -13091.80007      -194.84407        45.10007
C11  24013468.74107    -65113.10907       119.45307        45.60007
E07  25296623.33207     50809.36107     -2606.99607        44.50007  25294533.179 3    451966.013 3     -1946.885 3        23.300 3
E15  27081914.10105    -47886.54605      2586.27305        34.00005                                                                
E19  26432056.38805    -37457.90805      2008.17205        35.00005  26429930.85923         0.00023      1497.30023        22.80023
E21  26531652.53905    -33498.23105      1796.44405        32.90005  26529526.71004    -38242.38704      1341.56804        25.30004
E27  23577816.03707    -18768.49707        82.68107        46.70007  23575692.00805    -60389.24405        61.71105        35.00005
E30  24393146.89505     33928.67605     -1836.10805        32.50005  24391038.75505     33550.92505     -1370.98905        32.60005
> 2021 04 21 16 47 36.4446014  0 32                      
G01  24820496.221 5     -1148.863 5      2601.585 5        30.100 5                                                                
G05  24484775.43605     35737.69305     -1758.56905        33.00005                                                                
G07  21540093.99607   2655305.76207     -1464.68407        46.60007                                                                
G08  23365952.98006    266687.92606     -2825.25006        37.00006  23363605.905 4    398837.351 4     -2109.652 4        28.100 4
G09  24482941.00606    384363.23106     -3799.99706        40.60006                                                                
G13  22310263.51908  -4435242.81108      2637.00408        48.30008                                                                
G14  20478297.16306   -731683.73806       671.71206        40.70006  20475950.38706  -2170449.56506       501.50706        36.60006
G15  24959305.82524         0.00024      3245.55024        24.70024                                                                
G17  22594673.62606   -957218.11206      3240.31306        35.70006                                                                
G19  25173598.67324         0.00024      3862.10024        23.70024                                                                
G21  24681729.78715    -40732.42315      1076.41315        29.90015                                                                
G28  20753909.26006  -3058426.76306       727.61506        40.30006                                                                
G30  20543019.05708  -1807434.40208       362.56108        51.20008  20540673.48107  -1343328.73207       270.73007        42.80007
J01  43625680.263 4   -132740.725 4       165.201 4        24.700 4  43628014.14705    -38203.56805       220.90605        33.50005
R18  21324609.47306  -6539081.66906      1866.96306        37.80006
R09  21169843.11507  -4802792.34407      1711.01807        47.20007
R16  20112812.98207   1099853.93907      -765.30107        42.10007
R15  23197642.29923        -0.00023     -2628.40023        23.20023
R05  24239372.52424        -0.00024     -4479.70024        25.70024
R19  22986099.74724         0.00024      4071.65024        23.90024
R07  21143745.28307  -5087092.14507      1076.23807        43.00007
R08  24366892.24405    -67070.15705      3606.68805        30.10005
C34  24972869.03506    156818.50806     -1271.44206        39.60006
C25  24528231.25207    568912.19607     -1983.17807        42.80007
C23  22188340.92407    -12896.60807      -194.68007        45.30007
C11  24013445.93007    -65232.03707       119.44807        45.60007
E07  25297121.26007     53416.89807     -2607.12607        44.60007  25295028.70914    453913.19514     -1946.45814        23.90014
E15  27081418.51705    -50472.39305      2586.27105        34.30005  27079310.67623         0.00023      1933.60023        21.30023
E19  26431674.42506    -39465.64006      2008.13206        35.50006  26429551.895 4   -215258.927 4      1499.726 4        23.900 4
E21  26531308.65005    -35294.43205      1796.66705        33.40005  26529184.32104    -39583.81204      1341.74804        24.20004
E27  23577798.92207    -18850.69307        82.62307        46.80007  23575676.39206    -60450.63806        62.28706        35.70006
E30  24393491.33005     35765.03705     -1835.88305        31.60005  24391386.78705     34922.18905     -1370.35905        32.60005
> 2021 04 21 16 47 37.4446014  0 32                      
G05  24485102.69405     37496.52605     -1758.95605        33.30005                                                                
G07  21540374.78708   2656770.53508     -1464.90408        47.60008                                                                
G08  23366490.69306    269513.30606     -2825.57306        36.90006  23364146.01624        -0.00024     -2109.05024        27.70024
G09  24483660.69206    388163.32806     -3800.08806        40.30006                                                                
G13  22309763.65008  -4437879.72008      2636.73508        48.50008                                                                
G14  20478177.13106   -732355.32806       671.37706        41.10006  20475822.86006  -2170951.08906       501.38306        36.70006
G15  24958715.71824         0.00024      3247.00024        25.60024                                                                
G17  22594058.93606   -960458.38306      3240.12206        36.10006                                                                
G19  25172831.68924         0.00024      3862.45024        25.20024                                                                
G21  24681517.71914    -41808.68114      1075.95314        29.10014                                                                
G28  20753768.24306  -3059154.25106       727.32806        40.20006                                                                
G30  20542951.48808  -1807796.92108       362.37908        51.10008  20540604.41307  -1343599.42507       270.58307        42.80007
J01  43625638.47724         0.00024       161.55024        25.60024  43627969.96305    -38424.49105       220.89205        33.00005
R18  21324259.50006  -6540948.37806      1866.36206        38.20006
R09  21169521.62307  -4804503.35007      1710.94407        47.10007
R16  20112951.97107   1100619.20907      -765.38107        42.40007
R15  23198135.94224     53809.00224     -2625.61924        26.70024
R05  24240245.40524        -0.00024     -4481.90024        24.10024
R19  22985375.33324         0.00024      4072.50024        23.90024
R17                        -0.00023     -1564.50023        19.80023
R07  21143538.91007  -5088168.04907      1075.50307        42.90007
R08  24366219.09505    -70676.50605      3606.16305        30.90005
C34  24973115.64906    158090.24906     -1271.87906        39.50006
C25  24528613.07207    570895.50207     -1983.31207        43.00007
C23  22188379.18207    -12701.94207      -194.71207        45.20007
C11  24013422.73107    -65351.10807       118.84007        45.60007
E07  25297618.80107     56023.89207     -2607.16207        45.00007  25295498.96813    455859.93713     -1946.81513        23.20013
E15  27080929.44005    -53058.95005      2586.42505        33.80005                                                                
E19  26431293.57406    -41473.78106      2008.02306        35.60006                                                                
E21  26530969.17005    -37091.18505      1796.68305        33.90005  26528838.24504    -40925.54304      1341.62604        23.80004
E27  23577784.41707    -18933.48307        82.63207        47.00007  23575660.38805    -60512.42405        61.47105        34.10005
E30  24393846.76905     37600.58205     -1835.82505        33.50005  24391738.32905     36292.93205     -1370.78905        32.70005
> 2021 04 21 16 47 38.4446014  0 33                      
G01  24819506.89525     -1150.96625      2606.65425        30.30025                                                                
G05  24485439.46505     39253.59105     -1755.25205        33.20005                                                                
G07  21540653.39807   2658233.45107     -1460.09607        45.30007                                                                
G08  23367032.52216    272336.44016     -2821.11416        35.80016  23364682.749 4    403055.717 4     -2106.841 4        25.700 4
G09  24484386.89406    391961.31106     -3795.22406        39.60006                                                                
G13  22309261.60208  -4440518.35208      2640.51708        48.10008                                                                
G14  20478040.23006   -733028.64606       675.42506        41.20006  20475694.05406  -2171453.89406       504.42806        36.50006
G15  24958065.57324         0.00024      3251.00024        23.90024                                                                
G17  22593431.87505   -963700.56405      3244.58605        34.10005                                                                
G19  25172099.40024    -24571.01124      3867.81924        26.00024                                                                
G21  24681325.65625    -42886.69625      1080.59025        29.60025                                                                
G28  20753636.43907  -3059883.48607       731.31407        42.10007                                                                
G30  20542882.64008  -1808161.24208       366.67608        51.20008  20540534.96607  -1343871.50407       273.78507        42.50007
J01  43625596.010 4   -133072.432 4       168.114 4        25.000 4  43627940.38705    -38647.57705       224.94805        31.70005
R18  21323919.04006  -6542816.56106      1870.92106        37.80006
R09  21169199.75008  -4806216.34308      1715.02308        47.50008
R16  20113094.17707   1101382.53507      -760.91207        42.80007
R15  23198614.51514     56432.58914     -2620.64014        28.90014
R05  24240967.70924        -0.00024     -4478.45024        25.80024
R19  22984594.47824         0.00024      4073.50024        25.20024
R17  22457303.31523        -0.00023     -1557.25023        22.70023
R07  21143346.84807  -5089245.25207      1078.92407        44.10007
R08  24365514.68714    -74284.67414      3610.31614        29.30014
C34  24973360.38406    159360.33606     -1267.82506        39.00006
C25  24528994.21307    572876.73707     -1978.20607        42.00007
C23  22188415.26207    -12509.24107      -190.23507        45.60007
C11  24013399.45207    -65471.76407       123.37407        44.60007
E07  25298111.46407     58629.02807     -2602.92407        44.70007  25296016.21414    457805.17114     -1943.42214        23.80014
E15  27080441.48305    -55647.57805      2591.31205        35.10005  27078316.85323         0.00023      1933.20023        21.50023
E19  26430908.74506    -43483.70806      2011.85006        35.80006  26428785.91423         0.00023      1502.70023        21.00023
E21  26530624.81305    -38889.95705      1800.68505        33.00005  26528504.08103    -42268.70703      1344.93003        23.20003
E27  23577767.13407    -19018.22507        86.80607        47.10007  23575644.00305    -60575.75805        64.95505        34.90005
E30  24394209.32206     39434.01706     -1830.86506        36.70006  24392087.09205     37662.08505     -1366.80505        32.90005
> 2021 04 21 16 47 39.4446014  0 33                      
G01  24819019.37515     -3763.26915      2617.64015        31.80015                                                                
G05  24485764.98215     41007.28115     -1753.78415        34.90015                                                                
G07  21540929.74907   2659688.46807     -1450.27207        45.10007                                                                
G08  23367576.28815    275153.92215     -2815.98115        32.50015  23365220.81924        -0.00024     -2100.20024        27.30024
G09  24485102.44115    395751.77315     -3788.13015        32.40015                        -0.00023     -2834.50023        18.50023
G13  22308759.99107  -4443160.98707      2643.00507        47.40007                                                                
G14  20477910.06208   -733706.91708       679.47308        48.80008  20475565.08605  -2171960.49405       507.38605        34.50005
G15  24957481.22024  -1108663.59024      3260.02124        27.10024                                                                
G17  22592804.05215   -966950.13315      3254.23915        34.40015                                                                
G19  25171356.15714    -28444.40914      3877.57114        27.80014                                                                
G21  24681137.62814    -43971.03214      1087.02214        27.50014                                                                
G28  20753500.27507  -3060617.53107       734.85307        45.90007                                                                
G30  20542810.63308  -1808531.71508       373.28408        52.30008  20540464.45706  -1344148.13306       278.73806        40.30006
J01  43625554.58223         0.00023       163.35023        22.40023  43627899.55824         0.00024       224.00024        29.20024
R06                        -0.00023     -2776.75023        19.60023
R18  21323569.42506  -6544692.95306      1881.50006        38.40006
R09  21168876.51607  -4807933.40807      1717.11107        44.30007
R16  20113238.31907   1102139.29807      -753.59007        43.50007
R15  23199110.91415     59049.14115     -2612.32315        32.30015
R05  24241877.82224    100923.53524     -4468.23024        28.00024
R17  22457616.54025    194456.98925     -1557.12825        35.30025
R07  21143146.82907  -5090325.89607      1080.80307        45.00007
R08  24364876.67114    -77898.65614      3617.84114        26.20014
C34  24973604.05806    160624.63106     -1260.47906        36.80006
C25  24529374.89207    574849.34707     -1966.98607        43.70007
C23  22188454.47708    -12322.84208      -183.48008        49.30008
C11  24013373.31207    -65600.30407       133.70407        42.60007
E07  25298605.76407     61228.06307     -2597.04107        44.10007  25296483.83315    459745.45515     -1936.65115        30.00015
E15  27079945.56815    -58244.93015      2601.32415        31.90015                                                                
E19  26430526.45205    -45497.77005      2014.45405        35.20005                                                                
E21  26530288.98815    -40694.92715      1807.61715        30.40015  26528163.75923         0.00023      1345.25023        22.80023
E27  23577752.38607    -19108.49707        92.16707        46.20007  23575627.45706    -60643.09106        69.15206        35.60006
E30  24394563.32007     41259.59807     -1821.12907        41.70007  24392433.89415     39025.24815     -1358.19615        30.40015
> 2021 04 21 16 47 40.4446014  0 33                      
G01  24818531.85014     -6380.67114      2616.01214        29.40014                                                                
G05  24486097.68915     42766.30915     -1765.68615        34.70015                                                                
G07  21541208.79407   2661138.02307     -1450.35207        42.40007                                                                
G08  23368107.75816    277970.51216     -2813.75716        36.50016  23365756.485 4    407257.617 4     -2099.676 4        24.600 4
G09  24485822.48016    399541.85716     -3790.52716        39.70016  24483480.801 4   6572565.896 4     -2829.995 4        23.900 4
G13  22308258.67607  -4445798.83307      2633.06207        43.80007                                                                
G14  20477779.29008   -734381.99508       670.81208        48.20008  20475437.01206  -2172464.56906       501.08206        39.10006
G15  24956862.38624         0.00024      3250.25024        24.90024                                                                
G17  22592191.51316   -970199.95816      3246.06416        38.70016                                                                
G19  25170623.40214    -32320.23114      3876.25014        28.20014                                                                
G21  24680915.72015    -45061.56915      1093.51515        32.50015                                                                
G28  20753356.91208  -3061347.48508       725.44308        49.70008                                                                
G30  20542740.11908  -1808902.63208       368.05208        52.90008  20540394.24307  -1344425.06707       274.69107        41.80007
J01  43625509.850 4   -133407.002 4       161.383 4        28.200 4  43627865.91925         0.00025       219.90025        32.00025
R06  20762495.48624        -0.00024     -2780.35024        25.10024
R18  21323218.60507  -6546575.24307      1881.83207        43.80007
R09  21168562.57107  -4809644.91307      1706.23507        45.90007
R16  20113378.86007   1102894.72007      -757.90707        43.10007
R15  23199607.00815     61663.20315     -2615.54415        31.00015
R05  24242732.16814    105391.08914     -4469.34414        27.40014
R17  22457926.46325        -0.00025     -1562.90025        32.00025
R07  21142944.70608  -5091400.57508      1069.18008        48.10008
R08  24364177.19324         0.00024      3607.15024        24.00024
C34  24973843.23016    161883.41716     -1261.64816        36.10016
C25  24529751.36916    576814.72416     -1965.88916        40.50016
C23  22188490.09008    -12137.25708      -188.20008        50.00008
C11  24013348.66706    -65734.68406       134.09706        41.40006
E07  25299100.95906     63828.55406     -2603.49006        40.30006  25296979.02815    461685.01415     -1944.17415        31.00015
E15  27079448.75015    -60846.86415      2601.77715        32.90015                                                                
E19  26430143.85405    -47506.45205      2003.93405        32.90005  26428022.22324         0.00024      1497.30024        23.60024
E21  26529944.16415    -42492.63615      1791.81115        29.90015  26527821.03424         0.00024      1338.10024        25.70024
E27  23577734.63607    -19196.66907        84.13507        46.90007  23575610.60615    -60709.06015        62.97315        35.40015
E30  24394908.01907     43079.82407     -1821.25507        45.90007  24392781.59105     40384.74405     -1359.69305        32.20005
> 2021 04 21 16 47 41.4446014  0 32                      
G05  24486432.16915     44539.18915     -1778.56015        34.30015                                                                
G07  21541483.01507   2662589.22807     -1450.96407        44.20007                                                                
G08  23368633.20515    280787.32015     -2817.50915        32.20015  23366292.72623        -0.00023     -2103.55023        21.80023
G09  24486549.98815    403333.09215     -3789.68615        34.10015                                                                
G13  22307761.23207  -4448426.62707      2623.70007        42.30007                                                                
G14  20477653.28908   -735048.66108       663.95908        49.50008  20475311.01106  -2172962.42706       495.81706        41.20006
G15  24956265.71024         0.00024      3245.20024        23.90024                                                                
G17  22591568.75616   -973444.22816      3244.73116        36.90016                                                                
G19  25169884.02514    -36198.46514      3875.96614        28.20014                                                                
G21  24680716.26914    -46153.18314      1088.32114        29.30014                                                                
G28  20753219.21908  -3062068.59108       718.58908        50.80008                                                                
G30  20542671.37808  -1809267.81908       363.34408        51.90008  20540325.20207  -1344697.75507       271.24507        41.80007
J01  43625470.18924         0.00024       152.55024        25.50024  43627819.06324         0.00024       210.05024        28.50024
R06  20763012.83924     62363.68824     -2782.88124        27.20024
R18  21322865.06107  -6548456.07907      1881.11407        45.30007
R09  21168243.20408  -4811345.84308      1696.80708        48.90008
R16  20113521.17307   1103655.28807      -762.74507        43.50007
R15  23200104.27615     64275.70015     -2616.44015        29.80015
R05  24243573.59714    109864.29614     -4477.37714        27.20014
R17  22458193.79025    197567.52325     -1557.55025        33.70025
R07  21142746.45508  -5092464.18208      1059.16208        48.90008
R08  24363499.87423         0.00023      3602.40023        21.60023
C34  24974088.97225        -0.00025     -1261.90025        34.00025
C25  24530130.21816    578781.13516     -1972.23716        41.20016
C23  22188526.27608    -11946.38808      -192.63908        49.40008
C11  24013321.89706    -65867.74206       132.73706        41.20006
E07  25299601.52415     66434.22415     -2606.47115        34.80015  25297475.69614    463631.36214     -1945.60714        28.20014
E15  27078954.60306    -63450.20006      2604.09806        37.50006                                                                
E19  26429769.62515    -49504.95015      1993.92615        31.10015                                                                
E21  26529613.40425         0.00025      1790.55025        30.00025  26527486.377 4    -46301.107 4      1333.560 4        24.900 4
E27  23577719.25807    -19277.22607        77.43407        44.40007  23575595.52805    -60769.19505        59.39205        34.70005
E30  24395256.28907     44902.02907     -1822.92707        46.40007  24393127.76314     41747.49514     -1360.30914        29.40014
> 2021 04 21 16 47 42.4446013  0 33                      
G01  24817490.03625     -1158.91625      2623.52125        29.70025                                                                
G05  24486738.31115     46320.67215     -1780.19615        31.70015                                                                
G07  21541727.99908   2664038.93408     -1447.68708        47.50008                                                                
G08  23369149.80215    283601.56415     -2813.57515        30.90015  23366797.630 4    411466.758 4     -2113.268 4        24.000 4
G09  24487233.26825        -0.00025     -3784.20025        32.70025                                                                
G13  22307229.75307  -4451046.01707      2616.76807        45.60007                                                                
G14  20477499.25017   -735710.60017       661.68717        45.10017  20475154.57306  -2173456.66906       493.93406        37.00006
G17  22590923.95617   -976690.30017      3245.91817        43.70017                                                                
G19  25169118.40915    -40069.37015      3870.08515        33.00015                                                                
G21  24680476.78925         0.00025      1096.20025        30.90025                                                                
G28  20753054.98617  -3062786.31817       717.55617        44.90017                                                                
G30  20542572.80008  -1809629.88908       361.94608        52.40008  20540225.72506  -1344968.16106       270.17506        39.90006
J01                                                                  43627745.96725         0.00025       206.50025        29.60025
R06  20763509.34914     65154.31614     -2793.36314        27.10014
R18  21322483.17907  -6550338.88907      1885.15307        46.30007
R09  21167889.20317  -4813038.95017      1690.76717        45.30017
R16  20113633.34907   1104419.77207      -765.03907        43.40007
R15  23200559.11425        -0.00025     -2607.10025        33.90025
R05  24244355.20924        -0.00024     -4479.30024        24.50024
R19                         0.00023      4086.00023        19.30023
R17  22458444.47025        -0.00025     -1564.85025        31.30025
R07  21142518.06708  -5093519.23808      1052.31508        47.60008
R08  24362808.00623         0.00023      3612.10023        21.50023
C34  24974300.97925    164409.78225     -1276.50225        31.30025
C25  24530478.63026        -0.00026     -1964.70026        39.70026
C23  22188533.82508    -11752.44608      -194.15908        49.50008
C11  24013266.78906    -66001.25906       135.70506        40.10006
E07  25300061.75916     69039.08516     -2602.54016        40.90016  25297944.62524        -0.00024     -1943.65024        26.50024
E15  27078428.22216    -66057.37016      2610.53916        36.30016                                                                
E19  26429355.96515    -51494.80815      1987.58215        32.40015  26427230.43623         0.00023      1484.15023        22.30023
E21  26529232.42225         0.00025      1782.70025        31.40025                                                                
E27  23577674.94307    -19352.93907        74.84007        46.60007  23575550.91305    -60825.68705        56.17705        30.70005
E30  24395570.52507     46724.86907     -1822.13007        45.40007  24393444.69715     43108.63415     -1359.90715        29.50015
> 2021 04 21 16 47 43.4446013  0 30                      
G05  24487083.85414     48098.77214     -1778.41114        27.10014                                                                
G07  21542002.49117   2665484.55017     -1444.11117        46.00017                                                                
G08  23369681.81525        -0.00025     -2813.85025        33.70025  23367331.14224        -0.00024     -2099.15024        27.70024
G09  24487949.65426    410906.83326     -3776.29726        36.00026                                                                
G13  22306732.28017  -4453659.84917      2612.74417        46.90017                                                                
G14  20477370.82018   -736371.11218       661.45218        50.40018  20475027.04306  -2173949.89006       493.20406        36.90006
G17  22590302.66816   -979937.91416      3250.89916        40.80016                                                                
G19  25168372.40715    -43943.60715      3876.24115        32.50015                                                                
G21  24680258.12225         0.00025      1101.75025        33.20025                                                                
G28  20752918.76218  -3063501.45818       715.98318        49.90018                                                                
G30  20542503.73018  -1809991.03118       362.46618        51.90018  20540156.65506  -1345237.86606       269.86106        39.20006
R06  20764058.75014     67949.92414     -2795.08614        26.50014
R18  21322134.10317  -6552226.00817      1888.78817        43.10017
R09  21167579.69917  -4814726.55417      1687.30617        45.00017
R16  20113781.62817   1105185.72017      -766.25617        43.40017
R15  23201043.46125     69504.01725     -2600.95725        34.90025
R05  24245244.27624        -0.00024     -4467.80024        24.20024
R17  22458745.64325    200697.60625     -1574.14225        29.70025
R07  21142323.98318  -5094568.71018      1047.28418        48.00018
R08  24362124.06224         0.00024      3608.70024        24.10024
C34  24974535.29826        -0.00026     -1260.65026        35.90026
C25  24530854.75226    582782.20226     -1958.57426        38.40026
C23  22188570.58118    -11557.96418      -194.76318        48.40018
C11  24013239.68917    -66138.46217       138.00917        42.90017
E07  25300556.59817     71641.40417     -2599.90217        42.60017  25298434.068 4    467525.888 4     -1940.726 4        26.800 4
E15  27077931.04816    -68671.84616      2617.58316        39.10016  27075797.42523         0.00023      1952.70023        22.10023
E19  26428976.31015    -53477.64315      1980.97815        32.40015                                                                
E21  26528900.134 5    -47865.919 5      1777.438 5        30.800 5  26526773.40623         0.00023      1326.00023        21.00023
E27  23577661.03418    -19426.37818        72.96318        48.50018  23575536.40505    -60880.60505        55.33305        32.00005
E30  24395915.46816     48546.99716     -1821.44816        38.80016  24393791.13914     44470.11714     -1359.80214        28.20014
> 2021 04 21 16 47 44.4446013  0 31                      
G05  24487430.01414     49877.44014     -1778.81314        28.20014                                                                
G07  21542276.10128   2666928.08728     -1441.52128        48.00028                                                                
G08  23370214.44626    289222.49526     -2815.40326        40.30026  23367866.17225        -0.00025     -2101.90025        29.50025
G09  24488669.95526    414680.77926     -3771.11226        38.10026  24486332.77323        -0.00023     -2820.75023        20.30023
G13  22306235.12427  -4456269.99527      2609.20827        46.10027                                                                
G14  20477246.30628   -737031.51028       660.48028        51.40028  20474901.92906  -2174442.34406       493.22206        36.30006
G17  22589687.99325         0.00025      3253.80025        35.20025                                                                
G19  25167618.92915    -47817.62015      3871.86715        31.00015                                                                
G21  24680049.36625    -49449.38025      1106.52325        34.80025                                                                
G28  20752781.95728  -3064216.34028       715.04328        51.40028                                                                
G30  20542434.67728  -1810352.39628       361.51728        51.40028  20540089.10106  -1345506.99106       269.93806        38.90006
R06  20764557.80515     70745.13515     -2794.35315        32.20015
R18  21321777.25006  -6554114.79406      1891.78306        40.60006
R09  21167266.01607  -4816411.80207      1684.61707        46.60007
R16  20113920.63107   1105953.64207      -767.67707        44.50007
R15  23201527.52616     72105.02816     -2607.69216        36.90016
R05  24246035.32824        -0.00024     -4466.85024        25.20024
R19  22979994.09023         0.00023      4101.90023        20.30023
R17  22459029.14726        -0.00026     -1563.05026        40.20026
R07  21142126.61907  -5095612.72207      1044.52107        47.00007
R08  24361476.41023         0.00023      3619.15023        22.00023
C34  24974776.83125    167003.88825     -1256.32725        32.10025
C25  24531230.89127    584740.37327     -1956.62827        42.50027
C23  22188607.95527    -11361.99927      -194.86127        47.40027
C11  24013213.80727    -66276.45827       139.79827        44.90027
E07  25301050.55617     74239.20117     -2596.22317        43.50017  25298927.72614    469465.54014     -1938.28114        28.00014
E15  27077431.79306    -71292.11806      2623.20406        40.00006  27075306.56424         0.00024      1956.65024        26.50024
E19  26428601.46905    -55455.87105      1978.06405        33.30005  26426474.44123         0.00023      1476.00023        21.10023
E21  26528557.67115    -49638.03215      1773.46315        35.00015  26526437.83824         0.00024      1327.55024        24.90024
E27  23577647.14308    -19498.44708        73.04508        48.80008  23575522.21405    -60934.37005        52.04805        31.30005
E30  24396266.42516     50368.53616     -1819.86416        40.70016  24394139.99705     45829.49405     -1361.80005        30.00005
> 2021 04 21 16 47 45.4446013  0 32                      
G05  24487750.57414     51656.92214     -1778.66414        28.40014                                                                
G07  21542550.19427   2668364.01827     -1433.67727        46.40027                                                                
G08  23370745.16116    292032.92816     -2813.10816        36.60016  23368401.68424        -0.00024     -2097.40024        26.30024
G09  24489391.63816    418445.98616     -3762.57016        35.80016                                                                
G13  22305739.34927  -4458884.25027      2618.31727        45.60027                                                                
G14  20477121.97518   -737697.70418       669.80718        51.40018  20474775.79906  -2174939.77206       500.01306        35.90006
G15  24953764.46024     -1438.96124      3261.23524        25.70024                                                                
G17  22589060.01126         0.00026      3267.55026        39.40026                                                                
G19  25166868.63125         0.00025      3885.70025        30.20025                                                                
G21  24679839.59425         0.00025      1112.50025        31.40025                                                                
G28  20752644.43518  -3064937.76218       725.84718        50.80018                                                                
G30  20542366.10718  -1810719.30218       370.07618        51.10018  20540018.73206  -1345780.94706       276.30006        37.90006
R06  20765077.72715     73531.26915     -2783.22415        33.80015
R18  21321426.57515  -6556012.04015      1899.22915        34.80015
R09  21166947.41917  -4818101.91717      1694.39717        47.30017
R16  20114067.01317   1106716.03917      -759.24517        44.90017
R15  23201987.78925        -0.00025     -2598.20025        33.50025
R05  24246840.35324    127760.76624     -4456.17424        27.40024
R19  22979175.43924   -112365.70724      4113.66224        28.30024
R17  22459325.72425    203832.65725     -1558.61525        35.10025
R07  21141933.33617  -5096663.42517      1054.87717        47.30017
R08  24360822.34524         0.00024      3622.45024        25.20024
C34  24975020.04525        -0.00025     -1255.45025        33.40025
C25  24531609.61115    586693.83115     -1951.45315        33.30015
C23  22188645.21207    -11171.99407      -186.36107        46.40007
C11  24013186.60816    -66420.64316       147.17916        39.20016
E07  25301542.59816     76829.50016     -2586.52016        36.20016                                                                
E15  27076930.32316    -73921.66216      2631.65616        38.90016                                                                
E19  26428224.11315    -57438.86415      1986.70615        30.90015                                                                
E21  26528215.69015    -51417.38815      1783.65815        33.30015                                                                
E27  23577632.83618    -19577.16818        82.36218        48.20018  23575507.00804    -60993.07004        58.91604        29.40004
E30  24396610.96916     52183.81816     -1817.60216        38.40016  24394486.34014     47184.86314     -1351.48114        25.90014
> 2021 04 21 16 47 46.4446013  0 32                      
G05  24488107.28324        -0.00024     -1756.85024        26.80024                                                                
G07  21542823.86016   2669789.95416     -1423.58916        40.70016                                                                
G08  23371284.74315    294848.88115     -2803.28615        30.40015  23368937.06824        -0.00024     -2091.30024        25.00024
G09  24490102.40215    422203.30315     -3756.77215        31.70015                                                                
G13  22305239.25117  -4461513.57417      2632.44017        43.10017                                                                
G14  20476989.12218   -738377.29918       681.32718        48.30018  20474646.54406  -2175446.62306       507.41406        36.70006
G17  22588442.69327         0.00027      3272.70027        43.00027                                                                
G19  25166137.39224         0.00024      3891.70024        28.20024                                                                
G21  24679625.49724         0.00024      1115.80024        29.10024                                                                
G28  20752505.58618  -3065671.95418       735.34518        48.20018                                                                
G30  20542295.61118  -1811099.15518       382.06818        47.70018  20539947.63706  -1346063.93406       283.90606        38.50006
J01                         0.00023       153.60023        19.70023  43627588.39624      -102.28024       221.10024        26.10024
R06  20765573.23924        -0.00024     -2768.45024        24.10024
R18  21321062.88215  -6557917.32315      1907.96115        33.40015
R09  21166627.19617  -4819807.42817      1710.64317        43.20017
R16  20114202.17416   1107465.49016      -743.93216        39.50016
R15  23202491.39625        -0.00025     -2592.55025        31.20025
R05  24247710.90624        -0.00024     -4452.05024        24.80024
R19  22978439.40423         0.00023      4120.90023        22.80023
R17  22459626.37125        -0.00025     -1544.25025        30.40025
R07  21141733.92917  -5097728.12217      1067.57217        43.50017
R08  24360119.28723         0.00023      3623.55023        20.50023
C34  24975261.63324        -0.00024     -1240.35024        28.80024
C25  24531981.90915    588634.26515     -1939.80815        33.50015
C23  22188679.34417    -10995.18417      -175.48617        43.60017
C11  24013162.88025         0.00025       154.95025        35.00025
E07  25302033.61317     79407.81817     -2579.77517        43.70017  25299908.38524        -0.00024     -1924.50024        25.40024
E15  27076430.52416    -76559.25916      2636.65216        36.10016  27074305.29524         0.00024      1966.30024        26.30024
E19  26427842.73215    -59443.47815      2004.27315        30.00015                                                                
E21  26527880.77724         0.00024      1811.40024        26.10024                                                                
E27  23577614.80417    -19668.66117        93.96517        45.90017  23575491.67305    -61061.44705        69.95105        32.90005
E30  24396953.28725        -0.00025     -1799.85025        31.40025  24394831.05724        -0.00024     -1344.60024        24.60024
> 2021 04 21 16 47 47.4446013  0 22                      
G07  21543085.85725        -0.00025     -1461.95025        29.70025                                                                
G08  23371808.15924        -0.00024     -2827.90024        24.20024  23369469.178 6    421997.791 6     -2108.851 6        36.200 6
G13  22304731.08114  -4464129.71714      2602.67314        27.60014                                                                
G14  20476859.29015   -739038.30815       645.21315        32.90015  20474521.80806  -2175940.07206       481.60306        36.90006
G17  22587829.59624         0.00024      3228.25024        28.90024                                                                
G28  20752365.26126  -3066386.96426       698.04926        35.60026                                                                
G30  20542223.63915  -1811461.37515       341.65115        30.50015  20539878.06315  -1346335.16715       260.89415        34.50015
R18  21320694.11525         0.00025      1868.65025        31.00025
R09  21166292.90524         0.00024      1679.00024        29.40024
R16  20114366.43923        -0.00023      -776.15023        23.30023
R17  22459913.85023        -0.00023     -1576.20023        23.00023
R07  21141544.43814  -5098777.60614      1033.92214        29.20014
C34  24975493.35123        -0.00023     -1270.15023        22.70023
C25  24532358.42614    590587.49614     -1968.52414        27.60014
C23  22188717.09614    -10804.58814      -205.58414        26.40014
C11  24013127.78224         0.00024       123.50024        25.00024
E07  25302530.34815     82012.10915     -2624.27015        29.80015  25300409.016 5    475278.595 5     -1962.884 5        32.700 5
E27  23577601.59114    -19744.61214        66.45914        28.80014  23575476.36215    -61118.10015        45.08615        29.80015
E30  24397305.82124        -0.00024     -1829.75024        26.10024  24395175.196 5     49879.250 5     -1364.613 5        29.800 5
J01  43625214.91723         0.00023       140.75023        23.10023                                                                
E15                                                                  27073809.417 4    -57072.240 4      1934.082 4        24.200 4
E21                                                                  26525419.45923         0.00023      1327.95023        20.00023
> 2021 04 21 16 47 48.4446013  0 18                      
G07  21543375.824 5   2672684.871 5     -1460.831 5        31.200 5                                                                
G08  23372351.75124    300463.00224     -2820.44624        25.80024  23370006.47405    424104.26505     -2101.71005        33.90005
G09                        -0.00023     -3810.75023        19.70023  24489213.86323        -0.00023     -2845.55023        21.10023
G14  20476739.44115   -739684.35815       651.24615        32.70015  20474399.26206  -2176422.36806       486.36806        35.90006
G28  20752236.11905  -3067085.11905       703.66105        34.50005                                                                
G30  20542160.15226         0.00026       356.35026        36.30026  20539811.27815  -1346597.24315       265.94315        34.80015
R18  21320361.414 4  -6561695.775 4      1867.795 4        29.100 4
R16  20114511.007 4   1108982.148 4      -765.266 4        27.500 4
R15  23203461.57123        -0.00023     -2617.90023        20.60023
R17  22460216.70923        -0.00023     -1558.50023        23.00023
C34  24975735.65124    171982.69224     -1261.83224        28.70024
C25  24532729.93824        -0.00024     -1970.40024        27.70024
C23  22188756.73725        -0.00025      -196.50025        33.00025
C11  24013107.16524         0.00024       123.65024        29.10024
E07  25303025.37324        -0.00024     -2629.70024        27.70024  25300908.23905    477243.35505     -1963.17405        34.20005
E15  27075433.16123         0.00023      2589.30023        22.30023  27073320.22424         0.00024      1932.10024        23.70024
E27  23577583.97115    -19815.16015        71.48915        30.10015  23575461.74116    -61166.19616        54.40816        36.70016
E30  24397650.35124        -0.00024     -1821.95024        28.00024  24395523.02424        -0.00024     -1359.80024        28.90024
> 2021 04 21 16 47 49.4446013  0 21                      
G07  21543656.80715   2674145.55115     -1460.78415        33.00015                                                                
G08  23372898.94914    303275.05114     -2807.30614        29.20014  23370541.08106    426203.65006     -2096.50306        35.60006
G13  22303747.00724         0.00024      2626.95024        24.40024                                                                
G14  20476623.49905   -740338.43505       657.60005        33.30005  20474274.32506  -2176910.81306       491.10906        38.20006
G17  22586590.09924         0.00024      3212.95024        24.20024                                                                
G21                         0.00023      1083.45023        18.10023                                                                
G28  20752097.39205  -3067791.52705       709.64605        34.60005                                                                
G30  20542090.67726  -1812160.51926       362.92826        36.30026  20539744.50105  -1346865.52605       270.88705        32.30005
R18  21320002.34014  -6563562.54314      1865.98114        27.90014
R09  21165682.07324         0.00024      1702.50024        28.30024
R16  20114634.89814   1109740.74414      -754.86214        27.70014
R17  22460450.32423        -0.00023     -1562.95023        22.80023
R07  21141141.96224         0.00024      1059.75024        28.40024
C34  24975986.35414    173241.57314     -1255.94614        27.40014
C25  24533111.65025    594545.55525     -1969.82625        30.20025
C23  22188793.38825    -10399.52025      -190.61225        33.20025
C11  24013081.75924    -66968.20824       126.75724        28.10024
E07  25303531.50024        -0.00024     -2635.30024        26.50024  25301408.96905    479209.83705     -1965.71005        34.80005
E27  23577569.35814    -19889.65914        78.30314        28.80014  23575448.32706    -61221.87006        61.35906        39.20006
E30  24397993.391 5      2841.921 5     -1818.465 5        31.100 5  24395872.959 4     52611.262 4     -1356.052 4        25.100 4
E15                                                                  27072827.44223         0.00023      1922.80023        22.40023
> 2021 04 21 16 47 50.4446013  0 28                      
G07  21543931.45417   2675607.82117     -1462.55917        43.00017                                                                
G08  23373421.52516    306082.14316     -2805.90916        35.60016  23371077.44805    428299.41605     -2094.44105        32.30005
G09  24493016.84523        -0.00023     -3821.00023        21.70023  24490666.77223        -0.00023     -2854.10023        21.70023
G13  22303242.49425  -4472016.87625      2638.97525        29.60025                                                                
G14  20476491.32817   -740997.79517       658.85817        41.60017  20474149.34906  -2177403.04606       492.67006        41.10006
G17  22585991.45125  -1002596.83525      3205.38225        34.50025                                                                
G19                         0.00023      3840.30023        18.90023                                                                
G21  24678800.92925    -56140.94325      1085.64825        31.20025                                                                
G28  20751967.91917  -3068503.47517       711.44417        41.50017                                                                
G30  20542016.66617  -1812524.49717       364.89317        43.20017  20539672.88805  -1347137.59305       272.82005        31.30005
R06  20767714.21824        -0.00024     -2815.40024        23.80024
R18  21319660.91416  -6565425.85416      1862.04016        41.10016
R09  21165358.335 6  -4826630.189 6      1707.605 6        40.100 6
R16  20114775.23916   1110494.32616      -751.30916        39.10016
R15  23204420.12224        -0.00024     -2610.75024        24.80024
R19  22975346.90623         0.00023      4050.90023        20.70023
R17  22460777.435 6    211655.967 6     -1552.514 6        38.100 6
R07  21140946.235 6  -5101958.425 6      1065.826 6        37.000 6
C34  24976224.72716    174497.55716     -1254.89716        36.90016
C25  24533489.72617    596516.39217     -1970.34117        42.40017
C23  22188828.80117    -10209.44317      -188.93017        42.80017
C11  24013058.41316    -67094.01616       125.58316        38.90016
E07  25304035.189 6      1513.762 6     -2638.865 6        38.700 6  25301911.75905    481178.81105     -1968.18405        35.10005
E15  27074473.34024         0.00024      2582.45024        26.30024  27072340.616 4    -62845.453 4      1924.499 4        25.400 4
E19                         0.00023      2010.40023        19.30023                         0.00023      1501.40023        19.20023
E21  26526543.56424         0.00024      1774.35024        27.20024                         0.00023      1322.05023        19.80023
E27  23577558.00416    -19970.35916        81.44016        41.30016  23575433.67505    -61282.30405        63.08805        34.10005
E30  24398340.28816      4658.93116     -1816.63216        40.70016  24396217.15815     53967.28715     -1355.63515        29.80015
> 2021 04 21 16 47 51.4446013  0 26                      
G07  21544209.50817   2677068.93217     -1462.56117        41.70017                                                                
G08  23373952.60415    308885.68315     -2805.07915        34.70015  23371610.92505    430392.58905     -2093.02005        32.70005
G09  24493747.28624    441107.09324     -3825.88024        25.70024                                                                
G13  22302739.88915  -4474660.90015      2646.26315        30.50015                                                                
G14  20476367.06016   -741657.81416       658.91216        39.40016  20474023.58307  -2177895.46307       491.03607        41.60007
G17  22585381.82016  -1005799.58816      3202.16416        36.50016                                                                
G28  20751831.06016  -3069215.00616       709.06316        39.60016                                                                
G30  20541953.55617  -1812891.95017       365.26717        41.50017  20539602.88305  -1347410.81605       272.39705        32.50005
R06  20768239.00224        -0.00024     -2820.00024        26.40024
R18  21319316.89816  -6567289.93516      1865.56116        40.30016
R09  21165041.90116  -4828338.46216      1702.35616        36.80016
R16  20114910.29216   1111241.62716      -743.21216        36.90016
R15  23204920.02224        -0.00024     -2603.40024        24.60024
R19  22974672.81924         0.00024      4048.70024        23.90024
R17  22461070.77816    213205.41716     -1545.40616        36.30016
R07  21140759.91115  -5103023.95315      1067.66415        33.90015
C34  24976465.00715    175751.84115     -1255.47315        33.90015
C25  24533868.81016    598485.63816     -1972.14816        40.30016
C23  22188864.32316    -10022.10116      -191.11216        41.40016
C11  24013033.07716    -67218.92116       121.87216        37.20016
E07  25304536.28816      4152.70216     -2643.41816        36.40016  25302413.75805    483149.80705     -1973.60905        33.90005
E15  27073989.32124         0.00024      2578.95024        24.90024                                                                
E19  26425945.05323         0.00023      2014.85023        23.20023  26423817.72624         0.00024      1501.30024        25.40024
E21  26526195.95124         0.00024      1774.40024        27.30024  26524073.42023         0.00023      1331.35023        22.50023
E27  23577542.26116    -20053.17416        81.11616        39.60016  23575417.93205    -61343.96505        61.25105        34.40005
E30  24398684.89616      6472.29416     -1813.98416        38.50016  24396560.86705     55321.53305     -1354.02705        31.40005
> 2021 04 21 16 47 52.4446013  0 28                      
G07  21544489.58917   2678531.48217     -1459.21817        46.60017                                                                
G08  23374486.60816    311692.60116     -2799.76916        39.70016  23372143.13105    432484.78705     -2088.90505        32.90005
G09  24494461.16615    444933.92415     -3827.47015        29.60015  24492120.68623        -0.00023     -2862.55023        22.30023
G13  22302235.41216  -4477306.68616      2639.74616        37.20016                                                                
G14  20476242.42117   -742314.46017       656.66517        45.30017  20473899.24306  -2178385.06106       490.30406        41.40006
G17  22584765.82126         0.00026      3198.00026        40.30026                                                                
G19                         0.00023      3835.50023        19.10023                                                                
G21  24678388.63624         0.00024      1090.30024        28.00024                                                                
G28  20751698.92617  -3069923.15517       708.80117        45.20017                                                                
G30  20541881.08017  -1813251.57017       362.16017        46.60017  20539534.30505  -1347682.85105       273.65305        32.30005
R06  20768759.516 5     93056.167 5     -2823.945 5        31.900 5
R18  21318962.01817  -6569150.87517      1861.51517        44.10017
R09  21164718.19926         0.00026      1706.40026        40.70026
R16  20115058.46327        -0.00027      -745.15027        42.70027
R15  23205419.851 5     92910.287 5     -2607.619 5        33.700 5
R19  22973837.67224         0.00024      4054.35024        24.10024
R17  22461355.65626        -0.00026     -1540.10026        41.20026
R07  21140546.53316  -5104091.58816      1064.30716        38.70016
C34  24976705.81516    177005.65716     -1246.64116        37.80016
C25  24534246.02417    600453.57717     -1966.62217        44.80017
C23  22188900.67217     -9835.85117      -182.57917        46.30017
C11  24013010.66727         0.00027       129.70027        42.80027
E07  25305040.61417      6798.93517     -2646.97917        42.20017  25302916.88405    485125.97705     -1976.13905        34.30005
E15  27073496.537 5     -1492.003 5      2570.587 5        29.600 5                                                                
E19  26425560.49425         0.00025      2013.65025        32.80025  26423434.96524         0.00024      1503.50024        27.60024
E21  26525853.662 5     -4468.170 5      1761.983 5        29.700 5                                                                
E27  23577526.14717    -20133.54417        82.04217        45.30017  23575402.41705    -61403.92505        61.29805        34.30005
E30  24399029.73217      8285.09817     -1808.82217        44.60017  24396906.60205     56675.39805     -1350.44605        31.30005
> 2021 04 21 16 47 53.4446013  0 27                      
G07  21544765.49317   2679989.67117     -1456.78917        47.00017                                                                
G08  23375018.83516    314483.90516     -2791.22916        39.60016  23372674.15805    434569.99905     -2084.38805        33.50005
G09  24495204.14714    448763.76614     -3833.62814        27.90014                                                                
G13  22301738.45216  -4479944.54316      2636.52316        39.30016                                                                
G14  20476117.20317   -742971.29017       655.22617        46.10017  20473774.02506  -2178875.59406       488.56406        39.40006
G17  22584162.43427  -1012185.70427      3196.10827        41.50027                                                                
G21  24678198.66324    -59407.31224      1096.91024        29.40024                                                                
G28  20751561.71717  -3070629.97217       704.83617        46.50017                                                                
G30  20541811.32418  -1813621.15918       369.02618        47.90018  20539463.34905  -1347958.36205       274.73205        31.40005
R06  20769275.55415     95883.46215     -2830.54315        33.80015
R18  21318610.45716  -6571019.06916      1869.85116        40.80016
R09  21164397.81628  -4831683.88828      1704.09128        47.50028
R16  20115196.76327        -0.00027      -742.95027        42.90027
R15  23205900.81315     95509.36115     -2588.62115        33.20015
R19  22973057.40724         0.00024      4044.80024        24.40024
R17  22461645.95026        -0.00026     -1536.05026        37.00026
R07  21140352.36317  -5105154.70417      1060.83217        45.40017
C34  24976943.34616    178247.38716     -1241.03916        39.10016
C25  24534621.15926        -0.00026     -1959.40026        41.10026
C23  22188935.24417     -9653.34217      -181.77717        46.80017
C11  24012983.78127    -67465.17527       134.01027        41.70027
E07  25305543.76117      9446.46217     -2649.82917        42.60017  25303422.12906    487103.09006     -1979.46606        36.80006
E15  27073011.86815     -4062.11615      2575.42515        33.80015  27070903.72723         0.00023      1919.95023        21.50023
E19  26425176.25525         0.00025      2013.70025        33.80025  26423048.628 3   -240597.627 3      1502.260 3        23.400 3
E21  26525517.69025         0.00025      1768.50025        29.60025                                                                
E27  23577509.75417    -20216.74317        82.07917        46.00017  23575386.02405    -61466.11105        60.60605        35.30005
E30  24399374.58817     10089.28517     -1802.86817        44.10017  24397246.36204     58022.54904     -1346.45504        25.20004
> 2021 04 21 16 47 54.4446013  0 27                      
G07  21545040.77827        -0.00027     -1457.10027        44.60027                                                                
G08  23375553.14116    317278.39316     -2794.46116        36.30016  23373204.26705    436655.27105     -2085.50905        33.40005
G09  24495944.41014    452601.25314     -3841.14214        29.20014  24493585.94323        -0.00023     -2869.00023        21.30023
G13  22301235.17616  -4482575.85116      2631.87816        37.20016                                                                
G14  20475992.86517   -743623.30017       653.21017        44.50017  20473650.58606  -2179362.17106       486.94106        36.90006
G17  22583550.93316  -1015376.36516      3190.53516        39.10016                                                                
G21  24677963.10115    -60506.64015      1102.61315        34.40015                                                                
G28  20751429.58417  -3071329.44317       698.51517        44.90017                                                                
G30  20541740.04917  -1813985.62717       363.14317        46.00017  20539394.17305  -1348231.61505       273.52505        30.20005
R06  20769815.85515     98719.22115     -2839.77015        32.60015
R18  21318275.36516  -6572886.26116      1865.36916        37.80016
R09  21164080.41217  -4833382.83717      1696.69617        46.00017
R16  20115338.640 6   1113314.863 6      -744.159 6        38.900 6
R15  23206385.95316     98098.08216     -2592.86916        40.40016
R19  22972332.28523         0.00023      4051.80023        22.00023
R17  22461934.126 6    217791.298 6     -1538.655 6        36.600 6
R07  21140153.37617  -5106211.71617      1055.35017        45.20017
C34  24977181.45716    179488.98516     -1241.95416        38.10016
C25  24534998.07426        -0.00026     -1960.50026        40.10026
C23  22188971.29417     -9466.30317      -187.85617        44.60017
C11  24012961.07326         0.00026       133.35026        40.70026
E07  25306050.18616     12099.09116     -2651.37916        40.70016  25303926.15606    489084.00306     -1979.68006        35.90006
E15  27072513.68824         0.00024      2579.35024        27.70024                                                                
E19  26424795.594 5     -5036.471 5      2008.027 5        29.700 5                                                                
E21  26525175.70324         0.00024      1757.00024        27.10024                                                                
E27  23577496.33917    -20295.91217        79.53517        43.60017  23575371.41006    -61525.10706        59.84406        36.60006
E30  24399714.62916     11893.42316     -1803.62616        41.00016                                                                
> 2021 04 21 16 47 55.4446013  0 29                      
G05  24491174.54124        -0.00024     -1797.20024        23.80024                                                                
G07  21545318.81427        -0.00027     -1458.40027        45.30027                                                                
G08  23376080.60415    320072.39815     -2796.08115        33.50015  23373737.12605    438742.29005     -2090.63005        31.40005
G09  24496670.93615    456440.86215     -3837.42615        31.10015  24494326.858 4   6615142.541 4     -2861.709 4        23.600 4
G13  22300734.95016  -4485211.73316      2638.61916        37.00016                                                                
G14  20475866.48117   -744276.74317       653.53017        44.30017  20473526.00106  -2179849.97706       487.52506        38.10006
G17  22582945.78016  -1018570.21816      3193.56216        37.60016                                                                
G21  24677755.17425         0.00025      1094.85025        34.30025                                                                
G28  20751294.80627         0.00027       703.75027        44.60027                                                                
G30  20541667.62717  -1814350.92617       363.72117        45.80017  20539324.45015  -1348505.01515       271.87915        30.60015
R06  20770353.51115    101553.11215     -2827.40415        32.20015
R18  21317915.14226         0.00026      1865.05026        39.60026
R09  21163763.95917  -4835085.15217      1703.25617        43.90017
R16  20115471.87716   1114057.39916      -747.65916        38.60016
R15  23206862.45116    100690.98616     -2597.31416        39.30016
R19  22971618.60723         0.00023      4042.75023        22.90023
R17  22462213.66116    219331.48716     -1534.95116        36.40016
R07  21139953.54317  -5107267.78517      1056.21117        43.00017
R08                         0.00022      3606.95022        15.60022
C34  24977420.22015    180733.24515     -1249.78215        34.60015
C25  24535375.64126    606378.78526     -1958.34926        41.00026
C23  22189006.49817     -9283.36717      -184.29317        43.90017
C11  24012933.92026         0.00026       131.00026        40.50026
E07  25306552.76616     14747.56216     -2645.82716        40.30016  25304429.93606    491061.77206     -1974.59806        36.30006
E15  27072024.55525         0.00025      2577.25025        31.00025  27069908.92023         0.00023      1919.20023        21.90023
E19  26424413.18715     -7045.30915      2002.77415        31.10015  26422287.35923         0.00023      1500.05023        21.50023
E21  26524844.56024         0.00024      1773.20024        25.10024  26522725.92723         0.00023      1319.55023        20.20023
E27  23577478.77917    -20375.86817        79.43117        43.50017  23575355.94906    -61584.84406        60.58306        36.80006
E30  24400059.21816     13698.66616     -1808.01016        41.30016                                                                
> 2021 04 21 16 47 56.4446012  0 30                      
G01  24810486.45124     -1149.75324      2600.16824        27.80024                                                                
G05  24491491.08724        -0.00024     -1782.05024        24.80024                                                                
G07  21545569.40627   2684353.71027     -1468.75327        43.40027                                                                
G08  23376583.02215    322876.66615     -2812.23615        34.00015  23374243.44105    440838.71505     -2101.38605        33.20005
G09  24497359.52414    460275.62314     -3831.81414        28.70014                                                                
G13  22300207.88126         0.00026      2623.55026        36.40026                                                                
G14  20475715.65017   -744926.79717       648.13017        43.40017  20473371.87306  -2180335.12306       484.25306        37.60006
G17  22582307.48716  -1021767.58616      3201.14816        39.60016                                                                
G19                         0.00023      3853.10023        17.90023                                                                
G21  24677518.00326    -62667.44726      1082.62726        35.90026                                                                
G28  20751132.28327  -3072705.65427       700.92927        44.20027                                                                
G30  20541571.05917  -1814710.19617       355.15117        45.20017  20539227.58205  -1348773.05405       265.51505        33.10005
R06  20770843.63715    104377.06115     -2823.35415        30.90015
R18  21317542.166 6  -6576615.304 6      1853.213 6        38.600 6
R09  21163414.96617  -4836782.42317      1695.24717        46.00017
R16  20115586.06316   1114813.41316      -760.50316        39.60016
R15  23207323.49715    103296.18915     -2613.95415        34.80015
R17  22462486.43725        -0.00025     -1562.65025        35.30025
R07  21139724.76617  -5108319.19917      1048.28117        44.40017
C34  24977637.23525        -0.00025     -1262.75025        30.50025
C25  24535722.46626        -0.00026     -1973.40026        35.80026
C23  22189014.25817     -9092.44817      -196.00817        43.70017
C11  24012881.72126         0.00026       118.20026        36.30026
E07  25307026.40316     17394.80616     -2645.53616        39.40016  25304903.27306    493038.39106     -1975.21606        36.00006
E15  27071484.59426         0.00026      2573.95026        35.90026  27069369.55924         0.00024      1925.55024        24.70024
E19  26423988.34723         0.00023      2007.90023        22.20023                                                                
E21  26524479.37823         0.00023      1769.85023        23.20023                                                                
E27  23577437.07317    -20450.25717        72.34317        43.00017  23575311.24506    -61640.53906        53.85706        38.40006
E30  24400376.36416     15515.19216     -1821.67916        38.70016  24398255.33323        -0.00023     -1356.30023        21.40023
E36  28841537.21223        -0.00023     -1017.50023        22.50023                                                                
> 2021 04 21 16 47 57.4446012  0 27                      
G01  24810013.29524         0.00024      2597.95024        23.50024                                                                
G05  24491816.27923        -0.00023     -1773.80023        22.00023                                                                
G07  21545849.62916   2685823.18316     -1470.26416        37.70016                                                                
G08  23377120.46615    325694.48515     -2824.08415        31.80015  23374777.88805    442943.92005     -2109.41205        33.80005
G09  24498080.44214    464103.07314     -3823.50514        27.60014  24495736.36523        -0.00023     -2851.40023        23.10023
G13  22299709.54225  -4490483.82125      2624.87725        31.00025                                                                
G14  20475589.35516   -745577.58016       651.58816        38.80016  20473247.97506  -2180821.29406       487.73206        37.40006
G17  22581691.63015  -1024975.17415      3214.85915        34.50015                                                                
G21  24677311.36315    -63746.42915      1073.50115        29.50015                                                                
G28  20751001.79016  -3073409.40216       706.03516        39.70016                                                                
G30  20541504.72216  -1815064.69816       353.48216        40.80016  20539159.44605  -1349038.01405       264.23205        33.10005
R06  20771411.36114    107198.42314     -2815.88914        26.60014
R18  21317178.13524         0.00024      1850.75024        29.40024
R09  21163095.90416  -4838479.60916      1698.43716        37.70016
R16  20115731.67915   1115575.82815      -759.99815        33.30015
R15  23207782.09725        -0.00025     -2618.15025        30.10025
R17  22462763.06325    222375.46325     -1571.24425        31.20025
R07  21139525.02116  -5109368.55416      1050.05316        37.70016
C34  24977870.39025    183262.10925     -1272.66725        31.30025
C25  24536106.11725    610301.52125     -1977.50225        33.00025
C23  22189051.64916     -8894.28316      -198.58316        38.70016
C11  24012857.35525    -67913.99025       111.14325        32.70025
E07  25307529.07215     20032.37215     -2631.53815        35.40015  25305405.04305    495008.21505     -1964.16705        34.90005
E15  27070998.54825         0.00025      2575.10025        32.30025                                                                
E27  23577422.60016    -20523.64116        74.49816        37.60016  23575297.97106    -61695.15806        55.59906        39.10006
E30  24400720.44315     17340.60215     -1829.04115        32.80015                                                                
E21                                                                  26522020.69723         0.00023      1332.75023        22.50023
> 2021 04 21 16 47 58.4446012  0 28                      
G05  24492187.29223        -0.00023     -1779.50023        21.70023                                                                
G07  21546131.00515   2687297.31615     -1474.60715        33.20015                                                                
G08  23377660.26315    328526.91215     -2840.25215        30.70015  23375318.28505    445058.62105     -2118.18905        34.10005
G09  24498821.40024        -0.00024     -3808.45024        23.60024                                                                
G13  22299202.76414  -4493108.73214      2623.06614        28.80014                                                                
G14  20475464.51216   -746229.40616       653.30616        36.10016  20473123.13306  -2181309.14406       488.39906        37.90006
G15  24945697.13424         0.00024      3239.40024        24.90024                                                                
G17  22581084.72115  -1028194.83915      3222.43915        33.00015                                                                
G21  24677116.96814    -64812.80814      1060.86914        27.40014                                                                
G28  20750868.25416  -3074116.58516       709.25016        36.90016                                                                
G30  20541437.73916  -1815415.82716       349.45816        38.10016  20539092.46305  -1349300.18105       261.05505        32.50005
R06  20771936.16924        -0.00024     -2805.85024        25.90024
R18  21316839.840 4  -6580313.223 4      1847.434 4        28.800 4
R09  21162777.39516  -4840177.51616      1698.47816        35.90016
R16  20115853.86524        -0.00024      -775.85024        28.30024
R15  23208320.695 5    108541.803 5     -2629.165 5        31.100 5
R17  22463068.12215    223955.56115     -1584.89415        32.70015
R07  21139337.22216  -5110416.94216      1049.52216        37.00016
R08                         0.00023      3592.60023        18.30023
C34  24978118.48915    184542.06615     -1285.26115        30.40015
C25  24536483.72715    612286.92715     -1993.40915        29.80015
C23  22189091.69216     -8692.19816      -204.06616        36.40016
C11  24012849.13114    -68021.18614       102.23314        29.10014
E07  25308026.89815     22659.92015     -2624.62315        31.50015  25305904.96705    496970.28205     -1958.54605        32.90005
E15  27070499.86423         0.00023      2580.65023        22.20023  27068380.03123         0.00023      1925.60023        22.40023
E21  26523816.02523         0.00023      1776.80023        20.30023  26521687.19924         0.00024      1336.00024        24.00024
E27  23577409.58015    -20595.54715        71.14815        34.70015  23575283.75106    -61749.02806        53.90206        38.90006
E30  24401074.96815     19176.35415     -1839.19915        33.50015  24398960.23223        -0.00023     -1371.40023        21.20023
> 2021 04 21 16 47 59.4446012  0 28                      
G01  24809008.88024         0.00024      2599.90024        29.20024                                                                
G07  21546405.03326        -0.00026     -1470.40026        41.30026                                                                
G08  23378205.90417    331365.90917     -2831.09417        41.60017  23375854.63215    447177.37515     -2114.52115        31.60015
G13  22298706.92616  -4495731.82516      2626.99816        41.40016                                                                
G14  20475340.71618   -746884.60418       660.52718        47.60018  20472998.43706  -2181799.01406       493.44506        35.80006
G17  22580468.96617  -1031420.41417      3230.66217        42.10017                                                                
G19  25156629.32723         0.00023      3862.25023        22.90023                                                                
G21  24676905.33327         0.00027      1071.30027        42.40027                                                                
G28  20750726.77018  -3074827.64018       715.83718        48.90018                                                                
G30  20541371.50418  -1815765.55418       354.81118        49.60018  20539025.02805  -1349561.88605       265.32805        31.40005
R06  20772438.33926        -0.00026     -2798.25026        36.80026
R18  21316496.59616  -6582159.94616      1849.83816        39.30016
R09  21162462.03118  -4841878.32418      1705.40618        48.90018
R16  20116022.06727   1117095.82127      -769.56627        42.10027
R15  23208796.48417    111173.13517     -2623.62417        41.60017
R19  22968498.43923         0.00023      4066.65023        23.20023
R17  22463361.33817    225541.59317     -1581.58917        41.70017
R07  21139136.38017  -5111468.58517      1055.40117        46.40017
R08  24351357.40524   -150244.24024      3599.68324        26.10024
C34  24978370.93317    185827.94017     -1280.12217        43.60017
C25  24536866.58027        -0.00027     -1983.25027        42.50027
C23  22189130.08418     -8489.24018      -197.70518        48.20018
C11  24012818.57126    -68123.91126       108.87126        39.60026
E07  25308528.76917     25280.94917     -2616.45917        42.70017  25306403.84005    498927.35105     -1953.03505        31.00005
E27  23577395.80807    -20668.70407        77.87107        46.40007  23575269.97906    -61803.73106        59.33306        37.30006
E30  24401423.04517     21016.30417     -1834.72817        46.30017                                                                
E15                                                                  27067891.388 4    -80144.610 4      1929.640 4        25.700 4
E21                                                                  26521351.45023         0.00023      1345.00023        22.80023
> 2021 04 21 16 48 00.4446012  0 31                      
G01  24808526.90025    -11550.80425      2602.23325        30.00025                                                                
G07  21546691.421 7   2690222.677 7     -1468.033 7        41.900 7                                                                
G08  23378739.02117    334192.77817     -2828.59917        41.90017  23376393.44505    449288.04905     -2112.01105        33.30005
G13  22298206.35807  -4498362.87907      2628.14407        46.00007                                                                
G14  20475216.08818   -747548.33318       661.21718        48.20018  20472872.31106  -2182295.00406       493.83706        39.70006
G17  22579854.47817  -1034653.67317      3230.03217        44.00017                                                                
G19  25155920.70424   -109582.02824      3865.65824        28.30024                                                                
G21  24676708.75626    -66901.83026      1072.93026        39.00026                                                                
G28  20750592.24918  -3075547.02218       716.75218        49.80018                                                                
G30  20541302.93718  -1816125.47218       357.48218        50.20018  20538958.56005  -1349830.67605       266.95005        34.60005
R06  20772953.169 6    115599.006 6     -2800.192 6        36.400 6
R18  21316139.32906  -6584015.21006      1852.91806        38.40006
R09  21162134.74417  -4843587.20017      1706.40117        44.20017
R16  20116161.25707   1117860.12707      -765.93607        44.10007
R15  23209280.73507    113791.40807     -2619.63707        43.50007
R05  24259465.70723        -0.00023     -4478.40023        22.80023
R19  22967750.84224   -173486.53524      4068.02424        28.40024
R17  22463665.11416    227118.31016     -1578.95316        39.80016
R07  21138943.40008  -5112526.70008      1055.45108        49.50008
R08  24350655.67715   -153847.90215      3601.43515        30.30015
C34  24978614.75027    187103.05527     -1277.15227        44.50027
C25  24537245.90427        -0.00027     -1980.95027        42.20027
C23  22189167.64428     -8295.58528      -195.85428        48.80028
C11  24012792.87516    -68236.91316       110.32316        39.00016
E07  25309023.81317     27893.94317     -2616.20017        43.50017  25306901.58205    500878.62905     -1954.81905        32.50005
E15  27069518.748 6     -1186.106 6      2587.010 6        38.700 6  27067398.61514     -1070.77014      1931.17514        26.80014
E19  26422482.681 5      -914.373 5      2001.734 5        33.900 5                                                                
E21  26523127.506 5      -814.671 5      1787.116 5        33.300 5                                                                
E27  23577378.80618    -20751.03618        79.69318        47.50018  23575254.77606    -61865.18406        59.18206        39.30006
E30  24401769.39217     22844.97917     -1830.23217        47.20017  24399652.85724        -0.00024     -1369.90024        24.60024
G09                                                                  24497916.13123        -0.00023     -2842.80023        21.40023
> 2021 04 21 16 48 01.4446012  0 31                      
G05  24493175.86524       785.81224     -1773.87924        29.00024                                                                
G07  21546964.28507   2691695.25407     -1475.50107        42.50007                                                                
G08  23379284.09607    337025.70907     -2837.38507        43.60007  23376933.12406    451403.58706     -2118.74306        35.90006
G13  22297707.85608  -4500986.83408      2621.82608        48.40008                                                                
G14  20475092.62608   -748205.40508       655.54908        47.70008  20472748.54906  -2182785.74106       489.58906        38.90006
G15  24943837.67926     -1429.41826      3237.38126        37.50026                                                                
G17  22579241.45407  -1037880.48407      3226.56007        43.70007                                                                
G19  25155179.96915   -113445.48515      3860.09515        30.10015                                                                
G21  24676498.95327    -67970.53027      1064.85927        43.20027                                                                
G28  20750452.89808  -3076259.66708       711.47808        49.70008                                                                
G30  20541235.23708  -1816478.46808       350.46808        50.40008  20538891.75905  -1350094.36705       261.82305        34.60005
R06  20773466.16715    118403.20615     -2804.54515        33.60015
R18  21315803.01506  -6585863.29706      1844.30806        37.50006
R09  21161820.31507  -4845289.33407      1700.58807        46.80007
R16  20116310.60607   1118630.64507      -773.77407        45.30007
R15  23209778.14307    116415.14607     -2627.74807        45.00007
R05  24260322.86624        -0.00024     -4484.15024        25.20024
R19  22967009.80814   -177550.96714      4063.36314        28.60014
R17  22463954.16616    228701.36716     -1588.67216        37.10016
R07  21138747.38808  -5113577.62708      1048.84308        48.10008
R08  24350007.87815   -157443.34015      3592.18015        29.90015
C34  24978858.83427    188384.72927     -1286.10727        42.80027
C25  24537628.79127        -0.00027     -1988.05027        43.30027
C23  22189204.87128     -8095.39528      -202.94228        49.70028
C11  24012780.33626    -68342.30626       102.01626        36.60026
E07  25309525.41807     30514.01807     -2620.48807        44.30007  25307401.38905    502835.04205     -1956.09505        34.00005
E15  27069030.13807     -3768.54607      2580.06107        42.00007  27066907.00814     -2999.21114      1926.59514        26.20014
E19  26422106.79424         0.00024      1992.15024        25.20024                         0.00023      1489.80023        19.90023
E21  26522788.79316     -2600.48616      1786.53216        37.20016  26520666.26324         0.00024      1332.70024        23.70024
E27  23577364.46808    -20826.42508        73.57208        48.20008  23575240.73806    -61921.52006        55.34206        39.70006
E30  24402123.20007     24679.92507     -1838.41107        47.30007  24400000.069 5     68862.404 5     -1373.166 5        29.500 5
> 2021 04 21 16 48 02.4446012  0 32                      
G07  21547250.27116   2693172.97716     -1478.53716        37.40016                                                                
G08  23379828.20307    339866.57007     -2842.36707        42.40007  23377473.63306    453525.10906     -2122.65206        36.00006
G13  22297207.48607  -4503607.72307      2620.22207        45.70007                                                                
G14  20474962.80017   -748861.77417       655.71517        45.30017  20472623.21906  -2183274.89106       489.03606        39.70006
G15  24943204.50015     -4665.08115      3234.76715        32.60015                                                                
G17  22578619.66806  -1041107.77906      3227.28206        39.90006                                                                
G19  25154424.17614   -117303.23414      3858.08714        27.60014                                                                
G21  24676298.07617    -69032.43817      1060.49217        42.30017                                                                
G28  20750320.97318  -3076971.81618       711.68418        48.90018                                                                
G30  20541170.76518  -1816827.41518       348.26218        49.10018  20538824.88906  -1350354.73606       259.86806        35.70006
R06  20774001.87915    121206.74915     -2803.48415        32.30015
R18  21315484.61915  -6587704.85415      1840.37815        34.70015
R09  21161504.91617  -4846989.76717      1700.24917        45.00017
R16  20116453.89017   1119406.78817      -776.99617        43.80017
R15  23210269.18617    119046.14117     -2632.43917        43.30017
R05  24261126.293 4    203502.927 4     -4486.086 4        28.200 4
R19  22966275.60024         0.00024      4066.65024        25.50024
R17  22464240.75116    230293.54116     -1592.93816        36.50016
R07  21138540.21517  -5114625.65017      1047.34917        44.90017
R08  24349441.25414   -161032.48014      3589.06214        26.00014
C34  24979110.64316    189674.18716     -1290.99816        41.20016
C25  24538017.30626        -0.00026     -1992.40026        35.70026
C23  22189243.82817     -7890.83217      -205.44317        46.40017
C11  24012764.73015    -68441.58915        97.89015        33.10015
E07  25310024.85617     33133.41817     -2619.54317        42.20017  25307900.22705    504791.33005     -1955.76805        34.80005
E15  27068543.85917     -6347.80417      2578.46517        43.50017  27066415.33204     -4924.96104      1925.50604        28.80004
E19  26421716.74823         0.00023      1994.15023        23.10023  26419600.51323         0.00023      1486.45023        22.70023
E21  26522446.71415     -4387.33415      1787.34715        33.60015  26520322.684 4     -3412.029 4      1334.694 4        24.400 4
E27  23577353.65917    -20899.03217        71.79017        46.80017  23575226.93206    -61975.62506        54.24106        40.20006
E30  24402467.34517     26521.38017     -1842.61617        45.80017  24400350.21105     70237.76805     -1375.71205        29.90005
G09                                                                  24499364.16523        -0.00023     -2845.90023        20.90023
J01  43624565.56323         0.00023       161.65023        20.80023                                                                
> 2021 04 21 16 48 03.4446012  0 33                      
G01  24807041.31225     -1145.28225      2593.34225        30.40025                                                                
G07  21547528.62626   2694651.71426     -1477.90326        38.30026                                                                
G08  23380365.27907    342709.24407     -2841.38607        43.40007  23378014.30706    455647.68306     -2121.83806        35.80006
G09  24502423.39526      1685.87726     -3806.91026        35.90026                                                                
G13  22296712.67607  -4506227.61607      2621.12207        47.00007                                                                
G14  20474837.63427   -749516.18127       655.67027        46.90027  20472498.65306  -2183763.79206       489.63406        39.40006
G15  24942582.27925     -7900.31625      3236.49725        32.50025                                                                
G17  22578003.74307  -1044334.70707      3228.26207        41.70007                                                                
G19  25153702.42424   -121162.03424      3859.98624        29.10024                                                                
G21  24676099.76127    -70092.57227      1061.44427        43.60027                                                                
G28  20750181.41828  -3077682.68528       712.13628        50.40028                                                                
G30  20541104.35928  -1817175.68228       349.00028        50.80028  20538758.48305  -1350614.61305       260.54405        35.30005
J01  43624529.136 4   -136752.662 4       161.203 4        25.100 4  43626883.40624       -99.36924       216.39824        27.10024
R06  20774529.06215    124010.20015     -2802.90015        33.90015
R18  21315120.51916  -6589544.83916      1841.39416        36.30016
R09  21161186.98417  -4848690.57417      1701.14217        46.50017
R16  20116596.43917   1120183.22017      -776.14217        44.80017
R15  23210758.29607    121678.66207     -2631.10107        44.50007
R05  24262004.53314    207987.80914     -4483.53114        28.30014
R19  22965483.39624   -185674.58924      4063.10024        26.60024
R17  22464534.99506    231886.98606     -1592.37406        37.70006
R07  21138349.39517  -5115673.25017      1047.60717        46.40017
R08  24348813.93624   -164622.36224      3590.75224        26.60024
C34  24979358.41907    190965.99207     -1290.14307        42.60007
C25  24538396.99126    622902.24326     -1990.67226        36.90026
C23  22189284.14808     -7684.61408      -204.36908        47.80008
C11  24012743.89325    -68539.79325        99.24625        34.10025
E07  25310521.16007     35753.18207     -2618.62107        43.40007  25308398.63005    506747.48305     -1955.19605        34.30005
E15  27068049.94807     -8925.97107      2579.44007        45.00007  27065925.01904     -6850.45004      1926.49304        27.40004
E21  26522109.29506     -6174.47506      1788.28506        35.60006  26519981.96804     -4746.57104      1335.61104        25.20004
E27  23577338.81708    -20971.05708        73.13508        48.20008  23575212.68906    -62029.49706        54.87706        39.80006
E30  24402821.84707     28364.45307     -1841.69807        47.00007  24400700.51615     71613.90715     -1374.67815        29.70015
E19                                                                  26419223.22223         0.00023      1485.15023        22.70023
> 2021 04 21 16 48 04.4446012  0 32                      
G01  24806559.18724     -3738.82724      2593.46924        28.60024                                                                
G07  21547806.47526   2696129.35926     -1477.73926        38.10026                                                                
G08  23380905.44707    345550.48607     -2841.48707        43.50007  23378555.37406    457769.39606     -2121.85106        35.80006
G09  24503155.42926      5492.51326     -3806.65926        37.00026                                                                
G13  22296211.36507  -4508848.90707      2621.09707        46.90007                                                                
G14  20474712.86227   -750172.07827       655.72627        46.90027  20472373.88106  -2184253.59106       489.72706        39.50006
G15  24941981.43625    -11137.05225      3236.61425        33.50025                                                                
G17  22577388.51007  -1047563.23607      3228.40907        41.50007                                                                
G19  25152965.47524   -125022.40424      3860.48224        29.00024                                                                
G21  24675894.94427    -71154.19127      1061.44427        44.50027                                                                
G28  20750047.95228  -3078395.05828       712.22928        50.30028                                                                
G30  20541038.34628  -1817524.96828       349.16628        50.70028  20538692.17005  -1350875.44905       260.69705        35.20005
J01  43624487.40724         0.00024       160.00024        25.10024  43626851.87014      -315.36014       215.55514        27.20014
R06  20775070.12905    126813.47405     -2802.98105        32.90005
R18  21314770.90206  -6591386.30106      1841.07906        35.80006
R09  21160867.64707  -4850392.05007      1701.42507        46.50007
R16  20116741.48107   1120959.02807      -775.86307        44.90007
R15  23211252.89507    124309.39207     -2630.73807        44.60007
R05  24262819.91005    212471.35105     -4482.94305        29.70005
R19  22964706.57524         0.00024      4061.70024        26.30024
R17  22464834.43006    233479.35806     -1592.76406        37.70006
R07  21138140.08107  -5116720.83707      1047.22407        46.10007
R08  24348105.76814   -168212.71914      3590.52014        26.40014
C34  24979605.09007    192256.03707     -1290.25207        42.20007
C25  24538775.57026    624892.62826     -1990.47726        36.30026
C23  22189323.06208     -7480.57808      -204.11308        48.10008
C11  24012731.24325    -68639.13525        99.08725        34.30025
E07  25311019.65707     38371.29807     -2618.16707        43.60007  25308896.22705    508702.57305     -1955.00505        34.30005
E15  27067563.32707    -11506.00207      2580.07307        44.80007  27065433.60104     -8777.08404      1926.70404        28.10004
E21  26521769.57206     -7963.12006      1788.55606        36.40006  26519642.24504     -6082.24004      1335.58804        23.50004
E27  23577323.47008    -21044.62908        73.55108        48.10008  23575198.84006    -62084.43206        54.97306        40.00006
E30  24403168.04907     30205.59207     -1841.11307        47.10007  24401051.21515     72988.67715     -1374.88915        29.60015
> 2021 04 21 16 48 05.4446012  0 33                      
G01  24806040.44024     -6334.07324      2598.12324        29.30024                                                                
G07  21548084.87626   2697605.48526     -1473.58526        37.20026                                                                
G08  23381445.56707    348390.34407     -2837.25407        43.40007  23379095.19406    459890.06806     -2118.72206        35.50006
G09  24503882.02026      9297.42726     -3802.04326        37.00026                        -0.00023     -2842.60023        19.70023
G13  22295715.40207  -4511471.60907      2625.30707        46.70007                                                                
G14  20474588.34227   -750829.36327       659.70127        46.80027  20472248.76206  -2184744.43106       492.62606        39.00006
G15  24941351.46625    -14375.35925      3240.97725        34.10025                                                                
G17  22576774.42907  -1050793.30807      3232.74607        41.50007                                                                
G19  25152236.87325   -128884.76525      3865.17825        29.50025                                                                
G21  24675694.27727    -72217.30027      1065.72427        44.50027                                                                
G28  20749909.94128  -3079108.83328       716.21828        50.20028                                                                
G30  20540966.58928  -1817875.72828       353.25728        50.60028  20538625.81005  -1351137.37505       263.75105        35.10005
J01  43624444.130 4   -137076.750 4       165.232 4        24.800 4  43626795.10324         0.00024       218.15024        26.50024
R06  20775595.85905    129615.06505     -2799.36805        33.00005
R18  21314411.64505  -6593228.81605      1844.73705        34.40005
R09  21160547.06307  -4852095.18907      1705.74607        46.60007
R16  20116884.37507   1121733.22207      -771.63107        44.50007
R15  23211745.94707    126938.30207     -2626.09707        44.30007
R05  24263658.92314    216951.95514     -4478.26114        28.70014
R19  22963936.30224   -193803.12324      4067.73224        27.20024
R17  22465141.01106    235070.70706     -1588.94206        37.50006
R07  21137954.10407  -5117769.39407      1050.86207        46.20007
R08  24347409.54404   -171804.91204      3594.91704        27.30004
C34  24979852.91207    193544.77607     -1286.18607        42.60007
C25  24539159.79826    626881.29726     -1985.86926        36.00026
C23  22189359.23108     -7278.15608      -199.87308        47.80008
C11  24012710.45125    -68739.68825       103.07025        35.10025
E07  25311516.30707     40987.92407     -2614.28507        43.40007  25309394.97505    510656.48305     -1951.05105        34.00005
E15  27067067.96307    -14087.68607      2584.03607        45.00007  27064942.43504    -10704.94704      1930.14904        27.10004
E21  26521432.49906     -9753.43806      1792.74606        36.10006  26519300.97513     -7419.23013      1339.30913        23.30013
E27  23577312.57108    -21119.78908        77.50108        48.30008  23575184.64406    -62140.60306        59.18206        39.80006
E30  24403518.70007     32045.01107     -1837.05507        46.70007  24401401.26615     74362.27915     -1370.43815        30.50015
E19                                                                  26418458.58623         0.00023      1492.50023        22.20023
> 2021 04 21 16 48 06.4446011  0 34                      
G01  24805531.12205     -8930.81905      2596.07805        29.60005                                                                
G05  24494845.405 4       784.612 4     -1771.170 4        27.800 4                                                                
G07  21548331.63406   2699080.22606     -1475.50206        37.20006                                                                
G08  23381954.64307    351228.43207     -2839.37307        43.70007  23379605.76906    462009.42406     -2120.36506        35.70006
G09  24504573.67006     13100.67306     -3803.86406        36.50006                                                                
G13  22295184.19907  -4514096.08307      2623.18707        46.60007                                                                
G14  20474432.47907   -751488.45007       657.74007        46.20007  20472093.79806  -2185236.58906       491.20806        38.60006
G15  24940711.13805    -17615.52105      3238.81005        32.30005                                                                
G17  22576123.90806  -1054025.28806      3230.75406        41.40006                                                                
G19  25151472.43105   -132748.76105      3863.53405        30.70005                                                                
G21  24675464.06507    -73282.16607      1063.63107        44.30007                                                                
G28  20749743.58508  -3079823.92508       714.30408        50.20008                                                                
G30  20540870.98408  -1818227.87708       351.37908        50.20008  20538529.30605  -1351400.74205       262.38805        34.80005
J01  43624374.90724         0.00024       161.40024        24.00024  43626717.18624         0.00024       216.80024        29.20024
R06  20776095.34205    132415.07105     -2801.50305        33.30005
R18  21314042.92905  -6595072.84905      1842.47605        34.20005
R09  21160202.63007  -4853800.38607      1703.98007        47.00007
R16  20117001.32307   1122505.43607      -773.45107        45.10007
R15  23212207.95607    129565.00707     -2627.77307        44.20007
R05  24264481.88205    221431.17305     -4479.71805        29.50005
R19  22963176.95714   -197870.29214      4066.02014        26.80014
R17  22465413.25206    236660.63506     -1591.42706        38.50006
R07  21137722.39307  -5118819.35307      1048.40707        45.60007
R08  24346792.00024         0.00024      3589.95024        23.70024
C34  24980069.99107    194831.87507     -1288.32107        41.90007
C25  24539519.57825    628867.88325     -1987.71625        33.90025
C23  22189368.25408     -7077.70408      -201.60008        47.50008
C11  24012659.51525    -68841.83225       100.78425        34.50025
E07  25311985.81007     43602.55007     -2615.93307        42.80007  25309861.78105    512608.97605     -1953.08505        33.40005
E15  27066551.15007    -16671.56407      2582.64407        44.80007  27064422.62404    -12634.46704      1928.53104        26.60004
E21  26521058.68706    -11545.83006      1791.14606        35.90006  26518933.75823         0.00023      1340.10023        23.00023
E27  23577262.53408    -21197.02808        75.92808        48.00008  23575140.00406    -62198.27206        56.78706        39.50006
E30  24403837.10907     33882.21507     -1838.45607        47.30007  24401720.57405     75734.16805     -1372.91005        30.50005
E19                                                                  26418052.39623         0.00023      1487.75023        22.70023
> 2021 04 21 16 48 07.4446011  0 33                      
G01  24805028.50415    -11531.75215      2607.23815        29.70015                                                                
G05  24495167.51614      2551.72614     -1758.54814        26.00014                                                                
G07  21548610.57506   2700551.53906     -1465.04806        36.40006                                                                
G08  23382495.30307    354063.65707     -2828.63607        43.30007  23380144.33105    464126.63205     -2112.31005        35.30005
G09  24505301.70106     16900.24806     -3792.79206        36.30006  24502954.02623        -0.00023     -2838.05023        20.20023
G13  22294681.88107  -4516723.40807      2633.88307        46.80007                                                                
G14  20474307.89907   -752150.34107       668.08307        46.30007  20471967.12006  -2185730.85506       498.92606        39.00006
G15  24940095.79905    -20858.65905      3249.82005        32.80005                                                                
G17  22575509.46806  -1057260.26406      3241.64806        41.00006                                                                
G19  25150750.96514   -136617.13814      3874.98114        27.90014                                                                
G21  24675260.34107    -74349.95007      1074.43707        44.20007                                                                
G28  20749605.51508  -3080542.35708       724.64208        49.80008                                                                
G30  20540803.36608  -1818583.41408       361.77708        50.10008  20538460.78705  -1351666.24705       270.21505        35.40005
J01  43624331.272 4   -137407.765 4       172.240 4        24.700 4  43626678.94724     -1105.52324       229.56624        29.00024
R06  20776609.02105    135212.42105     -2791.10205        32.90005
R18  21313707.59505  -6596919.28905      1852.66905        31.60005
R09  21159883.48507  -4855508.68307      1714.71507        47.00007
R16  20117141.46107   1123274.59807      -762.76507        44.70007
R15  23212705.44607    132188.39907     -2616.47707        43.90007
R05  24265322.33514    225906.02014     -4467.74214        28.70014
R19  22962430.90814   -201940.64014      4077.22614        28.10014
R17  22465699.38806    238248.06906     -1580.87306        38.90006
R07  21137530.66007  -5119871.73507      1058.49507        45.70007
R08  24346060.04124   -178995.54624      3603.69024        27.00024
C34  24980314.45606    196116.24706     -1277.85306        41.30006
C25  24539898.35025    630851.34825     -1976.68925        33.90025
C23  22189407.66108     -6880.30808      -191.13208        47.50008
C11  24012641.96225    -68946.69525       111.37025        34.30025
E07  25312477.90407     46214.19407     -2605.90407        42.80007  25310359.27105    514559.19605     -1943.20505        34.20005
E15  27066053.02907    -19258.55707      2592.81307        44.50007  27063927.50114    -14566.35214      1937.32114        28.00014
E21  26520716.45806    -13341.26206      1801.03506        36.00006                                                                
E27  23577250.97708    -21277.29608        86.03408        47.70008  23575124.54906    -62258.25306        67.08006        39.80006
E30  24404188.60007     35716.23807     -1828.21507        47.10007  24402068.76705     77103.76405     -1362.32905        29.70005
> 2021 04 21 16 48 08.4446011  0 33                      
G05  24495508.44414      4311.27414     -1767.84314        27.40014                                                                
G07  21548889.74606   2702017.76806     -1472.35506        37.40006                                                                
G08  23383034.09407    356893.95907     -2836.48807        42.90007  23380684.32106    466240.15106     -2118.16006        36.10006
G09  24506025.76306     20694.51606     -3800.32606        36.50006                                                                
G13  22294183.98907  -4519355.70107      2626.10807        47.30007                                                                
G14  20474180.55107   -752817.24207       660.87607        46.30007  20471840.97106  -2186228.86906       493.52806        39.20006
G15  24939494.17905    -24107.08705      3242.10205        32.30005                                                                
G17  22574894.35706  -1060500.35406      3233.94406        40.80006                                                                
G19  25150002.74714   -140490.55514      3866.94214        29.40014                                                                
G21  24675056.54507    -75422.69607      1066.49607        44.60007                                                                
G28  20749470.07208  -3081265.82608       717.43208        50.30008                                                                
G30  20540734.77708  -1818944.06308       354.65508        50.20008  20538392.19805  -1351935.55605       264.84605        35.40005
J01  43624290.56424         0.00024       163.30024        25.00024  43626646.03325     -1334.35525       222.96125        30.80025
R06  20777118.13205    138004.95205     -2798.76805        32.40005
R18  21313353.00405  -6598770.53505      1844.71005        30.50005
R09  21159559.77307  -4857222.31507      1707.59907        46.90007
R16  20117283.92607   1124038.45407      -769.90807        44.60007
R15  23213189.97407    134806.30907     -2624.02007        43.50007
R05  24266130.03914    230375.22214     -4475.85914        26.50014
R19  22961631.72524         0.00024      4067.50024        26.30024
R17  22466011.23606    239830.82906     -1589.29306        38.90006
R07  21137328.66307  -5120928.76007      1050.65707        45.40007
R08  24345356.19214   -182597.67414      3597.14814        25.60014
C34  24980563.34707    197395.81207     -1285.93007        41.90007
C25  24540277.05125    632829.60825     -1984.43325        33.80025
C23  22189444.29907     -6688.06607      -198.26107        47.30007
C11  24012618.94125    -69056.24125       103.32825        34.00025
E07  25312975.62307     48820.63807     -2612.11307        43.10007  25310854.59105    516505.60205     -1950.70605        33.90005
E15  27065560.53407    -21850.95907      2586.86107        44.40007  27063435.60504    -16502.16104      1931.19004        27.00004
E19  26419421.44723         0.00023      2001.70023        21.90023  26417284.52623         0.00023      1495.90023        22.30023
E21  26520371.46006    -15142.11206      1795.29606        36.00006  26518246.23223         0.00023      1340.10023        21.60023
E27  23577235.75108    -21362.87008        79.99708        47.90008  23575108.12406    -62322.07006        59.46406        40.00006
E30  24404536.72207     37544.85007     -1834.14907        46.80007  24402416.29005     78469.31305     -1369.67405        30.40005
> 2021 04 21 16 48 09.4446011  0 32                      
G07  21549157.97006   2703494.28406     -1477.79406        37.30006                                                                
G08  23383572.73207    359734.61807     -2841.94707        42.60007  23381223.85805    468361.43405     -2122.27305        35.40005
G09  24506751.47106     24498.82406     -3805.41406        36.00006                                                                
G13  22293685.04507  -4521977.60907      2620.64007        47.30007                                                                
G14  20474053.35007   -753473.72507       655.23707        46.60007  20471715.86806  -2186719.10206       489.33306        39.10006
G15  24938871.42115    -27345.10015      3236.76815        30.70015                                                                
G17  22574280.29306  -1063730.21206      3228.64606        41.10006                                                                
G19  25149272.06324   -144353.90124      3862.52424        28.90024                                                                
G21  24674857.09407    -76485.12907      1061.16807        44.00007                                                                
G28  20749340.77208  -3081978.89708       711.85208        50.40008                                                                
G30  20540667.83408  -1819294.39808       349.13708        49.80008  20538325.55506  -1352197.15006       260.63806        35.60006
J01  43624245.206 4   -137741.768 4       162.639 4        24.600 4  43626603.07325     -1552.92925       217.50625        31.00025
R06  20777644.77805    140808.30205     -2804.88305        32.30005
R18  21312999.16005  -6600610.85705      1838.82305        32.00005
R09  21159238.00607  -4858925.59007      1702.09807        46.70007
R16  20117431.93407   1124812.67407      -775.38607        44.60007
R15  23213675.84907    137434.31607     -2629.14907        42.80007
R05  24266965.17214    234854.04014     -4480.22414        27.30014
R19  22960913.33324   -210082.14624      4063.59324        27.50024
R17  22466296.24906    241424.50706     -1595.17506        38.30006
R07  21137136.70707  -5121974.75407      1044.49407        45.50007
R08  24344668.07914   -186191.09414      3590.85814        25.70014
C34  24980809.38807    198685.75807     -1291.28707        41.80007
C25  24540655.60005    634817.84505     -1989.35605        33.90005
C23  22189483.48208     -6485.75508      -203.44908        47.60008
C11  24012600.26505    -69155.40805        97.79305        33.80005
E07  25313472.88907     51437.33807     -2617.92907        42.80007  25311352.75705    518459.63205     -1954.50005        34.30005
E15  27065072.38207    -24433.26407      2581.23207        44.70007  27062943.25604    -18430.46404      1927.70404        27.40004
E21  26520031.70606    -16932.78406      1789.51406        36.70006  26517907.07723         0.00023      1337.85023        22.30023
E27  23577220.67208    -21438.24008        74.22208        48.00008  23575094.24406    -62378.36406        56.07406        39.80006
E30  24404884.39207     39383.49607     -1839.77407        47.10007  24402767.25805     79842.37205     -1373.92805        29.70005
E19                                                                  26416904.89923         0.00023      1493.85023        22.70023
> 2021 04 21 16 48 10.4446011  0 32                      
G01  24803541.76325     -1145.62525      2593.59525        30.20025                                                                
G07  21549440.03006   2704972.83706     -1478.76106        37.30006                                                                
G08  23384114.11207    362577.43307     -2843.00707        43.00007  23381764.33906    470484.35106     -2123.02506        36.30006
G09  24507463.13406     28304.96006     -3806.14706        35.90006                                                                
G13  22293187.34508  -4524597.38608      2619.57008        47.50008                                                                
G14  20473927.99207   -754128.07207       654.08107        46.40007  20471591.11006  -2187207.75406       488.47206        39.60006
G15  24938248.70715    -30580.95715      3236.26115        30.70015                                                                
G17  22573667.47307  -1066958.03607      3227.72407        41.60007                                                                
G19  25148543.22324   -148215.67624      3861.75524        29.30024                                                                
G21  24674651.69107    -77545.46207      1060.13507        44.70007                                                                
G28  20749200.42508  -3082689.84308       710.69908        50.80008                                                                
G30  20540605.13208  -1819642.69808       348.08208        50.70008  20538258.95706  -1352457.26606       259.96506        36.20006
J01  43624202.29123         0.00023       159.95023        23.30023  43626534.07614     -1769.90814       216.72614        27.30014
R06  20778166.67205    143614.03105     -2806.10305        31.70005
R18  21312646.85905  -6602448.69805      1837.41305        31.70005
R09  21158915.08507  -4860626.93807      1701.20207        46.40007
R16  20117581.78507   1125588.84407      -776.38607        44.70007
R15  23214167.16407    140064.12507     -2629.79607        42.60007
R05  24267809.04314    239335.41514     -4481.30914        27.10014
R19  22960148.21824   -214145.71024      4063.29224        27.70024
R17  22466593.29906    243020.77006     -1596.66706        37.30006
R07  21136944.49507  -5123018.11507      1042.87007        45.70007
R08  24344007.59224         0.00024      3590.25024        24.70024
C34  24981056.67207    199977.94507     -1292.41707        41.90007
C25  24541037.19105    636807.82705     -1990.06605        34.60005
C23  22189523.31008     -6281.55608      -204.30008        47.80008
C11  24012575.33705    -69252.25805        96.55905        33.80005
E07  25313972.29907     54056.01207     -2618.97707        43.20007  25311850.96805    520415.11505     -1955.10805        34.80005
E15  27064577.08107    -27013.71807      2580.28207        44.60007  27062453.05104    -20357.49204      1926.93504        27.10004
E21  26519691.39706    -18721.56606      1788.64306        36.90006  26517566.168 4    -14104.158 4      1335.729 4        24.400 4
E27  23577208.93508    -21511.67208        73.16908        47.90008  23575079.80906    -62433.21306        54.93906        40.70006
E30  24405237.50307     41223.95407     -1840.67807        47.10007  24403116.47105     81216.67605     -1374.39305        30.70005
> 2021 04 21 16 48 11.4446011  0 33                      
G05  24496518.39924        -0.00024     -1775.10024        25.40024                                                                
G07  21549724.32206   2706451.91306     -1480.84006        37.80006                                                                
G08  23384652.92807    365420.90907     -2845.28707        42.60007  23382305.55306    472607.69506     -2124.75006        37.50006
G09  24508196.21506     32111.37906     -3808.10406        35.60006                        -0.00023     -2844.60023        19.50023
G13  22292690.97707  -4527216.50307      2617.30407        47.40007                                                                
G14  20473804.26607   -754781.78007       651.94707        46.70007  20471467.38406  -2187695.89706       486.80006        41.40006
G15  24937636.32025    -33816.74825      3233.81625        30.50025                                                                
G17  22573049.38906  -1070185.36806      3225.60106        41.30006                                                                
G19  25147814.21614   -152077.20714      3860.06414        27.50014                                                                
G21  24674448.82007    -78605.15607      1057.85807        44.90007                                                                
G28  20749068.90408  -3083400.16008       708.54908        50.50008                                                                
G30  20540533.57008  -1819990.42508       346.01408        50.10008  20538192.79106  -1352716.91006       258.35406        37.70006
J01  43624163.106 4   -138065.597 4       160.737 4        27.200 4  43626515.57825     -1986.60525       215.12725        31.00025
R06  20778690.49805    146420.63005     -2808.36005        31.60005
R18  21312295.89005  -6604285.57005      1834.82805        31.00005
R09  21158594.39607  -4862327.83107      1699.21107        46.40007
R16  20117724.27507   1126365.49007      -778.33307        44.80007
R15  23214657.11307    142694.21207     -2631.73707        41.80007
R05  24268653.94614    243816.95414     -4483.18914        26.80014
R19  22959348.16014   -218208.80614      4061.51814        27.90014
R17  22466898.57606    244618.11506     -1599.41306        37.30006
R07  21136750.31807  -5124060.33707      1040.18807        45.40007
R08  24343270.79024   -193368.39724      3586.95324        25.70024
C34  24981309.18507    201270.86207     -1294.81507        41.90007
C25  24541416.81705    638798.25205     -1992.05805        32.70005
C23  22189561.47208     -6076.93608      -206.30108        47.60008
C11  24012559.53705    -69348.31405        94.14705        34.20005
E07  25314470.64307     56675.14307     -2620.70207        42.70007  25312349.91106    522370.97006     -1956.70606        36.00006
E15  27064090.00607    -29593.89107      2578.56407        44.60007  27061962.37904    -22284.26304      1925.67904        29.10004
E19  26418311.27023         0.00023      1987.20023        22.30023  26416147.96724         0.00024      1485.30024        24.10024
E21  26519348.22306    -20509.97606      1786.81506        37.10006  26517224.79304    -15439.56004      1334.37604        23.50004
E27  23577189.53708    -21584.74008        71.44608        47.90008  23575065.80707    -62487.76207        53.53807        41.90007
E30  24405584.45107     43064.62507     -1842.17507        47.20007  24403467.61705     82591.22705     -1375.51105        31.50005
> 2021 04 21 16 48 12.4446011  0 32                      
G07  21550001.01306   2707935.51206     -1483.92306        37.40006                                                                
G08  23385195.23407    368268.96107     -2848.39307        41.60007  23382847.26006    474734.48806     -2127.07206        38.00006
G09  24508922.89406     35922.02706     -3810.80106        36.10006  24506569.52323        -0.00023     -2845.25023        21.90023
G13  22292189.70607  -4529831.04907      2614.19107        47.00007                                                                
G14  20473682.83307   -755430.89407       648.68207        46.50007  20471343.25207  -2188180.61707       484.37807        41.50007
G15  24937015.43214    -37047.60714      3230.15314        29.30014                                                                
G17  22572441.09207  -1073408.25107      3222.59507        41.70007                                                                
G19  25147057.82204   -155934.18004      3857.35604        27.80004                                                                
G21  24674247.34207    -79660.30507      1054.85507        43.90007                                                                
G28  20748934.28008  -3084105.92208       705.34308        50.50008                                                                
G30  20540472.69508  -1820333.66208       342.84708        50.00008  20538128.01806  -1352973.24006       255.98506        38.10006
J01  43624124.41524         0.00024       160.15024        26.80024  43626461.89715     -2198.65315       212.19715        30.50015
R06  20779229.20715    149232.13015     -2812.01915        31.30015
R18  21311975.09505  -6606117.28205      1831.28005        32.70005
R09  21158280.49507  -4864024.32507      1696.22907        46.10007
R16  20117866.35907   1127146.60007      -781.44807        44.70007
R15  23215147.55607    145328.52907     -2634.47907        41.80007
R05  24269486.15314    248302.63214     -4485.22414        27.20014
R19  22958637.03514   -222267.56914      4058.41814        29.00014
R17  22467190.25606    246220.48306     -1602.92006        36.30006
R07  21136556.63507  -5125097.44507      1036.42607        45.30007
R08  24342599.83723         0.00023      3581.90023        21.30023
C34  24981554.39807    202568.40407     -1297.87607        41.50007
C25  24541804.13105    640792.75905     -1994.68105        33.60005
C23  22189603.12608     -5868.00608      -209.15908        47.70008
C11  24012540.63205    -69439.68505        90.99205        33.60005
E07  25314970.37907     59298.71807     -2624.13207        43.10007  25312849.04706    524330.11206     -1958.98106        36.80006
E15  27063596.23007    -32169.79507      2575.41207        44.50007  27061471.60105    -24207.83705      1923.61605        29.70005
E21  26519012.43806    -22294.08506      1783.76706        37.30006  26516884.51104    -16771.83504      1332.17804        24.90004
E27  23577182.62408    -21653.41408        68.16708        48.30008  23575052.59907    -62539.07907        51.47007        42.30007
E30  24405938.48907     44909.58607     -1845.41407        47.00007  24403818.65605     83968.93505     -1377.42705        32.70005
E19                                                                  26415767.213 4     -3804.539 4      1484.811 4        24.900 4
> 2021 04 21 16 48 13.4446011  0 32                      
G07  21550290.10906   2709418.47906     -1483.25706        38.40006                                                                
G08  23385737.35607    371116.51107     -2847.85207        41.60007  23383389.38106    476860.89606     -2126.64206        37.80006
G09  24509644.59106     39731.84706     -3810.01206        35.90006  24507296.01723        -0.00023     -2844.40023        21.70023
G13  22291693.34707  -4532446.11307      2614.73307        47.30007                                                                
G14  20473558.81507   -756080.50607       649.30707        46.60007  20471219.83407  -2188665.72807       484.84707        41.60007
G15  24936404.85114    -40279.10614      3231.60614        28.60014                                                                
G17  22571824.51606  -1076631.78806      3223.30506        41.30006                                                                
G19  25146326.42514   -159793.17514      3858.51614        27.90014                                                                
G21  24674045.67807    -80716.02207      1055.35507        44.50007                                                                
G28  20748795.57308  -3084812.21908       705.99108        50.60008                                                                
G30  20540403.53908  -1820677.49908       343.58108        50.20008  20538062.46006  -1353230.00606       256.60606        37.60006
J01  43624081.342 4   -138383.692 4       159.452 4        28.000 4  43626426.61805     -2412.01705       213.22305        31.50005
R06  20779762.33505    152043.32605     -2811.60605        32.70005
R18  21311633.12805  -6607949.24505      1831.50405        33.80005
R09  21157950.52007  -4865721.57007      1697.04007        45.70007
R16  20118018.75007   1127927.01607      -780.61707        44.90007
R15  23215633.61606    147961.93206     -2633.57006        40.50006
R05  24270304.38314    252786.79714     -4484.70714        26.70014
R19  22957846.57814   -226327.09214      4059.25814        28.10014
R17  22467507.23306    247822.73906     -1602.80206        36.00006
R07  21136353.47207  -5126134.61207      1036.65907        45.00007
R08  24341897.22024         0.00024      3583.95024        23.50024
C34  24981803.02207    203865.56907     -1297.54207        41.60007
C25  24542182.86505    642786.56305     -1993.95405        32.90005
C23  22189642.19508     -5659.80908      -208.39608        47.80008
C11  24012517.64505    -69531.47405        91.37305        32.50005
E07  25315470.22907     61921.56207     -2623.13807        43.20007  25313348.29806    526288.75506     -1958.33806        36.40006
E15  27063109.46407    -34746.58007      2576.57007        44.70007  27060981.23704    -26132.05504      1924.19004        28.90004
E19  26417536.38523         0.00023      1991.55023        22.50023  26415391.07024         0.00024      1484.50024        24.60024
E21  26518671.07106    -24078.98606      1784.58606        36.80006  26516547.94104    -18104.78304      1332.71504        24.50004
E27  23577164.13408    -21722.88908        69.24308        48.10008  23575039.50507    -62590.94207        52.25907        42.00007
E30  24406288.44307     46753.59307     -1844.17207        47.30007  24404169.21005     85345.94205     -1376.27105        32.80005
> 2021 04 21 16 48 14.4446011  0 33                      
G05  24497521.18224        -0.00024     -1774.60024        25.60024                                                                
G07  21550573.31206   2710901.64706     -1478.61406        37.50006                                                                
G08  23386276.58106    373964.32306     -2843.29806        40.20006  23383931.00506    478987.51506     -2123.21306        37.60006
G09  24510370.88705     43541.56505     -3804.70205        35.00005                                                                
G13  22291192.89207  -4535060.88207      2619.27407        47.00007                                                                
G14  20473439.09607   -756729.84307       653.63907        46.80007  20471096.21806  -2189150.62706       488.14206        41.30006
G15  24935807.86314    -43510.64714      3236.40514        29.30014                                                                
G17  22571211.63906  -1079855.19506      3227.96306        40.50006                                                                
G19  25145591.53314   -163651.78414      3863.94714        27.70014                                                                
G21  24673848.31407    -81771.49207      1060.37107        44.20007                                                                
G28  20748663.56308  -3085518.24408       710.46508        50.50008                                                                
G30  20540339.88208  -1821021.13308       348.00308        50.60008  20537996.40406  -1353486.61506       259.89506        37.30006
J01  43624041.36824         0.00024       162.75024        26.90024  43626389.04305     -2625.57505       217.99405        32.10005
R06  20780270.98105    154855.06405     -2807.45105        31.80005
R18  21311292.16305  -6609780.60305      1835.68205        33.70005
R09  21157630.84007  -4867418.76107      1701.82407        45.40007
R16  20118165.24707   1128707.51907      -776.05107        44.60007
R15  23216122.77606    150595.21206     -2628.43806        41.10006
R05  24271131.70914    257272.65314     -4480.33214        26.70014
R19  22957083.20515   -230386.58815      4064.26715        30.20015
R17  22467792.53406    249425.70806     -1598.49406        35.60006
R07  21136160.90407  -5127171.06007      1040.75407        45.20007
R08  24341213.29223         0.00023      3584.95023        22.10023
C34  24982052.64806    205163.10706     -1292.72906        41.20006
C25  24542568.29705    644780.29405     -1988.95205        32.20005
C23  22189683.46508     -5451.55308      -203.66408        47.80008
C11  24012499.55605    -69622.75105        95.74205        32.80005
E07  25315969.88207     64544.56507     -2619.09107        43.60007  25313847.05206    528247.47206     -1954.67306        35.90006
E15  27062615.30507    -37323.38007      2580.78107        44.10007  27060491.87515    -28056.21715      1927.71215        29.60015
E21  26518331.00506    -25863.90006      1788.91306        36.60006  26516206.37604    -19437.55004      1336.20904        25.40004
E27  23577152.34008    -21792.27908        73.31908        47.90008  23575026.21207    -62642.77107        55.65807        41.50007
E30  24406639.09907     48597.53007     -1839.93607        46.80007  24404520.76505     86722.93305     -1372.85605        31.90005
E19                                                                  26415012.63123         0.00023      1490.35023        22.50023
> 2021 04 21 16 48 15.4446011  0 33                      
G05  24497895.21324      2557.75824     -1771.95324        27.60024                                                                
G07  21550866.99906   2712375.54206     -1475.64906        38.10006                                                                
G08  23386815.49806    376803.00806     -2840.56606        40.40006  23384471.12106    481107.31706     -2121.21806        37.60006
G09  24511098.37306     47341.87306     -3802.04406        35.80006  24508745.30223        -0.00023     -2839.65023        20.30023
G13  22290696.02607  -4537684.80007      2622.08907        47.20007                                                                
G14  20473311.87407   -757388.32207       656.74107        46.90007  20470971.09507  -2189642.34207       490.40307        41.70007
G15  24935209.06714    -46751.53614      3239.06314        26.20014                                                                
G17  22570598.75306  -1083087.86806      3230.88906        41.10006                                                                
G19  25144865.32514   -167519.60714      3866.15814        27.00014                                                                
G21  24673642.54607    -82836.12207      1062.75207        45.20007                                                                
G28  20748527.34708  -3086233.43308       713.43608        50.40008                                                                
G30  20540271.11908  -1821374.00508       351.16208        50.20008  20537929.44106  -1353750.13406       262.26206        37.90006
J01  43624000.486 4   -138709.770 4       165.681 4        28.000 4  43626348.16105     -2848.72705       221.58105        31.20005
R06  20780805.10105    157657.59805     -2804.47805        31.60005
R18  21310937.99805  -6611620.91905      1838.35605        34.80005
R09  21157321.94407  -4869125.46807      1705.01607        45.70007
R16  20118307.53907   1129478.51907      -772.62907        44.50007
R15  23216623.02006    153218.79706     -2625.29906        40.80006
R05  24272006.99314    261745.99414     -4475.43914        27.10014
R19  22956333.61425   -234455.67125      4067.37225        29.70025
R17  22468066.73405    251019.69505     -1596.03305        34.20005
R07  21135972.52407  -5128216.35307      1043.26707        45.50007
R08  24340508.07023         0.00023      3590.45023        23.20023
C34  24982297.76807    206451.69407     -1290.73407        41.50007
C25  24542946.22505    646764.65805     -1986.11605        32.00005
C23  22189720.82908     -5252.57408      -200.67008        47.70008
C11  24012478.16105    -69722.95905        98.26105        31.80005
E07  25316468.32707     67158.23807     -2615.14907        43.80007  25314344.59706    530199.24506     -1952.83006        36.20006
E15  27062121.43607    -39909.69907      2584.93207        44.00007  27059998.90605    -29987.64405      1930.15905        30.20005
E19  26416772.00323         0.00023      1992.20023        23.40023  26414630.88524         0.00024      1488.20024        23.80024
E21  26517996.02706    -27658.21406      1792.91006        36.50006  26515866.00114    -20777.67514      1338.92014        24.60014
E27  23577137.54108    -21871.05908        77.35708        47.90008  23575011.41307    -62701.61607        58.05507        42.00007
E30  24406988.24707     50431.95707     -1835.73107        47.20007  24404868.71405     88092.75805     -1370.71205        32.90005
> 2021 04 21 16 48 16.4446011  0 33                      
G05  24498207.13214      4336.66114     -1782.26514        26.30014                                                                
G07  21551148.63906   2713857.40906     -1484.72206        38.70006                                                                
G08  23387355.85906    379649.76506     -2849.70606        39.70006  23385012.68106    483233.12706     -2128.03706        37.40006
G09  24511812.61406     51149.85706     -3810.77006        36.00006  24509470.93523        -0.00023     -2835.90023        22.00023
G13  22290199.10507  -4540300.64707      2612.90307        47.40007                                                                
G14  20473188.19507   -758038.71807       647.35007        47.20007  20470847.71507  -2190128.02407       483.40907        41.50007
G15  24934562.55014    -49985.50214      3230.51114        28.00014                                                                
G17  22569986.11206  -1086312.64506      3221.88806        41.20006                                                                
G19  25144137.56414   -171380.78314      3858.02614        28.60014                                                                
G21  24673443.01907    -83892.75907      1053.69407        45.30007                                                                
G28  20748391.37608  -3086940.56408       704.10008        50.50008                                                                
G30  20540209.79708  -1821718.88408       341.87808        50.30008  20537863.92106  -1354007.67506       255.35106        37.50006
J01  43623958.65024         0.00024       158.70024        27.70024  43626295.53205     -3064.03705       212.49305        32.60005
R06  20781313.38405    160468.67405     -2814.20605        32.10005
R18  21310601.76605  -6613452.65205      1828.60405        34.60005
R09  21156997.10407  -4870824.22507      1695.81907        45.70007
R16  20118452.47307   1130257.51607      -781.98307        44.70007
R15  23217106.42006    155850.17206     -2634.11906        41.40006
R05  24272856.73914    266228.29814     -4485.04714        27.10014
R19  22955567.77905   -238516.84605      4058.26505        30.40005
R17  22468367.26105    252622.32705     -1605.75105        33.40005
R07  21135787.68707  -5129252.95607      1033.27407        46.10007
R08  24339856.45624         0.00024      3581.20024        25.00024
C34  24982544.63306    207748.33006     -1299.64306        41.40006
C25  24543327.09705    648756.65605     -1994.78405        32.40005
C23  22189763.23508     -5045.84808      -209.53608        47.70008
C11  24012461.80705    -69815.02305        89.10705        32.20005
E07  25316968.81507     69779.78507     -2624.60107        43.80007  25314843.58706    532156.88506     -1958.45206        35.70006
E15  27061633.20907    -42488.28007      2575.61207        43.90007  27059508.28104    -31913.21704      1924.67404        28.90004
E21  26517652.59906    -29444.78006      1783.67106        36.40006  26515529.46914    -22111.61714      1331.99514        26.80014
E27  23577126.88308    -21942.04708        68.01008        47.90008  23574997.75707    -62754.63007        52.13607        42.10007
E30  24407339.43907     52274.06207     -1845.07307        47.00007  24405220.20605     89468.37805     -1376.45205        32.70005
E19                                                                  26414252.082 4     -2316.088 4      1483.908 4        24.200 4
> 2021 04 21 16 48 17.4446011  0 33                      
G05  24498575.46114      6118.93514     -1782.30114        28.30014                                                                
G07  21551420.43406   2715343.09406     -1485.81606        37.90006                                                                
G08  23387899.26606    382500.49606     -2850.94606        39.60006  23385554.88906    485361.92706     -2128.95206        36.60006
G09  24512536.79606     54961.48306     -3811.63106        35.90006  24510192.11923        -0.00023     -2851.85023        22.00023
G13  22289698.93508  -4542912.53908      2611.69608        47.60008                                                                
G14  20473067.86207   -758685.19007       646.20007        47.20007  20470724.38506  -2190610.75106       482.51606        40.30006
G15  24933961.05014    -53213.45414      3226.70214        27.50014                                                                
G17  22569375.31906  -1089533.57606      3220.79106        41.20006                                                                
G19  25143379.27314   -175237.94914      3856.56814        27.60014                                                                
G21  24673241.44307    -84945.43007      1052.52507        45.30007                                                                
G28  20748258.45208  -3087643.76108       702.91708        50.00008                                                                
G30  20540143.42708  -1822059.92708       340.82208        50.60008  20537799.05006  -1354262.32806       254.51806        37.80006
J01  43623918.062 4   -139028.775 4       158.158 4        27.800 4  43626263.63805     -3275.91305       211.76505        31.50005
R06  20781846.00005    163283.88905     -2815.58005        32.20005
R18  21310261.98505  -6615280.03005      1827.02305        35.40005
R09  21156686.10307  -4872519.19707      1694.85507        46.40007
R16  20118602.85307   1131040.34607      -783.04307        45.10007
R15  23217601.26107    158485.14407     -2634.93907        41.60007
R05  24273684.05014    270713.96614     -4485.71214        27.90014
R19  22954808.28905   -242574.25305      4057.37305        30.60005
R17  22468676.83105    254229.36305     -1607.40505        32.70005
R07  21135587.31007  -5130285.04107      1031.60307        46.20007
R08  24339203.09324   -214893.11524      3580.81124        25.80024
C34  24982795.74306    209049.09806     -1300.95206        41.40006
C25  24543705.31905    650752.30105     -1995.67005        33.20005
C23  22189802.69108     -4835.41208      -210.51108        47.90008
C11  24012440.10605    -69902.98305        87.67705        32.30005
E07  25317466.35507     72405.10307     -2625.62307        43.60007  25315343.22506    534117.39206     -1960.47706        35.50006
E15  27061142.63307    -45063.26807      2574.82007        43.90007  27059017.40414    -33835.97114      1922.71214        28.20014
E19  26416024.03924         0.00024      1985.30024        24.60024  26413873.62824         0.00024      1483.40024        23.70024
E21  26517309.52106    -31227.67906      1782.86206        35.60006  26515193.28604    -23443.05404      1331.09804        25.60004
E27  23577114.17608    -22009.31308        67.01708        48.10008  23574985.05007    -62804.82307        50.17907        41.80007
E30  24407692.77807     54119.70507     -1845.84607        47.20007  24405570.54705     90846.68005     -1377.73105        32.10005
> 2021 04 21 16 48 18.4446010  0 33                      
G05  24498876.41905      7899.67905     -1779.83105        30.40005                                                                
G07  21551681.22006   2716827.53506     -1483.50006        38.00006                                                                
G08  23388411.87806    385350.09606     -2848.74406        39.00006  23386066.60206    487489.86706     -2127.24806        36.40006
G09  24513243.07406     58771.57306     -3809.04006        36.00006                                                                
G13  22289173.06507  -4545525.60107      2613.95107        47.20007                                                                
G14  20472909.53808   -759332.78908       648.42608        47.50008  20470571.15706  -2191094.33206       484.19606        39.30006
G15  24933317.66205    -56443.54505      3231.51905        33.20005                                                                
G17  22568732.23007  -1092755.83507      3223.21507        41.50007                                                                
G19  25142620.46514   -179096.31614      3859.93714        27.60014                                                                
G21  24673017.46407    -85999.33707      1054.78507        44.40007                                                                
G28  20748091.13408  -3088348.12208       705.19308        49.80008                                                                
G30  20540051.95708  -1822402.20208       343.11308        50.10008  20537704.28206  -1354517.92906       256.25206        37.90006
J01  43623845.17924         0.00024       159.30024        27.20024  43626190.15605     -3489.31105       214.35005        30.50005
R06  20782349.61705    166098.22605     -2813.55605        32.60005
R18  21309889.30906  -6617108.19806      1828.95706        35.70006
R09  21156340.40907  -4874215.57007      1697.38307        46.60007
R16  20118717.94007   1131821.77907      -780.48807        45.10007
R15  23218071.00307    161118.45107     -2632.27507        42.30007
R05  24274475.76904    275197.91404     -4482.84104        28.30004
R19  22954020.40105   -246633.10905      4059.95705        30.70005
R17  22468938.81605    255835.58605     -1605.62005        34.00005
R07  21135367.52807  -5131317.86007      1033.44307        46.10007
R08  24338503.94323         0.00023      3589.20023        22.10023
C34  24983013.95806    210348.71406     -1298.85106        41.40006
C25  24544059.04005    652746.42305     -1993.10305        33.90005
C23  22189813.75008     -4626.35308      -208.06308        47.80008
C11  24012399.30005    -69991.97205        89.71205        32.20005
E07  25317935.79607     75029.13307     -2623.33307        43.20007  25315812.36605    536076.87705     -1957.91505        35.40005
E15  27060619.76107    -47639.69107      2577.27607        43.90007  27058497.83014    -35759.90414      1925.14114        28.40014
E21  26516943.14105    -33011.89305      1784.91305        35.00005  26514818.21204    -24775.40604      1333.39604        25.30004
E27  23577065.57608    -22077.93808        69.39808        48.20008  23574942.44607    -62856.08507        53.06407        42.00007
E30  24408012.62308     55963.88908     -1843.35208        47.50008  24405892.79105     92223.78105     -1375.63005        31.80005
E19                                                                  26413464.378 4     -2309.151 4      1485.228 4        24.500 4
> 2021 04 21 16 48 19.4446010  0 34                      
G01  24799093.27625     -1144.14525      2590.63025        31.90025                                                                
G05  24499219.27405      9680.47405     -1779.88005        31.80005                                                                
G07  21551954.82306   2718311.95006     -1483.55006        38.20006                                                                
G08  23388951.39606    388199.75606     -2848.80806        38.70006  23386608.81806    489617.84006     -2127.31006        35.70006
G09  24513964.26606     62581.42606     -3808.78506        35.60006  24511611.19523        -0.00023     -2839.70023        20.80023
G13  22288671.40407  -4548138.61907      2613.82607        47.10007                                                                
G14  20472793.41108   -759980.35608       648.29408        47.60008  20470447.83406  -2191577.91306       484.07606        38.60006
G15  24932698.18314    -59674.01914      3230.82714        29.20014                                                                
G17  22568118.44706  -1095978.18106      3223.23606        41.00006                                                                
G19  25141883.16704   -182955.59304      3860.31404        28.10004                                                                
G21  24672816.79507    -87053.20907      1054.75207        45.40007                                                                
G28  20747956.41908  -3089052.50208       705.09508        49.90008                                                                
G30  20539984.09608  -1822744.52508       343.08208        50.50008  20537638.81906  -1354773.54306       256.19206        37.00006
J01  43623806.098 4   -139347.744 4       160.193 4        27.300 4  43626152.87305     -3703.15405       215.06605        29.50005
R06  20782878.04405    168912.76405     -2813.93905        32.50005
R18  21309538.14405  -6618935.99205      1828.39805        34.20005
R09  21156027.01807  -4875912.13907      1697.47507        46.40007
R16  20118862.93207   1132603.06107      -780.47307        45.10007
R15  23218567.65107    163751.52307     -2631.99007        41.90007
R05  24275324.37304    279681.46204     -4482.48804        28.60004
R19  22953272.61105   -250692.17705      4060.06505        30.00005
R17  22469233.10405    257442.30605     -1606.15205        33.10005
R07  21135174.95307  -5132350.21007      1032.87807        46.30007
R08  24337827.50324   -222057.92524      3582.39224        27.40024
C34  24983264.47706    211648.55306     -1298.97206        41.20006
C25  24544440.86805    654740.38805     -1992.86905        33.60005
C23  22189852.61508     -4417.47908      -207.95108        48.20008
C11  24012373.71005    -70080.73805        89.48405        32.10005
E07  25318437.84107     77653.02807     -2623.28107        43.20007  25316312.31205    538036.29905     -1959.18405        34.80005
E15  27060132.19107    -50216.39007      2577.30307        43.40007  27058004.86404    -37684.10704      1924.74804        26.90004
E19  26415231.24724         0.00024      1988.20024        23.70024  26413087.13124         0.00024      1479.70024        23.70024
E21  26516603.96805    -34796.46705      1785.11705        35.40005  26514477.84004    -26108.05604      1333.29204        24.20004
E27  23577057.67308    -22146.74908        69.39008        48.20008  23574929.14706    -62907.46206        51.97406        41.30006
E30  24408366.57008     57807.72408     -1843.18308        47.50008  24406243.44005     93600.64305     -1376.37905        30.80005
> 2021 04 21 16 48 20.4446010  0 34                      
G01  24798601.74925     -3737.61125      2595.79025        31.90025                                                                
G05  24499562.96905     11457.49105     -1774.90705        33.10005                                                                
G07  21552237.96006   2719792.48306     -1478.39006        36.90006                                                                
G08  23389498.95106    391045.63406     -2843.79406        38.70006  23387150.67606    491743.00206     -2123.56506        36.50006
G09  24514684.50106     66387.20506     -3803.39606        37.00006  24512338.625 3   6686291.963 3     -2839.603 3        23.400 3
G13  22288180.47807  -4550755.36607      2618.87907        47.40007                                                                
G14  20472668.23107   -760631.64107       653.37307        47.40007  20470323.55406  -2192064.25506       487.83606        40.20006
G15  24932080.14415    -62907.40215      3236.61115        33.70015                                                                
G17  22567508.80307  -1099204.42607      3228.41907        42.10007                                                                
G19  25141137.11714   -186818.62114      3865.05914        26.50014                                                                
G21  24672616.96607    -88110.90507      1059.87007        44.90007                                                                
G28  20747821.04608  -3089760.61308       710.20108        50.00008                                                                
G30  20539918.57408  -1823090.65708       348.22908        51.00008  20537573.29806  -1355032.02606       260.05306        37.70006
J01  43623764.26024         0.00024       161.95024        26.90024  43626109.53705     -3921.04205       220.25105        30.80005
R06  20783423.79905    171723.76705     -2808.94405        33.50005
R18  21309195.01505  -6620767.19905      1833.24105        35.10005
R09  21155708.17207  -4877612.75207      1702.88407        46.60007
R16  20119015.35907   1133380.34407      -775.12007        44.90007
R15  23219060.34307    166380.34507     -2626.52407        42.70007
R05  24276187.60914    284160.58914     -4476.57614        27.30014
R19  22952482.79115   -254755.37315      4065.46915        29.50015
R17  22469540.82405    259045.60005     -1601.25505        33.60005
R07  21134985.61807  -5133385.93207      1037.66907        46.60007
R08  24337116.22924         0.00024      3589.05024        24.40024
C34  24983513.13807    212944.71807     -1294.15607        41.50007
C25  24544822.93605    656730.30305     -1987.57905        35.30005
C23  22189892.92108     -4212.53408      -202.73308        48.10008
C11  24012360.65205    -70173.06605        94.36405        32.50005
E07  25318933.53107     80273.00107     -2618.00707        43.30007  25316810.10105    539992.77705     -1954.21605        35.10005
E15  27059640.36507    -52797.25707      2582.92807        44.00007  27057515.13604    -39611.36604      1929.07504        28.90004
E21  26516263.53705    -36585.07905      1790.76405        34.60005  26514137.70803    -27443.62203      1337.45203        23.30003
E27  23577038.32008    -22219.60308        74.85908        48.30008  23574914.89007    -62961.84907        56.76007        42.00007
E30  24408712.36407     59647.39507     -1837.59207        47.30007  24406594.03005     94974.46205     -1371.14805        32.40005
E19                                                                  26412704.729 4     -2312.898 4      1488.976 4        23.800 4
> 2021 04 21 16 48 21.4446010  0 34                      
G01  24798109.01025     -6332.25125      2594.75825        33.80025                                                                
G05  24499889.26405     13233.57705     -1776.05505        32.80005                                                                
G07  21552521.98406   2721272.10406     -1479.60006        38.00006                                                                
G08  23390032.40206    393890.62706     -2844.93806        37.40006  23387691.62206    493867.52106     -2124.53706        36.30006
G09  24515411.01806     70191.65706     -3804.34906        35.60006  24513061.54523        -0.00023     -2837.80023        23.20023
G13  22287675.44707  -4553372.99107      2617.62207        47.10007                                                                
G14  20472545.13608   -761283.81008       651.99108        47.50008  20470199.56006  -2192551.31106       486.90806        40.30006
G15  24931471.68525    -66142.95225      3235.52925        33.70025                                                                
G17  22566894.04807  -1102431.66907      3227.31807        41.70007                                                                
G19  25140409.94014   -190683.41214      3865.23014        27.50014                                                                
G21  24672414.72707    -89169.43707      1058.65507        44.90007                                                                
G28  20747687.15908  -3090469.62908       708.86308        50.30008                                                                
G30  20539852.14008  -1823437.77008       346.99108        51.00008  20537507.16406  -1355291.24506       259.14906        36.70006
J01  43623719.112 4   -139674.315 4       163.743 4        26.000 4  43626061.99014     -4140.74014       219.18914        29.30014
R06  20783934.46605    174534.15105     -2810.62005        33.00005
R18  21308841.98005  -6622598.95505      1831.51905        34.60005
R09  21155381.21807  -4879314.47907      1701.66807        46.10007
R16  20119152.18507   1134156.52607      -776.26807        44.90007
R15  23219546.12707    169007.88407     -2627.33007        41.70007
R05  24277001.06614    288638.32914     -4477.39514        28.10014
R19  22951781.99615   -258819.67615      4064.40215        29.50015
R17  22469844.63405    260648.38705     -1602.93405        34.90005
R07  21134793.87107  -5134422.10207      1035.80207        46.70007
R08  24336420.23124         0.00024      3586.80024        23.90024
C34  24983763.58407    214240.16907     -1295.43307        41.80007
C25  24545200.19605    658718.99905     -1988.61005        33.00005
C23  22189929.01608     -4008.68508      -203.74408        47.70008
C11  24012338.28805    -70266.02905        93.11005        31.70005
E07  25319436.70307     82891.97007     -2619.16407        43.50007  25317308.17606    541948.46906     -1955.61306        35.50006
E15  27059148.52507    -55379.22907      2581.83907        44.10007  27057025.39504    -41539.50804      1928.16504        28.40004
E21  26515927.88906    -38374.69006      1789.38006        35.60006  26513795.76514    -28780.04514      1336.49914        24.70014
E27  23577028.84708    -22293.50408        73.76708        48.10008  23574900.92006    -63017.04406        55.28006        41.10006
E30  24409065.34008     61485.87108     -1838.57908        47.70008  24406943.40905     96347.31405     -1373.01405        32.00005
E19                                                                  26412330.10823         0.00023      1490.05023        22.30023
> 2021 04 21 16 48 22.4446010  0 34                      
G01  24797621.37125     -8926.91925      2591.21525        32.10025  24795251.81223         0.00023      1936.40023        21.80023
G05  24500222.45605     15009.81205     -1779.94105        32.60005                                                                
G07  21552805.11106   2722751.72806     -1483.18006        37.70006                                                                
G08  23390576.34806    396735.80306     -2848.78406        37.70006  23388233.47006    495992.20406     -2127.35106        36.90006
G09  24516130.34406     73996.05806     -3807.86706        35.60006  24513785.367 3   6691974.062 3     -2843.605 3        23.100 3
G13  22287184.81007  -4555990.41907      2613.85407        47.40007                                                                
G14  20472427.14107   -761935.79307       648.52007        47.30007  20470076.16906  -2193038.17806       484.28106        41.10006
G15  24930853.03725    -69378.34625      3231.62625        33.30025                                                                
G17  22566283.49407  -1105658.81707      3223.63507        41.70007                                                                
G19  25139685.16614   -194548.52814      3861.59414        28.80014                                                                
G21  24672216.08807    -90227.82007      1054.67807        44.30007                                                                
G28  20747552.97508  -3091178.46808       705.37608        49.80008                                                                
G30  20539786.00908  -1823784.78308       343.58308        50.80008  20537441.03306  -1355550.38506       256.60106        37.40006
J01  43623681.46124         0.00024       160.15024        26.50024  43626019.24315     -4360.04415       216.00015        30.00015
R06  20784455.62805    177344.92405     -2814.41105        32.90005
R18  21308504.53705  -6624430.15405      1827.32005        33.50005
R09  21155072.85507  -4881016.24307      1698.24607        46.00007
R16  20119301.60507   1134932.74307      -779.63507        44.80007
R15  23220043.00607    171635.17707     -2630.76007        42.20007
R05  24277833.41314    293115.68914     -4480.90714        28.10014
R19  22950972.08004   -262884.12204      4060.83004        29.40004
R17  22470125.36305    262251.75205     -1607.18205        33.20005
R07  21134598.82907  -5135457.61607      1031.72907        47.10007
R08  24335778.19924         0.00024      3588.95024        23.70024
C34  24984011.03607    215535.93407     -1299.48907        41.60007
C25  24545581.35505    660707.57705     -1992.04905        33.50005
C23  22189970.51008     -3804.87108      -207.26508        48.00008
C11  24012324.62105    -70358.63605        89.01505        30.70005
E07  25319932.68307     85510.90307     -2622.08507        43.30007  25317807.75406    543904.19706     -1958.90106        36.60006
E15  27058659.98707    -57961.41707      2579.09507        43.90007  27056533.25905    -43467.75805      1925.54105        29.60005
E19  26414101.70523         0.00023      1994.65023        22.90023  26411950.694 4     -2317.682 4      1485.353 4        23.600 4
E21  26515582.65205    -40164.61205      1786.92105        34.60005  26513458.02223         0.00023      1339.45023        22.60023
E27  23577011.28208    -22367.48108        70.87908        48.10008  23574887.25307    -63072.28107        52.07907        42.00007
E30  24409414.72108     63324.12708     -1841.24908        47.50008  24407293.09005     97720.04305     -1375.75805        32.20005
> 2021 04 21 16 48 23.4446010  0 34                      
G01  24797123.12615    -11514.88615      2586.85415        31.60015                                                                
G05  24500583.71605     16793.04905     -1784.40305        32.30005                                                                
G07  21553093.52106   2724238.26806     -1487.69306        37.80006                                                                
G08  23391119.88206    399588.01606     -2853.40306        37.80006  23388776.40406    498122.04906     -2130.76106        36.60006
G09  24516862.14705     77807.04005     -3812.05305        34.50005  24514511.47423        -0.00023     -2849.50023        22.60023
G13  22286682.36807  -4558600.85807      2609.21607        47.30007                                                                
G14  20472303.03708   -762580.76908       643.74408        47.50008  20469952.96406  -2193519.78006       480.69406        39.10006
G15  24930231.87725    -72606.86825      3227.60225        31.30025                                                                
G17  22565666.23206  -1108879.17706      3219.18306        40.90006                                                                
G19  25138941.69014   -198407.10914      3857.57014        27.50014                                                                
G21  24672012.83807    -91279.31307      1050.24707        44.90007                                                                
G28  20747417.77908  -3091880.30808       700.60408        49.60008                                                                
G30  20539720.96408  -1824124.87208       338.87908        51.10008  20537376.58706  -1355804.32106       252.99306        37.80006
J01  43623639.800 4   -139996.927 4       158.176 4        25.600 4  43625980.87925     -4572.81525       211.61025        30.70025
R06  20784989.86805    180163.07505     -2819.49805        33.10005
R18  21308181.97005  -6626253.90105      1822.23105        34.20005
R09  21154757.18407  -4882711.12707      1693.69607        46.30007
R16  20119444.01607   1135715.88007      -784.32407        44.80007
R15  23220537.37407    174269.17907     -2635.06907        42.60007
R05  24278694.72724        -0.00024     -4485.90024        26.30024
R19  22950225.00705   -266941.65805      4056.48805        30.20005
R17  22470450.04805    263862.56705     -1612.27905        33.80005
R07  21134403.07507  -5136485.50707      1026.38207        46.50007
R08  24335097.68024         0.00024      3577.95024        25.30024
C34  24984259.27507    216838.64907     -1303.98707        41.60007
C25  24545975.59205    662702.75305     -1996.24505        33.30005
C23  22190010.99208     -3594.36508      -211.62908        48.10008
C11  24012306.64304    -70444.24004        84.31804        29.30004
E07  25320432.74607     88136.70807     -2627.03807        43.20007  25318307.21806    545864.99206     -1961.49006        35.60006
E15  27058168.63707    -60536.89307      2574.26307        43.50007  27056043.10804    -45390.92304      1922.40304        28.60004
E19  26413720.67923         0.00023      1989.55023        22.90023  26411572.36623         0.00023      1483.15023        22.80023
E21  26515239.99905    -41947.57205      1781.66205        34.10005  26513118.667 4    -31448.189 4      1330.615 4        23.600 4
E27  23576998.10108    -22434.66908        65.92508        48.10008  23574874.37107    -63122.48307        49.68607        41.70007
E30  24409766.38808     65169.07208     -1846.14708        47.70008  24407645.35605     99097.71005     -1378.02505        31.80005
> 2021 04 21 16 48 24.4446010  0 34                      
G01  24796626.55105    -14102.24805      2588.49505        32.20005  24794266.28523         0.00023      1932.15023        21.60023
G05  24500904.07505     18577.09605     -1783.06205        31.50005                                                                
G07  21553380.00406   2725725.65606     -1486.44506        38.30006                                                                
G08  23391663.58606    402441.06706     -2852.17306        39.60006  23389318.91006    500252.61106     -2129.94406        36.50006
G09  24517571.93605     81618.64105     -3810.58605        34.30005  24515235.35423        -0.00023     -2852.55023        21.60023
G13  22286187.29208  -4561210.37508      2610.43208        47.50008                                                                
G14  20472183.30108   -763224.80908       644.83208        47.70008  20469830.52906  -2194000.73106       481.52906        39.30006
G15  24929624.37806    -75834.65406      3228.66106        35.50006                                                                
G17  22565060.83207  -1112098.70007      3220.49007        42.00007                                                                
G19  25138201.38414   -202264.79714      3858.96614        28.10014                                                                
G21  24671815.45607    -92329.89207      1051.45707        45.10007                                                                
G28  20747288.44908  -3092581.24908       701.73808        50.10008                                                                
G30  20539655.19108  -1824464.12308       340.08508        50.90008  20537311.71306  -1356057.66106       254.00406        36.90006
J01  43623598.60924         0.00024       159.25024        26.00024  43625944.78514     -4785.11514       213.18014        27.80014
R06  20785516.48505    182982.33505     -2818.48005        33.20005
R18  21307828.39605  -6628076.35205      1823.21105        34.60005
R09  21154442.58207  -4884405.31507      1695.23807        46.60007
R16  20119588.99707   1136499.74607      -782.97507        44.80007
R15  23221025.61707    176903.69807     -2633.41607        43.30007
R05  24279510.343 4    302084.068 4     -4483.212 4        27.200 4
R19  22949466.71305   -270998.52705      4057.92505        30.40005
R17  22470769.20805    265474.73105     -1611.45305        35.20005
R07  21134207.79107  -5137511.97907      1027.08807        46.50007
R08  24334457.804 4   -239979.431 4      3580.207 4        26.000 4
C34  24984513.08007    218142.43407     -1302.97907        41.90007
C25  24546359.50705    664698.56405     -1994.77605        34.00005
C23  22190050.74608     -3383.15008      -210.21808        48.20008
C11  24012287.33805    -70528.73505        85.31405        31.20005
E07  25320931.78207     90763.26007     -2625.88407        43.10007  25318807.15305    547826.36605     -1960.01605        35.10005
E15  27057677.75807    -63111.79107      2575.65507        44.10007  27055552.82904    -47313.82804      1923.77804        28.20004
E21  26514902.91305    -43730.04405      1783.29205        33.40005                                                                
E27  23576985.69108    -22501.19908        67.27408        48.20008  23574861.66106    -63172.16406        50.84106        41.40006
E30  24410113.42808     67014.50408     -1844.64708        47.70008  24407995.39505    100475.83305     -1376.94105        32.00005
E19                                                                  26411193.90923         0.00023      1477.75023        22.00023
> 2021 04 21 16 48 25.4446010  0 34                      
G01  24796134.95215    -16691.08715      2590.93715        32.40015  24793776.48523         0.00023      1933.20023        22.40023
G05  24501237.20605     20359.85405     -1781.70505        32.70005                                                                
G07  21553667.26606   2727211.65706     -1484.17906        38.90006                                                                
G08  23392199.67606    405292.88106     -2849.83206        38.00006  23389861.89506    502382.21606     -2128.13306        38.10006
G09  24518306.48905     85428.65605     -3808.92005        34.80005  24515962.711 4   6700508.392 4     -2844.548 4        23.700 4
G13  22285686.10008  -4563821.13908      2612.04108        47.60008                                                                
G14  20472052.35207   -763870.07807       646.27507        47.30007  20469707.67506  -2194482.60106       482.66206        41.30006
G15  24928997.27315    -79063.73715      3230.45115        34.40015                                                                
G17  22564447.81707  -1115319.61907      3221.88507        43.90007                                                                
G19  25137450.16414   -206124.75114      3861.01414        27.30014                                                                
G21  24671612.25707    -93381.74607      1053.64707        44.30007                                                                
G28  20747154.80308  -3093283.44008       703.11608        50.50008                                                                
G30  20539591.39608  -1824804.71108       341.94808        51.00008  20537246.71906  -1356312.01606       255.29606        38.10006
R06  20786032.18805    185800.69105     -2817.70905        33.60005
R18  21307498.08506  -6629899.75206      1824.92806        35.60006
R09  21154120.96607  -4886101.00707      1696.82607        46.20007
R16  20119735.95607   1137282.15007      -780.78307        45.00007
R15  23221525.13207    179536.47707     -2630.65307        44.70007
R05  24280390.89424        -0.00024     -4479.30024        25.60024
R19  22948715.49415   -275056.93315      4059.86215        29.90015
R17  22471047.17715    267085.60115     -1609.81315        34.40015
R07  21134019.28207  -5138539.25507      1028.12107        45.80007
R08  24333854.08224         0.00024      3580.35024        24.60024
C34  24984762.86807    219445.03907     -1300.61307        42.20007
C25  24546741.20415    666692.83615     -1991.87915        33.80015
C23  22190090.67908     -3173.40808      -208.08008        48.40008
C11  24012272.70905    -70614.35805        87.54305        31.20005
E07  25321429.49807     93388.43407     -2624.49707        43.00007  25319306.06806    549786.68906     -1959.23906        36.90006
E15  27057187.95807    -65688.24607      2577.53707        44.20007  27055063.62805    -49237.82905      1925.26805        29.90005
E21  26514562.70905    -45513.86605      1784.37805        33.50005  26512438.98024         0.00024      1335.10024        24.30024
E27  23576974.06008    -22569.16108        68.97208        48.40008  23574848.83107    -63222.94607        52.02307        41.80007
E30  24410469.04308     68858.34808     -1842.33608        47.70008  24408347.41205    101852.72105     -1375.04405        33.20005
J01  43623561.496 4   -140315.205 4       160.785 4        26.700 4                                                                
E19                                                                  26410815.93223         0.00023      1479.10023        23.00023
> 2021 04 21 16 48 26.4446009  0 34                      
G01  24795593.45016    -19282.54916      2589.12616        35.50016                                                                
G05  24501536.02214     22141.70014     -1782.91114        29.10014                                                                
G07  21553925.91017   2728693.79817     -1484.58917        44.40017                                                                
G08  23392726.93517    408140.42017     -2850.08617        42.00017  23390376.56206    504508.95306     -2128.26306        38.20006
G09  24518992.03816     89236.88916     -3810.32716        38.10016  24516661.45123        -0.00023     -2839.20023        23.40023
G13  22285162.58618  -4566434.03518      2610.98018        48.30018                                                                
G14  20471901.78017   -764516.37817       644.00017        47.40017  20469554.40506  -2194965.27006       481.20806        41.10006
G15  24928363.13616    -82295.05416      3229.39716        37.70016                                                                
G17  22563801.38817  -1118541.70817      3219.81617        43.70017                                                                
G19  25136714.39715   -209987.22815      3860.93615        29.70015                                                                
G21  24671372.94716    -94437.08216      1053.18216        41.30016                                                                
G28  20746990.74018  -3093987.43718       701.97018        49.60018                                                                
G30  20539496.28518  -1825148.07818       340.59718        50.60018  20537151.30906  -1356568.02906       254.58206        36.00006
R06  20786541.45915    188619.40115     -2820.67515        34.40015
R18  21307121.76916  -6631725.28216      1823.35616        38.80016
R09  21153765.93517  -4887798.08617      1695.19017        46.20017
R16  20119852.79817   1138060.88817      -780.15017        44.70017
R15  23221987.33517    182165.12717     -2630.41817        45.50017
R05  24281178.97223        -0.00023     -4484.40023        23.00023
R19  22947920.36815   -279117.41715      4058.52315        29.90015
R17  22471328.60625        -0.00025     -1609.10025        35.20025
R07  21133800.65717  -5139567.37417      1025.56817        47.20017
R08  24333173.177 4   -247142.753 4      3580.515 4        28.500 4
C34  24984985.53717    220743.41817     -1301.25517        45.00017
C25  24547096.08217    668683.93117     -1993.23117        41.70017
C23  22190101.99518     -2967.33718      -208.44318        49.70018
C11  24012233.95917    -70702.49317        85.79017        42.00017
E07  25321897.39807     96013.29607     -2626.90707        43.40007  25319774.86706    551746.93106     -1962.01306        37.40006
E15  27056667.44116    -68268.31516      2579.28316        40.90016  27054545.51005    -51163.66005      1924.79405        32.20005
E19  26412548.35624         0.00024      1986.45024        26.20024  26410406.93824         0.00024      1479.55024        23.60024
E21  26514196.58616    -47297.90816      1781.95916        35.70016  26512066.561 5    -35451.629 5      1331.033 5        31.500 5
E27  23576926.61607    -22639.07807        67.76607        47.20007  23574806.18407    -63275.10807        50.89207        43.30007
E30  24410784.64807     70698.21307     -1841.83707        45.70007  24408668.11305    103226.60905     -1375.08605        32.00005
J01  43623487.37124         0.00024       159.55024        24.40024                                                                
> 2021 04 21 16 48 27.4446009  0 32                      
G01  24795113.22115    -21868.39815      2583.44915        34.50015                                                                
G07  21554205.95417   2730182.67017     -1491.15817        43.20017                                                                
G08  23393267.79816    410995.45316     -2857.84816        40.50016  23390917.72506    506641.04606     -2134.06306        36.50006
G09  24519720.87116     93050.79416     -3815.95916        37.70016  24517393.283 3   6706199.623 3     -2849.036 3        23.200 3
G13  22284672.76318  -4569041.38918      2605.30218        47.60018                                                                
G14  20471780.10227   -765157.65727       639.00527        46.40027  20469433.02706  -2195444.14406       477.37606        41.10006
G15  24927740.80516    -85521.28016      3224.14116        40.00016                                                                
G17  22563186.85117  -1121759.86517      3216.29017        42.40017                                                                
G19  25136010.22323         0.00023      3859.10023        22.70023                                                                
G21  24671176.02116    -95484.61516      1045.43016        40.00016                                                                
G28  20746860.36827  -3094685.56627       695.96927        47.00027                                                                
G30  20539433.96628  -1825485.12428       334.66728        49.80028  20537087.79105  -1356819.74905       250.12905        34.50005
J01  43623448.436 4   -140633.866 4       155.874 4        26.500 4  43625815.29725       -95.50625       208.17625        33.20025
R06  20787080.52415    191440.88715     -2823.77815        33.70015
R18  21306779.74416  -6633544.52516      1816.50816        40.30016
R09  21153440.09917  -4889490.21017      1689.97117        43.90017
R16  20120000.93417   1138846.53417      -788.32017        44.90017
R15  23222488.62617    184800.03217     -2637.85217        42.50017
R19  22947163.43015   -283171.86615      4052.48915        29.90015
R17  22471623.93924        -0.00024     -1619.70024        25.50024
R07  21133609.72717  -5140589.78517      1019.95017        46.70017
R08  24332469.60324         0.00024      3578.20024        25.30024
C34  24985236.50117    222050.10117     -1308.80017        44.80017
C25  24547478.05516    670680.83016     -1999.41616        40.60016
C23  22190144.30318     -2754.89418      -214.54318        49.50018
C11  24012215.71016    -70783.82016        78.73316        40.30016
E07  25322397.78907     98642.49607     -2631.50107        42.90007  25320276.15806    553710.08406     -1964.54306        38.40006
E15  27056183.01516    -70841.37516      2570.47316        39.80016  27054055.98705    -53085.40305      1920.12705        30.40005
E19  26412167.358 5     -1101.546 5      1979.179 5        31.100 5  26410026.240 4     -3791.523 4      1478.250 4        24.500 4
E21  26513856.36016    -49077.97616      1778.02016        37.50016  26511726.33405    -36781.04805      1327.87705        30.60005
E27  23576917.96017    -22703.49817        62.13517        45.40017  23574793.63107    -63323.35807        46.50307        42.80007
E30  24411137.24217     72544.81617     -1849.56217        44.30017  24409021.30705    104605.50105     -1380.73205        30.80005
> 2021 04 21 16 48 28.4446009  0 33                      
G07  21554490.17127   2731674.00427     -1490.08427        45.10027                                                                
G08  23393814.33327    413852.71327     -2855.47127        42.30027  23391462.76106    508774.63206     -2132.37106        38.70006
G09  24520455.07626     96866.29426     -3814.72126        35.80026  24518121.49123        -0.00023     -2846.50023        22.50023
G13  22284170.32428  -4571645.95628      2605.32328        49.80028                                                                
G14  20471654.50228   -765796.67828       639.47628        47.80028  20469311.32406  -2195921.30606       477.59706        40.90006
G15  24927126.24326    -88744.94026      3224.65726        39.90026                                                                
G17  22562574.38817  -1124974.50517      3214.90417        42.40017                                                                
G19  25135259.55525   -217702.20725      3859.75625        31.60025                                                                
G21  24670980.86926    -96531.20026      1048.10626        41.40026                                                                
G28  20746727.57328  -3095381.35228       696.13328        49.50028                                                                
G30  20539369.52428  -1825820.09028       335.95228        49.60028  20537022.14905  -1357069.83505       250.77905        33.70005
J01  43623409.77524         0.00024       154.55024        25.70024  43625763.74625      -304.35825       209.61325        33.70025
R06  20787596.18005    194267.28705     -2825.83605        33.80005
R18  21306428.70016  -6635360.70516      1817.79116        38.60016
R09  21153136.12207  -4891180.16707      1690.51107        45.50007
R16  20120149.94407   1139634.62307      -786.25607        44.80007
R15  23222977.90107    187437.44907     -2635.03407        44.00007
R05  24282892.93723        -0.00023     -4484.70023        22.60023
R19  22946414.86105   -287224.92305      4053.85305        33.30005
R17  22471936.03626        -0.00026     -1616.60026        36.40026
R07  21133419.37208  -5141609.36708      1019.84208        47.80008
R08  24331805.875 5   -254295.481 5      3573.644 5        29.900 5
C34  24985488.04007    223358.32307     -1306.51407        44.30007
C25  24547865.10027    672679.54127     -1996.98127        43.10027
C23  22190184.48928     -2540.00128      -213.64728        50.40028
C11  24012198.93426    -70863.54126        81.16326        40.20026
E07  25322896.35707    101273.55107     -2631.17707        43.20007  25320776.22506    555674.98906     -1965.44906        37.90006
E15  27055688.37006    -73413.17106      2572.57206        39.40006  27053569.13705    -55005.73605      1921.57705        29.60005
E19  26411792.63014     -3082.42214      1982.38014        29.00014  26409657.20804     -5270.30904      1479.34704        23.90004
E21  26513515.20916    -50855.98916      1778.24716        36.90016  26511388.48105    -38108.78105      1327.64305        32.60005
E27  23576909.57908    -22766.22608        63.19108        47.80008  23574781.95207    -63370.10407        47.37107        42.60007
E30  24411489.81107     74392.81907     -1846.76407        45.40007  24409372.97604    105985.60704     -1378.51704        28.40004
G01                                                                  24792275.09923         0.00023      1932.90023        21.70023
> 2021 04 21 16 48 29.4446009  0 32                      
G05  24502582.95024       783.83724     -1764.98124        28.80024                                                                
G07  21554773.17717   2733157.62117     -1470.19717        45.30017                                                                
G08  23394343.76926    416702.10226     -2836.35526        39.50026  23392004.18806    510902.14506     -2117.88106        35.90006
G09  24521167.38515    100673.42015     -3792.48315        34.10015  24518842.494 4   6711891.751 4     -2831.741 4        25.500 4
G13  22283676.26818  -4574258.79418      2626.18718        49.40018                                                                
G14  20471530.69017   -766443.77917       660.02517        46.40017  20469186.91206  -2196404.54906       493.46206        38.30006
G15  24926496.08216    -91977.38816      3246.15516        37.70016                                                                
G17  22561952.62117  -1128197.03917      3236.99017        41.60017                                                                
G19  25134546.95124         0.00024      3880.20024        25.00024                                                                
G21  24670793.80116    -97585.41516      1068.04516        37.20016                                                                
G28  20746588.77118  -3096085.42018       717.59118        48.10018                                                                
G30  20539298.47527  -1826163.41027       355.80827        46.90027  20536957.39605  -1357326.19805       265.79705        34.10005
J01                                                                  43625716.98025         0.00025       234.15025        29.50025
R06  20788128.31415    197086.09615     -2806.44715        31.50015
R18  21306096.53216  -6637185.25116      1837.56916        40.30016
R09  21152813.24817  -4892878.70417      1712.36717        41.80017
R16  20120297.14407   1140413.64507      -766.64507        44.30007
R15  23223474.35917    190065.74817     -2615.29717        45.90017
R05  24283739.55324    324478.27524     -4459.80024        26.90024
R19  22945656.68815   -291283.98115      4073.24315        33.40015
R17  22472222.04025    273554.53325     -1597.79225        29.60025
R07  21133225.70817  -5142636.81917      1040.80317        46.50017
C34  24985733.87217    224658.36417     -1287.98317        42.00017
C25  24548244.93927    674669.78627     -1977.40327        42.40027
C23  22190220.76618     -2333.53118      -193.48418        48.90018
C11  24012189.04316    -70950.72316        99.71516        40.20016
E07  25323392.51616    103896.54116     -2610.49016        41.30016  25321276.58106    557633.58606     -1945.48806        36.20006
E15  27055197.91215    -75992.41915      2591.06315        31.10015  27053076.28104    -56932.39704      1938.78104        28.90004
E19  26411409.19814     -5070.64114      2000.47414        29.30014                                                                
E21  26513178.54415    -52643.66115      1800.26215        35.20015  26511049.71805    -39442.86405      1346.66005        30.40005
E27  23576890.39417    -22837.25217        82.97917        47.20017  23574767.56406    -63423.18406        65.40706        41.10006
E30  24411839.07117     76232.36517     -1828.22717        44.50017  24409720.13814    107359.25914     -1363.44514        26.90014
> 2021 04 21 16 48 30.4446009  0 32                      
G05  24502913.37724        -0.00024     -1777.35024        28.90024                                                                
G07  21555053.53807   2734624.57107     -1479.97707        46.60007                                                                
G08  23394883.45006    419535.44206     -2846.65106        40.20006  23392543.87006    513017.94806     -2125.63906        36.90006
G09  24521886.94205    104463.25705     -3803.05505        33.70005  24519567.44824        -0.00024     -2841.85024        25.60024
G13  22283178.06808  -4576888.09808      2616.15608        49.60008                                                                
G14  20471406.33107   -767107.64007       651.41207        47.10007  20469061.65506  -2196900.32406       486.45206        40.00006
G15  24925885.16006    -95225.72906      3234.95306        37.30006                                                                
G17  22561340.20007  -1131436.74707      3227.05407        41.80007                                                                
G19  25133822.10824         0.00024      3868.60024        26.30024                                                                
G21  24670584.60106    -98655.53706      1057.18906        40.00006                                                                
G28  20746455.71908  -3096806.30108       708.40708        48.90008                                                                
G30  20539230.17808  -1826522.53008       347.21208        47.90008  20536889.39905  -1357594.73305       259.21005        34.90005
J01                                                                  43625683.459 5      -749.651 5       222.324 5        32.400 5
R06  20788666.19715    199886.34615     -2813.26015        32.50015
R18  21305753.02506  -6639025.74406      1827.02606        40.40006
R09  21152495.52307  -4894594.41707      1702.60407        42.30007
R16  20120440.80007   1141176.18207      -775.08707        44.90007
R15  23223962.17707    192677.66707     -2625.17907        46.40007
R05  24284518.76924        -0.00024     -4476.00024        25.40024
R19  22944898.56815   -295362.06015      4065.36515        34.10015
R17  22472525.48624        -0.00024     -1609.90024        29.30024
R07  21133031.79807  -5143680.80707      1031.03307        46.90007
C34  24985980.35727    225943.24527     -1298.18227        41.90027
C25  24548623.33327    676644.10327     -1987.42427        43.20027
C23  22190260.99328     -2143.29828      -203.17328        49.80028
C11  24012169.61226    -71053.88026        89.90226        40.80026
E07  25323887.52907    106502.10707     -2617.17407        42.00007  25321773.09206    559579.43706     -1955.77206        37.80006
E15  27054703.01005    -78589.06505      2585.29905        31.50005  27052584.07705    -58871.52205      1930.41705        30.20005
E19  26411031.21524         0.00024      1993.80024        28.70024  26408890.99623         0.00023      1494.00023        22.60023
E21  26512838.93506    -54447.61406      1792.49406        36.60006  26510707.71005    -40789.99805      1338.73105        32.30005
E27  23576876.06008    -22925.10908        76.34508        47.90008  23574751.73007    -63488.69507        56.09807        42.40007
E30  24412186.58607     78055.65207     -1834.67407        45.00007  24410068.55224        -0.00024     -1375.00024        28.00024
