     3.03           OBSERVATION DATA    M                   RINEX VERSION / TYPE
GNSSToRINEXV3       Google              20210408 212815 UTC PGM / RUN BY / DATE
Google GnssLogger                                           MARKER NAME
Unknown                                                     MARKER NUMBER
Unknown             Unknown                                 OBSERVER / AGENCY
Unknown             GNSSToRINEXV3       v1.0.0.0            REC # / TYPE / VERS
Unknown             Unknown                                 ANT # / TYPE
        0.0000        0.0000        0.0000                  APPROX POSITION XYZ
        0.0000        0.0000        0.0000                  ANTENNA: DELTA H/E/N
G    8 C1C L1C D1C S1C C5X L5X D5X S5X                      SYS / # / OBS TYPES
R    4 C1C L1C D1C S1C                                      SYS / # / OBS TYPES
C    4 C2I L2I D2I S2I                                      SYS / # / OBS TYPES
E    8 C1C L1C D1C S1C C5X L5X D5X S5X                      SYS / # / OBS TYPES
  2021    04    08    21    28   15.0000000     GPS         TIME OF FIRST OBS
 5 R12 -1 R13 -2 R14 -7 R23  3 R24  2                       GLONASS SLOT / FRQ #
                                                            END OF HEADER
> 2021 04 08 21 28 15.0000697  0 32                      
G03                        -2.01922       -70.24422        16.96222                                                                
G06  21010592.56906  -1165300.40406       744.74706        38.92506  21010587.17305   -872057.24605       556.32205        31.24105
G12  22732968.89305  -4859439.08105      1931.52505        34.80905                                                                
G13  24982829.74706   3205635.84806     -3862.75806        38.53806                                                                
G14  23749371.75224   3384031.23324     -3243.66324        24.98324                                                                
G15  25125772.29007   5434265.16407     -3311.98507        42.39107                                                                
G17  22433711.26505   3364111.07305     -3197.02905        34.02005                                                                
G19  20554696.08006   2168530.84206     -2244.26706        40.93406                                                                
G24  20957850.98207   -197056.25007      -142.81507        46.69907  20957850.98205   -150724.88505      -106.47105        31.37905
R14  21635607.38106  -3341163.03006      2719.20506        41.20906
R13  19296904.83105     73854.06805      -387.43005        29.91205
R12  21502169.45805   4184501.84505     -3574.50705        34.46705
R24  20390055.15907  -2674818.49207      2170.10507        44.13707
R23  19022252.36907    468449.47907      -886.30007        46.95807
C04                    727513.30324      -665.37224        25.91424
C06  41054444.99905     63455.60205      -130.76305        34.86305
C11  24759700.51625   2860910.85925     -3472.51925        32.19625
C16  41462157.34605       -37.85005        -7.92805        33.45805
C23  22195097.45407   1831797.16707     -1935.13907        42.62207
C25  25734897.50106   3875424.27006     -3720.30006        38.66306
C27  25284283.35507  -2626191.85507      2377.10807        42.09307
C28  21875662.59405   -742536.66905       456.52405        34.84305
C34  26899771.67624   2841539.12024     -3788.13224        25.89724
C37  22674342.08007  -1266900.52607      1020.68607        43.66907
E13  24242079.45805  -1792831.79405      1502.23705        34.28605  24242077.05905  -1337078.00005      1122.25405        32.58805
E15  23689002.54506   1116472.30906     -1297.89306        40.85206                    834767.03524      -969.66024        23.61124
E18  19238267.82405   2944877.83305     -3412.66505        33.65105                   2201172.59523     -2546.59723        19.60623
E19                      2593.92922     -2430.24222        16.01122                                                                
E21  25140260.36006  -3705042.45606      1177.84306        36.55006                  -2787895.89523       878.95323        18.48723
E26                       -29.71123      2466.33923        20.61923                                                                
E27  23501344.45805    803667.64905      -867.84205        34.07705  23501350.15404    599620.48604      -648.02704        29.33504
E30  25709835.75104   2247875.04704     -2703.25704        28.77604                   1708175.26322     -2016.60522        12.96622
> 2021 04 08 21 28 16.0000693  0 33                      
G02  22286208.27907  -2484095.93007      2109.18307        41.87207                                                                
G03                        -2.01722       -70.24422        16.30022                                                                
G06  21010329.95107  -1166045.06207       744.28907        41.54007  21010325.15505   -872613.28205       555.27405        29.76905
G12  22732480.53105  -4861370.86005      1930.84405        33.05005                                                                
G13  24983442.52306   3209498.47306     -3862.89806        38.09706                                                                
G14  23749873.60524   3387267.29324     -3240.51724        27.46524                                                                
G15  25126283.13607   5437577.01407     -3312.05107        42.62707                                                                
G17  22434204.72305   3367308.10305     -3197.31905        33.15905                                                                
G19  20555004.86607   2170775.02907     -2244.59907        42.10207                                                                
G24  20957758.94507   -196913.13807      -143.47507        46.63507  20957758.34605   -150617.90505      -107.59905        31.41705
R14  21634948.43706  -3343882.22006      2719.20606        39.99106
R13  19296856.26405     74242.07005      -388.63905        29.68605
R12  21502709.38405   4188076.67605     -3575.54405        34.46105
R24  20389537.71707  -2676988.18207      2169.21307        45.08107
R23  19022292.84108    469336.04308      -887.25408        47.74708
C04                    728186.22424      -665.37224        23.59924
C06  41054352.36305     63586.63105      -131.39805        35.42705
C11  24760251.83405   2864382.99805     -3472.61205        32.96905
C16  41462041.92605       -29.86405        -8.73805        32.29305
C23  22195345.68207   1833732.73307     -1936.07507        42.55307
C25  25735491.09006   3879144.92006     -3721.12006        38.39706
C27  25283707.75307  -2628569.12307      2377.12007        43.37507
C28  21875453.33905   -742992.49405       455.46805        34.56705
C34  26900383.55224   2845325.31124     -3787.65524        25.78924
C37  22674021.90107  -1267921.10507      1020.15407        43.40707
E13  24241672.93905  -1794333.80905      1501.63105        35.43305  24241671.44005  -1338199.54505      1121.14805        32.22205
E15  23689129.65706   1117770.31806     -1298.46206        41.24406                    835736.14723      -959.72823        21.79423
E18  19238797.55805   2948291.68605     -3414.85205        34.80205                   2203719.01823     -2547.01623        20.36323
E19                      2593.98622     -2430.24222        17.45422                                                                
E21  25139910.80206  -3706220.47206      1177.68706        39.14106                  -2788775.83523       879.25823        19.11023
E26                       -29.76923      2466.33923        18.91323                                                                
E27  23501390.02605    804535.37405      -867.64605        34.50505  23501396.32224    600268.45324      -648.07424        29.49124
E30  25710229.37904   2250578.50504     -2703.50504        28.50704                   1710194.39623     -2017.36723        18.13723
> 2021 04 08 21 28 17.0000689  0 33                      
G02  22285687.83907  -2486205.39407      2109.31907        43.33907                                                                
G03                        -2.00623       -71.21923        20.47923                                                                
G06  21010066.73306  -1166789.11106       743.63106        40.92606  21010063.73624   -873169.00824       555.23124        28.02124
G12  22731992.76905  -4863302.57705      1931.95505        34.37405                                                                
G13  24984056.19806   3213360.98506     -3862.54006        37.33006                                                                
G14  23750367.96224   3390510.21724     -3242.70424        28.50624                                                                
G15  25126793.08307   5440888.79707     -3311.71407        41.99007                                                                
G17  22434693.68505   3370505.34805     -3197.37405        32.00605                                                                
G19  20555312.75307   2173019.55407     -2244.58807        42.85107                                                                
G24  20957665.71007   -196769.40007      -143.92007        46.75807  20957665.71005   -150510.68105      -107.11105        32.16505
R14  21634334.16206  -3346601.32306      2719.11406        40.47506
R13  19296816.09214     74630.72214      -389.17614        28.65814
R12  21503243.01505   4191651.78805     -3575.62005        34.74205
R24  20389012.78007  -2679157.34107      2168.92007        45.36807
R23  19022341.70708    470223.39408      -887.64208        47.91008
C04                    728846.48324      -665.37224        23.76024
C06  41054257.32905     63717.83505      -131.15205        34.84905
C11  24760795.35825   2867855.24925     -3472.49725        31.50925
C16  41461921.40905       -21.50805        -8.20805        33.14505
C23  22195599.30607   1835668.69707     -1936.24007        42.57607
C25  25736083.48006   3882865.79406     -3720.84306        38.55706
C27  25283132.15207  -2630946.27907      2377.08807        42.52007
C28  21875247.08205   -743448.03205       455.23205        35.33205
C34                   2849111.33224     -3787.24824        25.42024
C37  22673709.51807  -1268941.39807      1020.14207        43.68907
E13  24241268.81905  -1795835.44905      1501.71905        34.37505  24241265.52105  -1339320.96305      1121.39705        32.15405
E15  23689254.07106   1119068.76106     -1298.82306        41.27606                    836710.88123      -969.93123        21.04223
E18  19239321.29505   2951706.57205     -3415.22205        34.65205                   2206269.32023     -2548.14023        23.05123
E19                      2593.89122     -2430.24222        17.49022                                                                
E21  25139571.43706  -3707398.47306      1178.20306        39.34406                  -2789653.60022       879.86722        14.44422
E26                       -29.67323      2466.33923        20.92223                                                                
E27  23501434.99505    805403.26805      -867.73005        34.22605  23501441.59125    600916.60725      -648.48425        30.52525
E30  25710627.20304   2253282.17204     -2702.67204        28.93804                   1712211.47423     -2017.08123        18.20723
> 2021 04 08 21 28 18.0000684  0 33                      
G02  22285136.22107  -2488314.43507      2108.78107        43.21107                                                                
G03                        -2.00423       -71.21923        21.09923                                                                
G06  21009777.43406  -1167532.53606       743.01306        40.88506  21009772.63724   -873724.18624       554.99024        27.58224
G12  22731479.22405  -4865234.10305      1931.27805        34.64205                                                                
G13  24984640.79306   3217223.28506     -3862.12306        37.04006                                                                
G14  23750842.53425   3393753.14125     -3242.43425        30.01725                                                                
G15  25127272.45107   5444200.62107     -3311.75607        42.20607                                                                
G17  22435152.96705   3373702.56805     -3197.55805        33.31505                                                                
G19  20555590.06107   2175264.50507     -2245.12507        43.63707                                                                
G24  20957541.29607   -196625.05307      -144.70107        46.53907  20957543.69405   -150402.82405      -108.04305        33.12505
R14  21633672.52006  -3349320.21006      2718.66606        39.77806
R13  19296730.35214     75019.81514      -386.45814        27.47814
R12  21503752.06206   4195227.67206     -3575.97906        36.64206
R24  20388450.96907  -2681325.82307      2168.11307        44.43607
R23  19022355.79708    471111.57808      -888.59708        47.93008
C04                    729514.20024      -665.37224        23.76724
C06  41054132.01605     63849.10605      -131.34505        34.33005
C11  24761314.59924   2871327.69624     -3471.99024        28.75424
C16  41461776.90905       -13.35305        -8.02705        34.01605
C23  22195822.35207   1837605.06807     -1936.50907        42.04107
C25  25736653.98506   3886586.78406     -3720.87506        40.22006
C27  25282527.17107  -2633323.16907      2376.95207        42.62907
C28  21875014.74206   -743903.12006       454.73606        36.46106
C34  26901581.82224   2852897.48624     -3785.75424        26.23824
C37  22673361.75807  -1269961.34407      1019.76107        43.85307
E13  24240834.42005  -1797336.88105      1501.47405        34.77205  24240829.62325  -1340442.11025      1121.07925        31.81425
E15  23689351.80307   1120367.67707     -1299.42107        41.57607                    837671.86623      -969.99723        19.91623
E18  19239815.35305   2955122.68505     -3416.60105        34.21005  19239824.04724   2208820.30724     -2551.15224        25.82724
E19                      2593.94823     -2430.24223        17.83423                                                                
E21  25139194.89806  -3708576.30706      1177.83106        40.24306                  -2790534.48522       879.62022        17.05922
E26                       -29.73023      2466.33923        19.49223                                                                
E27  23501458.07906    806271.40306      -868.27206        35.58006  23501456.28005    601564.87505      -648.44605        30.79305
E30  25710989.35214   2255986.09814     -2703.87014        28.69214                   1714229.75722     -2017.08122        14.32522
> 2021 04 08 21 28 19.0000680  0 33                      
G02  22284614.88206  -2490423.19206      2108.40306        40.32406                                                                
G03                        -1.99424       -72.19524        24.33224                                                                
G06  21009516.61407  -1168275.37907       742.73507        42.85307  21009510.91824   -874278.94524       555.34524        28.16924
G12  22730992.36105  -4867165.63605      1930.95805        34.53805                                                                
G13  24985258.66506   3221085.52206     -3862.31106        37.31206                                                                
G14  23751344.68614   3396996.28814     -3243.00214        28.37514                                                                
G15  25127784.79707   5447512.41507     -3311.73607        43.15007                                                                
G17  22435643.72705   3376899.95205     -3197.64805        33.25105                                                                
G19  20555898.24807   2177509.79407     -2245.43807        42.08607                                                                
G24  20957450.75907   -196480.09407      -145.41907        47.05007  20957451.35805   -150294.61205      -108.43305        32.27605
R14  21633011.47806  -3352038.89906      2718.81806        37.50806
R13  19296667.69504     75409.71504      -390.11104        28.20504
R12  21504290.78905   4198803.82105     -3576.26605        34.40905
R24  20387931.72907  -2683493.69707      2167.66507        44.84607
R23  19022407.66108    472000.56308      -889.35008        47.83608
C04                    730178.63524      -665.37224        25.25624
C06  41054040.57905     63980.53505      -131.71905        35.10405
C11  24761857.82325   2874800.09725     -3471.74425        29.88725
C16  41461650.39725        -4.88125        -6.48925        30.69525
C23  22196074.17807   1839541.88307     -1936.95207        42.68707
C25  25737246.67506   3890307.93706     -3721.43906        38.96806
C27  25281949.77007  -2635699.96607      2376.84607        44.23807
C28  21874809.08506   -744357.76906       454.35306        36.62706
C34                   2856683.62724     -3789.62924        25.80024
C37  22673044.87807  -1270981.00107      1019.55707        42.80707
E13  24240430.89906  -1798837.94706      1500.99306        36.31706  24240424.00425  -1341562.94725      1120.25625        31.72225
E15  23689476.81606   1121666.97906     -1299.45806        40.96006                    838639.51322      -968.83522        17.38422
E18  19240348.98405   2958539.97905     -3417.89205        34.23505  19240354.38024   2211372.19124     -2551.78324        26.44124
E19                      2594.01123     -2431.21723        18.50723                                                                
E21  25138846.23906  -3709754.10306      1177.95506        40.03106                  -2791415.29621       881.31621        12.00821
E26                       -29.78823      2466.33923        21.76223                                                                
E27  23501502.74806    807139.80606      -868.48306        36.71206  23501502.74805    602213.32605      -648.54405        30.76705
E30  25711386.27804   2258690.03504     -2703.82404        29.17104                   1716249.42023     -2018.68223        19.95523
> 2021 04 08 21 28 20.0000676  0 33                      
G02  22284091.44506  -2492531.75106      2108.66606        41.03606                                                                
G03                        -1.99223       -72.19523        19.50523                                                                
G06  21009253.99607  -1169017.71007       742.23807        43.47707  21009250.69824   -874833.21724       554.51224        29.31124
G12  22730498.90305  -4869097.31205      1931.99005        34.06605                                                                
G13  24985872.64006   3224947.44706     -3861.70006        36.75106                                                                
G14  23751827.05224   3400240.21424     -3241.76524        27.84424                                                                
G15  25128294.44407   5450824.03907     -3311.49607        43.30907                                                                
G17  22436134.48705   3380097.38405     -3197.80705        33.43505                                                                
G19  20556205.83507   2179755.35207     -2245.70307        41.63307                                                                
G24  20957360.22107   -196334.62307      -145.49307        47.00007  20957358.42325   -150186.10825      -107.91525        32.20525
R14  21632381.91406  -3354757.53006      2718.11706        36.97106
R13  19296639.81414     75799.92514      -387.36314        28.25814
R12  21504829.51605   4202380.28505     -3576.33405        31.38005
R24  20387406.19207  -2685661.16007      2167.32207        45.31307
R23  19022449.63208    472890.22908      -889.89008        47.86208
C04                    730851.33524      -665.37224        26.61324
C06  41053946.14406     64111.94206      -131.15006        35.70706
C11  24762405.24425   2878272.73725     -3472.42525        32.02425
C16  41461530.78024         3.56624        -8.91224        28.73524
C23  22196329.60107   1841478.92007     -1936.83607        43.17207
C25  25737843.26206   3894029.01406     -3720.89406        39.50706
C27  25281373.56907  -2638076.74107      2376.98807        44.69107
C28  21874604.92606   -744812.25906       454.50506        37.24906
C34  26902803.77624   2860469.44024     -3791.00324        25.83824
C37  22672730.39507  -1272000.42807      1019.55107        42.66207
E13  24240024.68006  -1800338.78906      1500.95706        36.43406  24240019.28405  -1342683.77105      1120.51805        31.99405
E15  23689604.52806   1122966.66406     -1299.76506        40.86906                    839610.46523      -969.86423        20.04923
E18  19240878.41705   2961958.19205     -3418.78405        34.55105  19240885.31224   2213924.73924     -2552.79524        26.29724
E19                      2593.91622     -2431.21722        12.91322                                                                
E21  25138508.97206  -3710931.95806      1177.64206        39.92206                  -2792294.77623       880.36323        18.93723
E26                       -29.69223      2466.33923        22.84623                                                                
E27  23501547.11706    808008.18606      -868.36306        37.54606  23501548.91604    602861.87804      -648.31804        29.32104
E30  25711783.20304   2261394.09204     -2703.75204        28.09604                   1718265.50123     -2016.18623        21.75723
> 2021 04 08 21 28 21.0000671  0 33                      
G02  22283539.22706  -2494639.90706      2107.97706        41.05506                                                                
G03                        -1.97624       -73.17124        23.89624                                                                
G06  21008960.79906  -1169759.58106       741.60706        41.05506  21008958.40124   -875387.28524       554.51624        29.40024
G12  22729983.56006  -4871028.85006      1931.19906        36.90206                                                                
G13  24986456.33606   3228809.19106     -3861.64406        36.69606                                                                
G14  23752308.81924   3403487.42924     -3244.74124        27.04624                                                                
G15  25128772.91307   5454135.54607     -3311.59407        43.32707                                                                
G17  22436591.97105   3383294.67205     -3197.55305        34.70905                                                                
G19  20556482.84307   2182001.21607     -2246.38007        41.86507                                                                
G24  20957238.50607   -196188.61207      -146.21107        46.97107  20957236.10705   -150076.88805      -110.27705        32.78405
R14  21631725.66806  -3357476.27806      2718.42406        37.34506
R13  19296557.37104     76190.87104      -391.76804        28.55904
R12  21505311.88224   4205959.18024     -3575.67124        27.70724
R24  20386852.17607  -2687828.02007      2166.34507        44.37507
R23  19022465.52108    473780.66808      -891.41508        47.80508
C04                    731512.55124      -665.37224        24.83924
C06  41053822.03006     64243.58606      -132.41206        35.67906
C11  24762917.28905   2881745.32005     -3472.93505        30.71505
C16  41461384.48125        12.23125        -9.36925        29.60825
C23  22196549.04907   1843416.48407     -1938.19507        43.53007
C25  25738406.57206   3897750.31506     -3722.13506        40.18606
C27  25280766.49007  -2640453.45007      2376.46707        44.54207
C28  21874370.78806   -745266.05106       452.54506        36.72706
C34  26903392.26924   2864255.03224     -3784.79124        26.91724
C37  22672386.23407  -1273019.61807      1019.00207        42.05307
E13  24239589.08206  -1801839.32506      1500.17206        36.43306  24239583.68505  -1343804.27105      1119.86005        31.94805
E15  23689702.86006   1124266.69606     -1300.77206        41.04906                    840581.35524      -969.85724        23.50424
E18  19241378.17105   2965377.69905     -3421.11905        34.67705  19241384.16704   2216477.88004     -2553.65204        28.19004
E19                      2593.97323     -2431.21723        17.90023                                                                
E21  25138130.63406  -3712109.90206      1177.70406        37.91506                  -2793175.28422       879.94422        16.95922
E26                       -29.75024      2466.33924        24.43624                                                                
E27  23501566.30406    808876.82106      -869.42106        38.58306  23501563.00605    603510.41005      -648.52105        29.83905
E30  25712133.66024   2264098.11724     -2705.44024        27.64124                   1720286.29923     -2018.12923        19.10723
> 2021 04 08 21 28 22.0000667  0 33                      
G02  22283019.68607  -2496747.73307      2107.72207        42.46207                                                                
G03                        -1.96623       -74.14623        20.14123                                                                
G06  21008699.38006  -1170500.62606       740.87406        40.88906  21008698.48104   -875940.73304       553.71504        29.20004
G12  22729499.39505  -4872960.21305      1931.36205        35.39505                                                                
G13  24987070.91106   3232670.91606     -3861.56306        38.02506                                                                
G14  23752804.97525   3406735.40425     -3242.97125        31.50625                                                                
G15  25129281.66007   5457447.20007     -3311.49907        42.17007                                                                
G17  22437075.23605   3386492.28205     -3197.79805        33.31705                                                                
G19  20556788.03206   2184247.55206     -2246.37606        40.45206                                                                
G24  20957148.26807   -196041.83807      -146.92507        46.61007  20957143.47125   -149967.35425      -109.58325        32.73125
R14  21631094.60506  -3360194.60006      2718.32006        36.46806
R13  19296508.50514     76582.57114      -394.64314        27.20014
R12  21505940.84725   4209543.10225     -3577.88525        30.79425
R24  20386329.93707  -2689994.25607      2166.09107        44.65507
R23  19022517.08508    474671.95808      -891.54508        48.37608
C04                    732183.24124      -665.37224        23.55224
C06  41053726.69606     64375.27206      -131.74506        35.63606
C11  24763468.00805   2885218.12805     -3472.64405        31.38305
C16  41461272.65825        20.95925        -9.03325        30.20725
C23  22196802.97307   1845354.39407     -1938.03007        43.87207
C25  25738999.86106   3901471.65506     -3721.27006        39.62706
C27  25280191.78707  -2642829.83907      2376.61807        42.96007
C28  21874164.23106   -745719.65406       453.40706        38.23306
C34  26903996.35124   2868041.04624     -3781.14824        26.32724
C37  22672071.15207  -1274038.35807      1018.96107        42.44307
E13  24239184.36206  -1803339.42106      1499.95106        35.73306  24239178.06605  -1344924.53805      1120.01105        33.30905
E15  23689830.87107   1125567.21607     -1300.60107        41.92107  23689830.87123    841552.63523      -970.52123        23.27323
E18  19241908.20406   2968798.11806     -3421.18006        35.67406  19241913.90024   2219032.40624     -2552.48124        27.65424
E19                      2593.87823     -2431.21723        18.86123                                                                
E21  25137784.07406  -3713287.63106      1177.81006        36.66506                  -2794054.68323       880.07623        21.76723
E26                       -29.65323      2466.33923        21.99623                                                                
E27  23501607.37606    809745.69406      -868.83106        38.26106  23501607.97524    604159.32124      -648.91824        29.35824
E30  25712537.18105   2266802.31405     -2704.14505        30.47605                   1722302.31223     -2018.49123        20.27623
> 2021 04 08 21 28 23.0000663  0 33                      
G02  22282498.94707  -2498855.31607      2107.42707        42.28807                                                                
G03                        -1.96423       -74.14623        17.89223                                                                
G06  21008437.36107  -1171241.24107       740.26107        42.31507  21008437.96104   -876493.65104       552.80704        29.47304
G12  22729010.43405  -4874891.59605      1931.23505        34.24405                                                                
G13  24987686.98406   3236532.27006     -3860.84306        37.63206                                                                
G14  23753304.13025   3409978.85225     -3243.84425        30.63025                                                                
G15  25129791.00807   5460758.68207     -3311.29307        42.73007                                                                
G17  22437561.49925   3389691.24525     -3199.61925        29.59925                                                                
G19  20557094.12006   2186494.14306     -2246.82106        40.76406                                                                
G24  20957054.43307   -195894.63007      -147.50307        46.94007  20957051.13505   -149857.42105      -110.14205        31.70305
R14  21630470.73706  -3362913.19306      2718.45006        36.35906
R13  19296465.03524     76970.85124      -391.39324        27.14024
R12  21506461.28725   4213121.62425     -3581.20525        30.59125
R24  20385798.70507  -2692159.99007      2165.58107        44.83107
R23  19022562.95408    475563.93608      -892.45108        48.18408
C04                    732846.17324      -665.37224        24.09224
C06  41053632.56206     64507.09406      -131.74706        36.10206
C11  24764014.23005   2888690.94705     -3472.86705        30.44705
C16  41461145.54625        29.78625        -8.95825        30.00325
C23  22197057.19707   1847292.59207     -1938.42007        42.61307
C25  25739595.54906   3905193.15406     -3721.71206        39.42806
C27  25279614.68707  -2645206.20907      2376.38307        44.29807
C28  21873956.77506   -746172.79406       452.97906        35.67006
C34  26904604.03024   2871826.75024     -3785.22324        26.67524
C37  22671753.07207  -1275056.91307      1018.48207        42.57607
E13  24238777.84306  -1804839.36106      1499.71106        35.71806  24238772.74705  -1346044.61805      1120.16405        33.37205
E15  23689957.38406   1126868.07406     -1301.05106        41.31506                    842523.87523      -972.30623        21.63023
E18  19242445.73206   2972219.76006     -3422.10506        35.72106  19242446.63124   2221587.60624     -2562.75624        24.12924
E19                      2593.94223     -2432.19323        17.63123                                                                
E21  25137437.21406  -3714465.46306      1178.01206        36.83206                  -2794935.10523       880.59123        17.70223
E26                       -29.71123      2466.33923        22.49923                                                                
E27  23501651.14506    810614.68806      -869.01006        37.40206  23501653.24404    604808.14504      -648.54804        29.28904
E30  25712930.20905   2269506.66805     -2703.92605        31.03805                   1724321.98723     -2018.49123        20.05723
> 2021 04 08 21 28 24.0000659  0 33                      
G02  22281977.90807  -2500962.50907      2106.94707        42.66707                                                                
G03                        -1.94923       -75.12223        21.11423                                                                
G06  21008177.74106  -1171981.28806       739.60306        41.29806  21008176.24205   -877046.27905       552.81605        29.84505
G12  22728526.56806  -4876823.02606      1931.09306        36.63006                                                                
G13  24988299.46006   3240393.62906     -3861.50906        36.77506                                                                
G14  23753797.58824   3413222.94524     -3241.17124        28.19824                                                                
G15  25130300.95507   5464070.11007     -3311.34507        41.89307                                                                
G17  22438041.16725   3392888.76325     -3197.05125        29.64225                                                                
G19  20557402.00707   2188741.10907     -2247.43007        41.51407                                                                
G24  20956962.69707   -195746.82907      -148.17207        47.26107  20956959.69905   -149747.01305      -110.75205        32.03805
R14  21629850.16606  -3365631.49406      2718.59006        35.94206
R13  19296417.96804     77363.55004      -393.72504        28.00604
R12  21507035.68905   4216699.57505     -3577.81905        31.49405
R24  20385271.97007  -2694325.13407      2164.80707        44.63207
R23  19022605.22408    476456.69908      -893.25008        47.81608
C04                    733515.87324      -665.37224        26.13524
C06  41053538.12706     64638.98706      -132.23006        36.23106
C11  24764562.25005   2892163.84205     -3473.21905        29.71705
C16  41461030.42625        38.79025        -9.54225        31.09625
C23  22197308.72307   1849231.19707     -1939.07807        43.91807
C25  25740193.93506   3908914.71306     -3721.80506        40.15206
C27  25279039.38507  -2647582.48207      2376.13607        45.44707
C28  21873752.01706   -746625.59006       452.32606        36.50406
C34  26905200.91724   2875612.26624     -3791.41724        26.68624
C37  22671438.29007  -1276075.17107      1018.03007        43.02207
E13  24238373.42306  -1806338.98206      1499.56006        36.08206  24238367.72705  -1347164.44305      1119.56105        32.96105
E15  23690088.09307   1128169.37807     -1301.40707        41.74707                    843490.46223      -970.91523        22.64823
E18  19242975.46505   2975642.49805     -3423.56205        35.32205  19242976.36504   2224143.32404     -2556.48604        27.08904
E19                      2593.99923     -2432.19323        18.45023                                                                
E21  25137096.05106  -3715643.20206      1177.78906        37.18706                  -2795814.34122       879.25822        15.07622
E26                       -29.76923      2466.33923        21.57023                                                                
E27  23501700.31106    811483.79006      -869.21706        37.18706  23501699.71205    605457.23805      -648.80205        29.75605
E30  25713327.43405   2272211.22005     -2705.98605        30.11605                   1726338.66623     -2019.48223        18.45423
> 2021 04 08 21 28 25.0000654  0 33                      
G02  22281426.88907  -2503069.51507      2106.63607        43.93107                                                                
G03                        -1.95221       -75.12221        12.00021                                                                
G06  21007886.34306  -1172720.85806       739.43706        37.35606  21007885.74324   -877598.54224       551.68924        29.27124
G12  22728006.72807  -4878754.40507      1931.28407        41.70107                                                                
G13  24988885.85406   3244254.62006     -3860.74906        37.57806                                                                
G14  23754268.56224   3416467.54124     -3242.48324        25.92224                                                                
G15  25130779.42307   5467381.45107     -3311.47107        42.43507                                                                
G17  22438490.55605   3396086.93205     -3197.66005        29.56905                                                                
G19  20557679.91407   2190988.29407     -2247.42307        42.74607                                                                
G24  20956841.28108   -195598.51108      -148.65708        47.75408  20956839.18205   -149636.20805      -111.44405        34.72905
R14  21629175.93306  -3368349.57806      2717.85106        37.12106
R13  19296360.70714     77756.53214      -388.17814        27.04614
R12  21507550.73205   4220277.86105     -3578.61605        32.16505
R24  20384718.55307  -2696489.85807      2164.20507        43.90107
R23  19022626.80908    477350.17308      -894.00508        48.05908
C04                    734180.62724      -665.37224        26.34524
C06  41053414.01306     64770.90406      -131.87106        36.13306
C11  24765082.99024   2895636.64124     -3471.07024        27.31024
C16  41460886.52625        47.83425        -9.15525        34.73925
C23  22197531.16907   1851170.14307     -1939.30107        44.64007
C25  25740754.84606   3912636.32806     -3721.72906        41.01006
C27  25278433.80407  -2649958.70207      2375.98807        44.69507
C28  21873517.57906   -747078.07406       452.33906        37.38706
C34  26905794.50624   2879397.79024     -3781.33624        27.94724
C37  22671090.23107  -1277093.21707      1017.71507        44.83107
E13  24237939.02406  -1807838.29306      1498.75506        36.04206  24237931.82905  -1348284.01905      1118.50505        32.30105
E15  23690186.42507   1129471.00507     -1301.87007        41.59607  23690185.22623    844462.55523      -970.36923        22.19523
E18  19243471.92206   2979066.21006     -3424.32006        36.68106  19243478.21705   2226699.98005     -2557.04805        30.57305
E19                      2593.90422     -2432.19322        13.75122                                                                
E21  25136720.71006  -3716821.00506      1177.82706        35.51906                  -2796693.74923       880.00023        20.96323
E26                       -29.67323      2466.33923        21.70823                                                                
E27  23501717.69906    812353.04106      -869.68706        35.65406  23501714.10205    606106.36905      -649.54305        30.80605
E30  25713689.58305   2274915.59205     -2704.88405        30.66605                   1728356.63922     -2018.79622        15.81922
> 2021 04 08 21 28 26.0000650  0 33                      
G02  22280906.74907  -2505176.12707      2106.55407        43.51207                                                                
G03                        -1.93623       -76.09723        21.61523                                                                
G06  21007627.02206  -1173459.70706       738.48206        37.18006  21007625.52304   -878150.27204       551.24104        29.32804
G12  22727517.46707  -4880685.74007      1931.44107        41.93507                                                                
G13  24989500.72906   3248115.56006     -3860.62306        37.89606                                                                
G14  23754771.01424   3419713.53224     -3243.96924        26.36024                                                                
G15  25131290.27007   5470692.76707     -3311.22607        42.26207                                                                
G17  22438980.71705   3399284.60705     -3197.85505        30.22205                                                                
G19  20557988.10107   2193235.91707     -2247.58007        43.03607                                                                
G24  20956748.04507   -195449.55207      -149.03307        47.22507  20956747.44605   -149525.06705      -111.18505        35.24505
R14  21628555.06306  -3371067.66206      2718.24606        38.83706
R13  19296326.83114     78150.46514      -393.99514        27.01114
R12  21508097.55405   4223856.69105     -3578.97405        33.11005
R24  20384195.11507  -2698653.80407      2163.66207        43.08707
R23  19022667.88108    478244.46608      -894.60808        48.11708
C04                    734853.08124      -665.37224        24.54224
C06  41053319.57806     64903.03906      -132.24906        35.98306
C11  24765621.71724   2899107.43524     -3478.02424        27.21824
C16  41460766.30925        56.95725        -9.00025        34.96625
C23  22197781.49607   1853109.52707     -1939.41407        44.08107
C25  25741353.23206   3916358.13506     -3721.76306        41.20706
C27  25277857.90307  -2652334.73707      2376.14307        44.59507
C28  21873311.92106   -747530.08306       451.90406        39.02706
C34  26906413.57724   2883183.31724     -3785.62324        28.17624
C37  22670776.04807  -1278110.88807      1017.53407        44.77907
E13  24237535.80306  -1809337.41706      1499.37006        36.36106  24237527.10905  -1349403.51305      1119.38005        32.18405
E15  23690312.03807   1130773.11307     -1302.17907        41.60607  23690314.13723    845433.85123      -970.66623        23.25123
E18  19244008.85006   2982491.22406     -3425.53406        36.20906  19244010.04905   2229257.63605     -2558.15105        30.19405
E19                      2593.96123     -2432.19323        19.98223                                                                
E21  25136376.24905  -3717998.75305      1177.85805        34.76305                  -2797572.99223       879.58123        23.16623
E26                       -29.73123      2466.33923        21.80223                                                                
E27  23501762.96805    813222.59505      -869.86105        35.42005  23501759.67005    606755.61305      -648.70105        30.20105
E30  25714085.30925   2277620.18825     -2704.39525        30.57225                   1730374.66222     -2019.31122        16.32222
> 2021 04 08 21 28 27.0000646  0 33                      
G02  22280386.01007  -2507282.45007      2106.03207        43.04807                                                                
G03                        -1.93921       -76.09721        12.00021                                                                
G06  21007370.10006  -1174198.06906       738.13706        38.38506  21007365.60304   -878701.70004       550.95104        28.97704
G12  22727030.30407  -4882616.97907      1930.99307        42.02607                                                                
G13  24990113.80406   3251976.29906     -3860.81706        37.94906                                                                
G14                   3422962.35124     -3246.03524        25.08424                                                                
G15  25131800.81607   5474004.01307     -3311.23707        42.37907                                                                
G17  22439469.97805   3402482.43005     -3198.16005        31.53505                                                                
G19  20558292.69007   2195483.88607     -2247.92207        42.37907                                                                
G24  20956656.90808   -195300.03908      -149.84408        47.96408  20956656.30905   -149413.39805      -111.66905        35.20705
R14  21627920.10206  -3373785.63706      2717.83606        39.50706
R13  19296259.97724     78544.56224      -391.42824        27.68824
R12  21508650.37105   4227435.82205     -3579.24205        34.60805
R24  20383662.38407  -2700817.28107      2163.07507        42.67707
R23  19022720.04508    479139.52608      -895.35108        48.29208
C04                    735514.34024      -665.37224        24.40724
C06  41053225.14406     65035.24606      -132.16706        36.11606
C11  24766186.82624   2902580.43624     -3472.98324        28.65624
C16  41460649.39006        66.22406        -9.33706        35.56506
C23  22198038.41807   1855049.25907     -1939.92307        44.10207
C25  25741945.62206   3920080.02506     -3721.97906        40.79806
C27  25277281.40207  -2654710.64407      2375.73507        44.60107
C28  21873102.06706   -747981.61006       451.48006        38.58906
C34  26907026.35324   2886968.67524     -3785.56324        28.40024
C37  22670461.26607  -1279128.31507      1017.35807        45.36007
E13  24237131.08306  -1810836.15806      1499.11306        36.28006  24237122.09005  -1350522.70305      1118.74805        32.45605
E15  23690439.15007   1132075.58107     -1302.71507        41.74407  23690441.84824    846406.53324      -971.47524        23.75524
E18  19244539.78206   2985917.15406     -3426.63706        36.08106  19244542.78005   2231816.02905     -2559.24005        30.60305
E19                      2594.02523     -2433.16823        19.96223                                                                
E21  25136033.28605  -3719176.46705      1177.57505        35.25705  25136040.48123  -2798454.97823       879.75323        23.23323
E26                       -29.78823      2466.33923        21.51423                                                                
E27  23501808.23706    814092.24606      -869.76506        36.06606  23501805.83825    607405.14525      -649.66025        30.27725
E30  25714478.63705   2280324.97605     -2704.65605        31.50505                   1732381.89923     -2018.30123        19.53023
> 2021 04 08 21 28 28.0000641  0 33                      
G02  22279833.49207  -2509388.40607      2105.82807        42.90907                                                                
G03                        -1.92421       -77.07321        12.00021                                                                
G06  21007078.70206  -1174935.79006       737.69906        38.01406  21007075.70405   -879252.66505       551.18705        30.50705
G12  22726511.06406  -4884548.19306      1931.63306        40.61806                                                                
G13  24990700.19806   3255836.82606     -3860.40906        38.38106                                                                
G14                   3426210.03223     -3246.14323        23.18023                                                                
G15  25132280.78407   5477315.24007     -3311.04007        42.85407                                                                
G17  22439928.36105   3405680.15805     -3197.65405        31.44205                                                                
G19  20558569.09907   2197732.23107     -2248.51407        41.58007                                                                
G24  20956535.79208   -195149.89408      -150.30508        48.22408  20956534.89305   -149301.25905      -112.22405        34.99305
R14  21627259.66006  -3376503.46006      2717.84206        40.02006
R13  19296147.55524     78939.56424      -392.99124        26.29024
R12  21509188.49905   4231015.49905     -3579.88105        34.34405
R24  20383110.16607  -2702980.10607      2162.61607        44.11107
R23  19022736.53408    480035.40508      -896.21408        48.35408
C04                    736182.82224      -665.37224        23.77324
C06  41053102.52906     65167.59906      -132.35906        36.48906
C11  24766697.97224   2906053.81524     -3473.44824        29.07824
C16  41460501.59206        75.68306        -9.47906        35.51806
C23  22198259.66507   1856989.45207     -1940.30107        44.36807
C25  25742511.93006   3923802.09406     -3722.00806        40.69706
C27  25276672.22407  -2657086.44207      2375.81907        43.80507
C28  21872875.42306   -748432.82306       451.04906        37.21306
C34  26907601.05524   2890753.98124     -3782.38824        27.74624
C37  22670115.60607  -1280145.40907      1017.09607        44.81507
E13  24236696.68406  -1812334.46706      1498.32406        35.81106  24236686.49105  -1351641.68805      1119.27005        32.72805
E15  23690538.98106   1133378.48606     -1303.01906        41.33606  23690540.18024    847379.50624      -971.24724        26.40624
E18  19245047.63106   2989344.34406     -3427.62006        36.68006  19245043.73305   2234375.22205     -2559.44405        32.38105
E19                      2593.93023     -2433.16823        18.47923                                                                
E21  25135658.84505  -3720354.16805      1177.59105        34.41905  25135664.54224  -2799337.52424       880.17024        24.09724
E26                       -29.69223      2466.33923        18.33423                                                                
E27  23501824.12606    814962.13406      -869.84906        36.32906  23501820.82805    608054.67705      -649.02505        31.35905
E30  25714841.98505   2283029.79105     -2704.76705        31.46305                   1734413.70923     -2018.89123        20.05923
> 2021 04 08 21 28 29.0000637  0 33                      
G02  22279314.85107  -2511494.00807      2105.29307        43.07507                                                                
G03                        -1.92221       -77.07321        12.00021                                                                
G06  21006821.18006  -1175672.87806       736.63906        38.17406  21006814.88505   -879803.07805       550.44805        31.31605
G12  22726024.20106  -4886479.29506      1930.90406        39.97206                                                                
G13  24991315.07306   3259697.21706     -3860.25006        37.65806                                                                
G14  23756225.60724   3429454.13324     -3245.05324        24.54424                                                                
G15  25132792.83007   5480626.46807     -3311.24107        43.14007                                                                
G17  22440417.92205   3408878.04805     -3197.90105        31.85105                                                                
G19  20558879.68407   2199980.91507     -2248.95407        43.43807                                                                
G24  20956444.35508   -194999.15108      -151.16108        48.11708  20956443.75605   -149188.69905      -112.53905        34.32405
R14  21626642.08706  -3379221.18306      2717.65406        40.84206
R13  19296105.28424     79335.07024      -393.94724        25.27424
R12  21509731.12305   4234595.59605     -3580.53705        33.52205
R24  20382584.03107  -2705142.35107      2161.92407        44.78807
R23  19022783.60108    480932.08008      -897.10808        48.38708
C04                    736847.08924      -665.37224        25.97424
C06  41053009.29306     65300.08606      -132.66606        36.03306
C11  24767244.49325   2909527.13525     -3473.98725        29.69425
C16  41460387.67106        85.16906        -9.61506        35.70406
C23  22198511.49007   1858930.00407     -1940.67507        44.33907
C25  25743109.11606   3927524.26106     -3722.28406        40.84906
C27  25276097.82207  -2659462.04607      2375.51707        43.63807
C28  21872661.97106   -748883.59406       450.73106        39.08306
C34  26908216.82924   2894539.30624     -3785.48124        27.87824
C37  22669801.12307  -1281162.15507      1016.49707        44.52007
E13  24236291.36505  -1813832.60505      1497.86005        35.27805  24236281.47105  -1352760.38605      1118.70605        33.23705
E15  23690665.19407   1134681.81307     -1303.44007        41.88107  23690668.79124    848352.84224      -972.68924        26.77124
E18  19245570.16906   2992772.64806     -3428.91606        35.85906  19245575.56505   2236935.28205     -2560.28105        32.96205
E19                      2593.98721     -2433.16821        12.00021                                                                
E21  25135314.98405  -3721531.77305      1177.08605        34.39105  25135320.97924  -2800219.07824       880.02824        24.74424
E26                       -29.75024      2466.33924        23.98724                                                                
E27  23501869.99406    815832.19806      -870.25406        36.59606  23501866.39625    608704.50325      -650.30025        32.44925
E30  25715235.31305   2285734.73705     -2704.93305        31.01205                   1736435.75223     -2020.01623        20.26223
> 2021 04 08 21 28 30.0000633  0 33                      
G02  22278794.71107  -2513599.37807      2105.06607        43.53707                                                                
G03                        -1.91121       -78.04921        12.00021                                                                
G06  21006560.96006  -1176409.45606       736.24206        38.04406  21006554.36505   -880353.02305       549.09905        31.41305
G12  22725535.23906  -4888410.40506      1930.95606        39.94706                                                                
G13  24991929.64706   3263557.46906     -3860.22306        37.35106                                                                
G14  23756717.86624   3432698.11024     -3244.35724        23.66724                                                                
G15  25133304.57507   5483937.57107     -3311.19907        43.21807                                                                
G17  22440894.59205   3412075.99105     -3197.71305        31.13805                                                                
G19  20559186.67107   2202229.96407     -2249.53707        43.34207                                                                
G24  20956354.41808   -194847.84708      -151.83408        48.20508  20956352.01905   -149075.70305      -113.21705        34.06905
R14  21626009.82506  -3381938.75406      2717.31006        40.62106
R13  19296058.81624     79728.60724      -395.70724        25.18724
R12  21510271.04925   4238175.92625     -3580.70925        34.56525
R24  20382074.98307  -2707304.09507      2161.23207        45.29607
R23  19022829.46908    481829.52808      -897.96008        48.28608
C04                    737521.59624      -665.37224        26.16624
C06  41052912.76006     65432.62806      -132.83706        36.62006
C11  24767794.61324   2913000.48724     -3473.12624        28.18224
C16  41460268.95306        94.79006        -9.70506        35.77206
C23  22198765.41407   1860870.94107     -1941.18907        44.67607
C25  25743699.10806   3931246.51806     -3722.44406        40.99606
C27  25275522.52007  -2661837.55307      2375.23707        44.54407
C28  21872459.91106   -749333.88306       449.69506        38.36606
C34  26908828.10624   2898324.57824     -3786.36124        27.52024
C37  22669485.74207  -1282178.63807      1016.20707        44.68907
E13  24235886.94506  -1815330.37906      1497.41706        36.41106  24235876.45225  -1353878.87225      1118.33625        33.32625
E15  23690794.70407   1135985.57207     -1304.27707        42.36607  23690796.80324    849326.43824      -972.92524        25.76924
E18  19246103.50006   2996201.96006     -3429.98406        35.74506  19246108.89605   2239496.20705     -2561.53905        33.06905
E19                      2593.89923     -2434.14423        20.21823                                                                
E21  25134972.32105  -3722709.40805      1177.50905        34.39705  25134977.11724  -2801098.86924       880.07224        25.22724
E26                       -29.65324      2466.33924        23.57524                                                                
E27  23501915.56206    816702.49406      -870.74006        36.37306  23501911.96505    609354.30405      -649.49405        32.19805
E30  25715631.63905   2288439.83005     -2705.12005        30.76405                   1738452.65222     -2018.60522        16.88122
> 2021 04 08 21 28 31.0000629  0 33                      
G02  22278273.97207  -2515704.32907      2104.86907        43.52907                                                                
G03                        -1.92323       -77.07323        19.95223                                                                
G06  21006297.74306  -1177145.41306       735.74506        38.70506  21006294.74525   -880902.67325       549.73425        29.56825
G12  22725048.37606  -4890341.43306      1931.10706        41.17606                                                                
G13  24992540.32406   3267417.55306     -3859.95006        36.02306                                                                
G14  23757215.82224   3435942.61824     -3244.12624        24.55424                                                                
G15  25133815.42207   5487248.73407     -3311.16107        43.23207                                                                
G17  22441380.25625   3415274.05125     -3197.83125        30.81125                                                                
G19  20559495.45707   2204479.36307     -2249.52807        43.48207                                                                
G24  20956264.48008   -194695.90508      -152.30608        48.08108  20956261.18205   -148962.21105      -113.80105        34.52405
R14  21625371.26706  -3384656.15906      2717.54506        40.68006
R13  19296027.63824     80122.70824      -401.21924        24.97824
R12  21510819.96905   4241756.74305     -3580.71205        33.95705
R24  20381555.44307  -2709465.21307      2160.87407        45.02807
R23  19022880.73408    482727.83108      -898.77308        48.21308
C04                    738183.15224      -665.37224        26.65824
C06  41052818.62506     65565.33906      -132.74506        36.45506
C11  24768342.93324   2916473.99524     -3473.24924        27.63624
C16  41460151.73406       104.59506        -9.68606        36.68206
C23  22199015.14207   1862812.30707     -1941.43907        43.39207
C25  25744296.59406   3934968.93406     -3722.36706        41.03006
C27  25274947.81807  -2664212.89207      2375.26407        45.05107
C28  21872249.45706   -749783.83306       449.81506        38.63706
C34  26909457.97024   2902109.91824     -3784.04924        26.69824
C37  22669170.96007  -1283194.78307      1016.08207        45.50907
E13  24235479.22706  -1816827.80506      1497.32106        37.56006  24235471.73205  -1354997.06205      1117.93405        32.89605
E15  23690922.71507   1137289.76707     -1304.42607        42.24307  23690924.51424    850300.25224      -973.60424        23.83124
E18  19246641.62706   2999632.49806     -3430.71306        36.71606  19246642.82605   2242058.02305     -2562.61505        31.98505
E19                      2593.94222     -2432.19322        13.21022                                                                
E21  25134628.45905  -3723886.91605      1177.31405        34.85005  25134633.25524  -2801978.20124       880.68824        24.87024
E26                       -29.71724      2467.31524        23.52124                                                                
E27  23501959.93206    817572.98406      -870.50306        36.17306  23501957.83305    610004.38405      -650.01705        31.27305
E30  25716028.86405   2291145.03005     -2705.25705        30.36705                   1740472.18522     -2019.52022        16.82222
> 2021 04 08 21 28 32.0000624  0 33                      
G02  22277722.95307  -2517808.94707      2104.24207        42.92707                                                                
G03                        -1.89423       -79.02423        20.30423                                                                
G06  21006006.94406  -1177880.77506       734.82806        38.75606  21006004.24604   -881451.64704       548.70804        29.12404
G12  22724530.63506  -4892272.43706      1930.74806        41.28106                                                                
G13  24993124.92006   3271277.52206     -3860.02006        36.50606                                                                
G14  23757685.59724   3439186.24024     -3241.89724        25.21624                                                                
G15  25134295.98907   5490559.76807     -3311.15707        42.82007                                                                
G17  22441844.93405   3418472.30405     -3197.92205        33.03905                                                                
G19  20559774.86407   2206729.11207     -2250.06207        42.93607                                                                
G24  20956142.46408   -194543.38408      -152.84908        47.79208  20956140.06605   -148848.43805      -113.92505        34.95205
R14  21624717.42006  -3387373.41906      2717.01306        41.04706
R13  19295935.30224     80521.75324      -397.83324        26.75024
R12  21511327.51805   4245337.76605     -3581.31305        32.53105
R24  20380989.43507  -2711625.73107      2159.97107        44.56107
R23  19022897.52208    483626.84508      -899.47208        48.30008
C04                    738853.60124      -665.37224        24.48324
C06  41052691.51306     65698.13806      -133.11406        36.10406
C11  24768858.57624   2919947.68124     -3472.24824        27.87824
C16  41460005.73506       114.46406       -10.09106        36.60606
C23  22199239.68607   1864754.05207     -1942.04007        44.31607
C25  25744862.60206   3938691.49606     -3722.78906        41.39006
C27  25274339.83907  -2666588.12307      2375.16107        45.00107
C28  21872009.02306   -750233.37806       449.26406        38.81206
C34  26910056.35624   2905895.01724     -3785.24724        28.88224
C37  22668825.89807  -1284210.67507      1015.72707        44.15907
E13  24235044.82806  -1818325.05106      1497.01106        37.21406  24235037.33305  -1356115.04605      1117.37805        32.76005
E15  23691023.14607   1138594.34907     -1304.75307        42.00607  23691021.94724    851274.52924      -974.16124        25.45224
E18  19247152.17406   3003064.13106     -3432.49506        36.56006  19247144.37905   2244620.52505     -2562.76405        32.43105
E19                      2594.01323     -2434.14423        20.77323                                                                
E21  25134253.71805  -3725064.42305      1177.18505        35.00205  25134258.51523  -2802857.52723       881.43623        23.15323
E26                       -29.76924      2466.33924        24.94724                                                                
E27  23501976.12006    818443.68406      -870.80506        37.50806  23501974.02205    610654.54005      -649.80905        31.25405
E30  25716388.31514   2293850.28714     -2705.74614        28.85914                   1742492.61023     -2019.52023        20.59123
> 2021 04 08 21 28 33.0000620  0 33                      
G02  22277203.71307  -2519913.18707      2103.76207        41.72807                                                                
G03                        -1.91123       -78.04923        22.88423                                                                
G06  21005744.02606  -1178615.46706       734.04906        39.40006  21005743.42605   -882000.28705       548.08905        30.17105
G12  22724045.27106  -4894203.31306      1930.75506        39.96506                                                                
G13  24993738.29506   3275137.29506     -3859.69506        36.90006                                                                
G14                   3442430.55623     -3242.02423        19.88423                                                                
G15  25134807.43507   5493870.87807     -3311.30207        42.24607                                                                
G17  22442330.59805   3421670.44905     -3197.77905        32.95105                                                                
G19  20560083.05106   2208979.31606     -2250.46906        41.45806                                                                
G24  20956051.92707   -194390.18107      -153.78107        46.92907  20956049.52905   -148734.03105      -114.51605        34.87505
R14  21624092.65206  -3390090.51706      2716.36306        40.85606
R13  19295912.81804     80919.82704      -398.50004        28.17204
R12  21511862.34814   4248919.47614     -3586.03314        29.12314
R24  20380468.09607  -2713785.62207      2159.59907        43.79207
R23  19022947.28808    484526.75108      -900.61908        47.77808
C04                    739516.60224      -665.37224        26.70224
C06  41052596.47906     65831.13606      -133.21106        35.87806
C11  24769397.30324   2923421.33424     -3472.13424        27.08224
C16  41459884.61905       124.45005        -9.87205        35.22105
C23  22199493.61007   1866696.28107     -1942.76107        44.12007
C25  25745454.99206   3942414.20106     -3723.09206        40.20006
C27  25273763.93707  -2668963.10707      2374.55407        45.02507
C28  21871804.86506   -750682.49106       448.76906        37.84706
C34  26910666.13305   2909680.10605     -3785.22905        30.54805
C37  22668510.81707  -1285226.11107      1014.95707        41.61907
E13  24234641.00706  -1819821.75406      1495.99806        36.79206  24234632.91305  -1357232.78805      1117.35905        32.62905
E15  23691152.35706   1139899.44906     -1305.42006        41.34806  23691150.25824    852249.09424      -973.17324        26.49324
E18  19247682.80625   3006497.04725     -3433.68025        34.06425  19247677.11005   2247184.04705     -2564.30405        32.07605
E19                      2593.91123     -2433.16823        18.30423                                                                
E21  25133909.85605  -3726241.89905      1177.17805        35.09505                  -2803736.68023       880.74223        21.22723
E26                       -29.67823      2467.31523        23.26423                                                                
E27  23502020.79006    819314.65806      -871.67806        38.65606  23502018.99125    611304.99325      -650.80025        31.38025
E30  25716782.24214   2296555.83414     -2706.09014        28.38714                   1744510.00523     -2019.48223        19.66423
> 2021 04 08 21 28 34.0000616  0 33                      
G02  22276682.37406  -2522016.96706      2103.51906        41.27906                                                                
G03                        -1.88223       -80.00023        22.05323                                                                
G06  21005487.10406  -1179349.46906       733.73506        41.37406  21005484.70605   -882548.39105       547.65005        30.34605
G12  22723555.71006  -4896133.91106      1930.53806        36.57006                                                                
G13  24994351.37106   3278997.06406     -3859.53106        35.92406                                                                
G14  23758687.50323   3445671.34523     -3244.46023        21.64323                                                                
G15  25135314.68407   5497182.07207     -3311.11007        42.01007                                                                
G17  22442829.75215   3424868.82315     -3198.71315        29.98115                                                                
G19  20560390.93807   2211229.98407     -2250.92207        42.31807                                                                
G24  20955960.79007   -194236.27707      -154.37407        46.44007  20955958.99105   -148619.02505      -115.22805        33.26505
R14  21623461.88906  -3392807.44006      2716.58206        39.91806
R13  19295893.63114     81318.56914      -398.43114        27.50614
R12  21512391.48124   4252501.27624     -3583.57224        27.70824
R24  20379949.45507  -2715944.70807      2158.75507        44.71807
R23  19022996.75308    485427.56408      -901.19508        47.80008
C04                    740187.01224      -665.37224        26.49924
C06  41052502.64406     65964.38206      -133.35306        36.61206
C11  24769948.92125   2926895.47325     -3474.39825        30.37325
C16  41459766.50105       134.77805       -10.15205        33.47305
C23  22199746.03607   1868639.00107     -1942.93107        43.07807
C25  25746051.87906   3946137.15806     -3722.96906        41.25206
C27  25273187.13707  -2671337.86907      2374.62907        45.60207
C28  21871595.60906   -751130.90806       448.31506        37.69706
C34  26911267.51705   2913465.34805     -3785.04405        30.05805
C37  22668195.13507  -1286241.18307      1014.82407        43.06507
E13  24234234.18906  -1821318.15206      1496.09106        36.70606  24234228.19305  -1358350.22505      1117.11005        32.76005
E15  23691274.07206   1141205.05406     -1305.82406        41.15106  23691278.26924    853224.06224      -974.43224        25.16024
E18  19248212.84005   3009931.14305     -3434.69605        34.93605  19248211.04124   2249748.34224     -2565.44824        28.51224
E19                      2593.97523     -2434.14423        17.80123                                                                
E21  25133565.69506  -3727419.23006      1177.74206        35.57906                  -2804613.72823       879.61323        21.21223
E26                       -29.73124      2466.33924        25.11124                                                                
E27  23502069.65606    820185.90106      -871.70806        37.81906  23502065.75824    611955.62624      -651.30424        29.20424
E30  25717173.47104   2299261.42304     -2704.96804        28.16204                   1746532.54723     -2021.38723        19.70323
> 2021 04 08 21 28 35.0000611  0 33                      
G02  22276132.25507  -2524120.43607      2103.21307        42.24007                                                                
G03                        -1.89823       -79.02423        21.38523                                                                
G06  21005198.70406  -1180083.01406       733.51906        40.82306  21005196.00525   -883096.02525       546.77925        29.85125
G12  22723037.66806  -4898064.63606      1931.02206        35.53306                                                                
G13  24994938.66406   3282856.65006     -3859.35606        36.54806                                                                
G14  23759150.38223   3448909.55523     -3242.81023        21.67623                                                                
G15  25135796.75007   5500493.14707     -3310.95007        41.94207                                                                
G17  22443287.83505   3428067.40905     -3198.78205        29.87505                                                                
G19  20560670.64407   2213480.94407     -2250.97107        41.90307                                                                
G24  20955839.07407   -194081.83807      -154.53807        45.98307  20955838.77505   -148503.73205      -115.16505        31.87005
R14  21622808.04106  -3395524.12606      2716.71606        41.28706
R13  19295830.07514     81717.76114      -397.80914        27.87714
R12  21512937.40314   4256082.27514     -3582.70514        27.90214
R24  20379399.93507  -2718103.32307      2158.49007        44.08307
R23  19023013.54207    486329.08107      -901.64407        47.39407
C04                    740850.04024      -665.37224        27.07124
C06  41052379.12906     66097.73706      -133.19806        36.72806
C11  24770468.16225   2930369.40725     -3473.79625        29.82525
C16  41459616.00525       145.33925       -10.74625        32.82425
C23  22199969.98107   1870582.09507     -1943.33507        43.43807
C25  25746616.38806   3949860.28706     -3723.36906        39.97406
C27  25272581.25607  -2673712.57207      2374.89307        45.29707
C28  21871364.46906   -751578.99306       447.33606        36.70206
C34  26911854.51105   2917250.54605     -3785.06105        29.94905
C37  22667855.47007  -1287255.96707      1014.50607        43.12607
E13  24233792.59406  -1822814.33006      1496.50906        36.16306  24233793.79405  -1359467.34505      1116.60005        33.06205
E15  23691373.30406   1142511.04206     -1305.96206        41.19206  23691376.60124    854199.14024      -974.90824        25.26424
E18  19248727.28306   3013366.23506     -3435.59606        35.70706  19248716.19124   2252313.60824     -2564.24124        25.70324
E19                      2594.02522     -2433.16822        12.59322                                                                
E21  25133190.95406  -3728596.46506      1178.34406        35.69606                  -2805492.84023       877.48323        20.02623
E26                       -29.79424      2467.31524        25.55824                                                                
E27  23502087.04406    821057.20906      -871.64206        37.44806  23502081.34804    612606.22004      -650.68204        28.47904
E30  25717543.41504   2301967.39204     -2705.94804        28.98404                   1748550.17623     -2019.00623        18.15323
> 2021 04 08 21 28 36.0000607  0 33                      
G02  22275614.51307  -2526223.61607      2102.72407        43.20607                                                                
G03                        -1.89623       -79.02423        22.15923                                                                
G06  21004937.88406  -1180815.78406       732.64306        40.75506  21004936.38524   -883642.65824       546.09724        27.21624
G12  22722546.60806  -4899995.12806      1930.19906        37.03706                                                                
G13  24995557.43606   3286716.08406     -3859.52506        37.19806                                                                
G14  23759644.44023   3452151.04423     -3243.68623        21.81423                                                                
G15  25136306.09706   5503804.21506     -3310.98706        41.16806                                                                
G17  22443770.20105   3431266.05005     -3199.07505        32.72705                                                                
G19  20560979.13006   2215732.27106     -2251.09006        40.53606                                                                
G24  20955747.63807   -193926.78007      -155.16607        45.61107  20955748.53725   -148387.90125      -116.17125        30.18625
R14  21622166.48607  -3398240.87507      2716.95907        41.65007
R13  19295765.61924     82117.70524      -399.62224        28.64924
R12  21513483.02624   4259669.79024     -3582.02024        27.82124
R24  20378878.89607  -2720261.43407      2157.87107        44.90307
R23  19023068.10407    487231.45707      -902.66307        46.56907
C04                    741523.70524      -665.37224        25.88624
C06  41052286.79306     66231.15406      -133.21706        35.63106
C11  24771003.89124   2933843.58324     -3474.18424        27.33924
C16  41459498.78625       155.79625       -10.45025        33.47325
C23  22200226.30307   1872525.56907     -1943.61307        44.54607
C25  25747215.97306   3953583.44106     -3723.29006        39.78206
C27  25272008.05307  -2676087.06407      2374.56007        44.90207
C28  21871155.81406   -752026.85906       447.86706        38.68806
C34  26912477.18005   2921035.54005     -3785.35305        30.07005
C37  22667539.48907  -1288270.53107      1014.49207        42.82007
E13  24233392.67105  -1824309.93905      1495.20805        34.94905  24233389.67306  -1360584.30806      1116.54506        38.98206
E15  23691502.81406   1143817.47406     -1306.32806        41.39906  23691506.41104    855174.85204      -975.24204        26.68304
E18  19249248.32306   3016802.68106     -3436.93806        35.82806  19249248.02324   2254879.72124     -2564.64724        23.64024
E19                      2593.93023     -2433.16823        20.80723                                                                
E21  25132847.09205  -3729773.63505      1177.20405        35.10405                  -2806373.04424       877.84624        24.08724
E26                       -29.69824      2467.31524        25.29924                                                                
E27  23502128.11506    821928.83406      -871.64306        37.88806  23502126.01724    613259.60424      -645.78224        25.32024
E30  25717946.03604   2304673.32704     -2706.40004        28.71404                   1750570.24422     -2018.60522        14.28422
> 2021 04 08 21 28 37.0000603  0 33                      
G02  22275094.37306  -2528326.54106      2102.85106        40.97406                                                                
G03                        -1.86723       -80.97623        23.34023                                                                
G06  21004679.46306  -1181548.07006       732.01706        38.23706  21004676.76524   -884189.33124       547.25424        28.30224
G12  22722061.24406  -4901925.74006      1930.74906        37.96806                                                                
G13  24996169.91206   3290575.26706     -3858.83506        37.16206                                                                
G14  23760146.59324   3455397.11924     -3243.79524        24.52024                                                                
G15  25136818.44307   5507115.16107     -3310.72707        41.99107                                                                
G17  22444257.96405   3434464.55605     -3198.11605        31.93205                                                                
G19  20561287.91706   2217983.93506     -2251.74306        40.84206                                                                
G24  20955657.70007   -193771.14207      -155.83607        45.06707  20955657.40005   -148271.72005      -115.95205        32.98605
R14  21621545.01606  -3400957.39606      2716.57306        41.21306
R13  19295711.95704     82518.16604      -400.18104        29.29604
R12  21514080.21224   4263252.70024     -3584.47424        26.49424
R24  20378363.25307  -2722418.97207      2157.42707        44.81907
R23  19023110.97407    488134.54707      -903.40307        46.75207
C04                    742184.92123      -665.37223        23.02023
C06  41052191.75905     66364.72205      -133.59305        34.18305
C11  24771558.20724   2937317.80524     -3474.98724        25.64524
C16  41459379.76925       166.44625       -10.43225        32.65525
C23  22200478.12907   1874469.37307     -1943.81507        45.22807
C25  25747808.96306   3957306.66106     -3723.12206        39.46506
C27  25271430.35307  -2678461.52307      2374.60807        43.93607
C28  21870946.85906   -752474.24706       447.26206        41.04006
C34  26913096.55105   2924820.47405     -3785.05305        30.62305
C37  22667226.50607  -1289284.76507      1014.08207        41.58307
E13  24232986.15306  -1825805.51706      1495.43606        36.78406  24232986.15325  -1361701.12525      1116.36525        35.17025
E15  23691632.92407   1145124.26307     -1306.82107        42.20907  23691637.42104    856150.74004      -976.26304        27.52504
E18  19249781.95306   3020239.98806     -3437.82106        36.73406  19249784.05204   2257446.66504     -2567.55904        27.26304
E19                      2594.00123     -2435.12023        22.18323                                                                
E21  25132504.72905  -3730950.82205      1177.26005        33.81405  25132508.92624  -2807252.10924       877.67824        25.34224
E26                       -29.75024      2466.33924        27.27224                                                                
E27  23502175.18306    822800.55806      -871.64206        38.47506  23502172.48525    613923.22425      -651.58525        29.75325
E30  25718335.16705   2307379.29605     -2705.52505        29.82605                   1752582.34324     -2019.00624        25.68524
> 2021 04 08 21 28 38.0000599  0 33                      
G02  22274576.03207  -2530429.14107      2102.41807        42.52407                                                                
G03                        -1.88423       -80.00023        22.36323                                                                
G06  21004423.14006  -1182279.89506       730.64806        39.26406  21004417.74424   -884735.56824       544.66424        28.07924
G12  22721574.38106  -4903856.40406      1930.40006        37.94206                                                                
G13  24996786.28506   3294434.32906     -3859.44306        37.36106                                                                
G14  23760640.65124   3458642.29024     -3245.44324        24.36724                                                                
G15  25137328.98907   5510425.96807     -3310.93107        41.82607                                                                
G17  22444749.02405   3437663.19205     -3198.80705        32.08905                                                                
G19  20561597.60207   2220235.84707     -2252.21207        41.67907                                                                
G24  20955565.36407   -193615.03407      -156.81207        45.32207  20955566.26305   -148155.21005      -116.09205        33.54305
R14  21620908.25706  -3403673.97206      2716.58506        41.47606
R13  19295676.28104     82919.08704      -400.79904        29.01304
R12  21514645.02114   4266836.85414     -3584.74414        27.44214
R24  20377838.91607  -2724575.93707      2156.66707        45.38007
R23  19023161.04007    489038.29607      -904.12907        46.90607
C04                    742856.44024      -665.37224        25.11624
C06  41052097.02505     66498.20005      -133.42605        34.85805
C11  24772100.83124   2940791.97924     -3474.95324        24.07724
C16  41459259.25225       177.12725       -10.94325        33.22525
C23  22200729.95407   1876413.48807     -1943.97807        44.56107
C25  25748402.85206   3961029.93406     -3723.30606        39.86506
C27  25270853.85207  -2680835.95107      2374.14107        43.72507
C28  21870738.80306   -752921.32406       447.50406        40.41606
C34  26913700.33305   2928605.26605     -3784.95605        30.90605
C37  22666911.72407  -1290298.76007      1013.73707        42.35607
E13  24232583.83106  -1827300.84906      1495.34206        36.27106  24232581.73305  -1362817.71805      1116.08205        33.54005
E15  23691759.13607   1146431.33007     -1307.22507        42.00807  23691765.13224    857126.88424      -976.80224        26.65924
E18  19250316.78306   3023678.28306     -3438.80106        36.80606  19250317.68224   2260014.17424     -2567.99124        28.04324
E19                      2593.89923     -2434.14423        21.73523                                                                
E21  25132156.07005  -3732128.15505      1177.30905        34.60905  25132165.06424  -2808131.12224       877.91824        25.45624
E26                       -29.65924      2467.31524        28.22824                                                                
E27  23502221.35106    823672.38806      -871.93506        37.77606  23502220.15225    614593.47825      -653.66225        29.73425
E30  25718731.79205   2310085.57205     -2706.32405        30.61305  25718733.89124   1754583.43424     -2020.96724        25.96424
> 2021 04 08 21 28 39.0000594  0 33                      
G02  22274024.41407  -2532531.44507      2102.05407        42.97207                                                                
G03                        -1.86922       -80.97622        15.40922                                                                
G06  21004132.64206  -1183011.21206       731.45306        38.73106  21004128.74424   -885281.90124       546.88524        26.26824
G12  22721059.63806  -4905786.84906      1930.54606        41.25206                                                                
G13  24997369.38106   3298293.10306     -3858.76206        36.93106                                                                
G14  23761109.82614   3461887.38814     -3244.03714        27.33214                                                                
G15  25137809.25707   5513736.82707     -3310.95007        42.22507                                                                
G17  22445214.60105   3440861.79705     -3198.48305        32.57505                                                                
G19  20561876.70907   2222488.14207     -2252.38007        44.47907                                                                
G24  20955446.04707   -193458.31407      -157.09507        46.72807  20955447.24605   -148038.05005      -117.49405        33.54505
R14  21620246.91507  -3406390.39207      2716.34507        42.72507
R13  19295617.52224     83320.89124      -403.02324        27.79724
R12  21515137.28005   4270421.68205     -3584.31105        33.25305
R24  20377280.70207  -2726732.30207      2156.22107        44.43107
R23  19023171.83208    489942.92708      -904.98608        47.89008
C04                    743519.00024      -665.37224        24.31224
C06  41051973.51005     66631.93105      -133.45405        34.99405
C11  24772618.27323   2944266.33823     -3476.13723        23.00623
C16  41459114.75205       187.99805       -10.85205        35.16805
C23  22200955.39807   1878358.04907     -1944.74507        43.79907
C25  25748964.36306   3964753.35106     -3723.51606        40.34106
C27  25270247.67207  -2683210.20707      2374.23007        45.15907
C28  21870502.26606   -753368.02506       446.83306        37.51406
C34  26914277.73305   2932390.07305     -3784.88505        31.57305
C37  22666562.16607  -1291312.43507      1013.43807        43.16007
E13  24232150.93105  -1828795.73005      1494.98205        34.14405  24232145.83505  -1363934.11505      1116.26105        33.02705
E15  23691858.96706   1147738.87106     -1307.61806        41.11306  23691863.76414    858103.27214      -977.00714        26.23714
E18  19250842.31905   3027117.79205     -3440.03605        33.59705  19250823.13205   2262582.66505     -2569.14905        30.39405
E19                      2593.95622     -2434.14422        16.70722                                                                
E21  25131789.42405  -3733305.29705      1177.13605        35.20705  25131791.82324  -2809010.24524       878.03524        24.59424
E26                       -29.71724      2467.31524        26.64124                                                                
E27  23502235.74106    824544.35806      -871.93306        36.52106  23502235.14124    615265.45924      -649.75524        28.98924
E30  25719093.94204   2312791.75104     -2705.86104        29.39104  25719099.93824   1756604.20424     -2021.40124        25.75024
> 2021 04 08 21 28 40.0000590  0 33                      
G02  22273505.17307  -2534633.30507      2101.64007        43.14507                                                                
G03                        -1.86721       -80.97621        12.00021                                                                
G06  21003874.22006  -1183741.60506       729.80906        36.82806  21003871.22305   -885827.28605       545.30305        30.51605
G12  22720570.37606  -4907717.27006      1930.53606        39.97006                                                                
G13  24997983.95606   3302151.81906     -3858.66006        37.71906                                                                
G14  23761625.46925   3465132.87425     -3245.51025        30.24925                                                                
G15  25138316.80506   5517047.63406     -3310.71106        41.23506                                                                
G17  22445709.55925   3444060.07025     -3199.53725        31.45025                                                                
G19  20562185.19507   2224740.89507     -2253.00507        44.22907                                                                
G24  20955357.60807   -193300.97207      -157.52107        47.16307  20955357.30805   -147920.55505      -117.91305        33.22005
R14  21619614.95207  -3409106.59507      2716.03707        43.26907
R13  19295535.37904     83722.98304      -402.36104        28.83404
R12  21515700.59006   4274006.37006     -3585.19706        35.53606
R24  20376740.77607  -2728887.98107      2155.33807        44.01107
R23  19023224.59607    490848.40807      -905.94407        47.47707
C04                    744194.87324      -665.37224        27.54124
C06  41051874.87805     66765.82005      -133.96805        35.35405
C11  24773168.39223   2947737.51823     -3475.05223        23.35923
C16  41458997.23305       198.90005       -10.97405        34.67005
C23  22201209.02307   1880303.11507     -1945.23007        45.78407
C25  25749562.44907   3968477.06607     -3724.17607        41.66007
C27  25269669.37207  -2685584.22407      2373.98407        43.67607
C28  21870295.11006   -753814.05206       445.38706        36.59306
C34  26914890.20905   2936174.79405     -3784.48305        31.43305
C37  22666249.48207  -1292325.82007      1013.27507        44.47707
E13  24231747.41005  -1830290.34705      1494.66205        34.79405  24231740.81505  -1365050.17905      1115.94205        33.01305
E15  23691989.67706   1149046.98606     -1308.45706        41.04006  23691990.27614    859080.05214      -975.86214        26.94014
E18  19251374.15106   3030558.53406     -3441.17606        35.55606  19251357.66225   2265152.11225     -2570.27925        31.36025
E19                      2594.01323     -2434.14423        21.23523                                                                
E21  25131433.27105  -3734482.45405      1176.67005        33.87305  25131447.66124  -2809889.25524       878.47424        26.03024
E26                       -29.77524      2467.31524        26.93124                                                                
E27  23502277.71206    825416.79806      -872.84606        36.14506  23502280.11005    615916.69305      -651.35005        30.61905
E30  25719486.37004   2315498.07604     -2706.08004        29.38104  25719494.76424   1758625.04524     -2021.83024        25.15324
> 2021 04 08 21 28 41.0000586  0 33                      
G02  22272983.83406  -2536734.89106      2100.99706        41.49306                                                                
G03                        -1.85621       -81.95121        12.00021                                                                
G06  21003611.90206  -1184471.50806       729.80006        40.04306  21003611.90205   -886372.30805       544.67505        29.77505
G12  22720079.61606  -4909647.57406      1929.99406        37.66906                                                                
G13  24998599.43006   3306010.36606     -3858.37706        38.46206                                                                
G14  23762116.22924   3468378.60024     -3248.00824        28.47924                                                                
G15  25138825.55306   5520358.46506     -3310.68706        41.41706                                                                
G17  22446205.71525   3447258.91425     -3199.66325        30.57625                                                                
G19  20562495.18107   2226993.95607     -2253.38807        43.37107                                                                
G24  20955267.37007   -193142.97607      -158.53707        46.15507  20955268.27005   -147802.62105      -118.07405        31.91105
R14  21618995.28107  -3411822.68507      2716.12107        41.75207
R13  19295505.40004     84125.80204      -402.98204        29.06604
R12  21516269.29705   4277591.34205     -3585.53905        33.25205
R24  20376228.73007  -2731043.15907      2154.76307        44.90307
R23  19023274.36107    491754.68107      -906.75307        47.16207
C04                    744855.37424      -665.37224        25.85624
C06  41051781.94306     66899.74306      -134.04506        35.78906
C11  24773717.31225   2951211.22925     -3474.29525        29.81425
C16  41458878.81525       209.84525       -11.34625        31.69525
C23  22201463.54707   1882248.50207     -1945.61507        44.40207
C25  25750155.73806   3972200.73206     -3724.00506        40.12806
C27  25269094.97007  -2687958.08107      2373.78307        45.59707
C28  21870093.94906   -754259.80506       445.05706        37.29306
C34  26915484.69805   2939959.55905     -3784.87705        30.87105
C37  22665936.19907  -1293338.77707      1012.84007        43.67007
E13  24231340.89206  -1831784.54606      1494.32706        36.21506  24231336.69505  -1366166.01205      1115.97105        33.27505
E15  23692117.08906   1150355.44006     -1308.70306        40.82106  23692119.78724    860057.14724      -977.44624        24.06624
E18  19251904.18405   3034000.30105     -3442.28705        34.52305  19251893.39224   2267722.19124     -2569.81724        27.43324
E19                      2593.92523     -2435.12023        20.40523                                                                
E21  25131098.10306  -3735659.54306      1176.73906        35.65406  25131103.79924  -2810768.21824       879.21724        23.75324
E26                       -29.67924      2467.31524        27.39824                                                                
E27  23502332.87406    826289.34506      -872.74906        36.83606  23502327.17725    616568.18625      -650.96925        29.54025
E30  25719890.49005   2318204.56605     -2706.83705        30.67905  25719890.49024   1760646.18624     -2023.06224        24.86124
> 2021 04 08 21 28 42.0000581  0 33                      
G02  22272433.41506  -2538836.09306      2101.16006        41.31106                                                                
G03                        -1.85423       -81.95123        19.17223                                                                
G06  21003322.30306  -1185200.85706       728.99606        40.31006  21003324.10105   -886917.01805       544.82605        29.57005
G12  22719565.47205  -4911577.82005      1930.03805        34.41805                                                                
G13  24999183.42506   3309868.80006     -3858.14306        38.42206                                                                
G14  23762587.50325   3471624.27725     -3245.93325        29.85025                                                                
G15  25139307.91907   5523669.22807     -3310.60707        41.81607                                                                
G17  22446674.29125   3450457.89225     -3198.98025        33.22725                                                                
G19  20562776.38607   2229247.41407     -2253.57007        43.36307                                                                
G24  20955148.65207   -192984.40407      -158.84307        47.06207  20955148.35305   -147684.21105      -118.50605        32.47605
R14  21618335.43807  -3414538.61407      2715.90807        41.74207
R13  19295429.85204     84529.18404      -403.24804        29.06404
R12  21516811.32105   4281176.74805     -3585.76005        31.32105
R24  20375669.91707  -2733197.77407      2154.45507        45.39007
R23  19023295.64607    492661.71807      -907.27007        47.35907
C04                    745525.08224      -665.37224        23.90824
C06  41051657.82906     67033.92806      -133.98406        36.72106
C11  24774233.25525   2954685.95025     -3474.81225        31.52025
C16  41458733.71625       221.30425       -12.02725        30.38125
C23  22201686.89207   1884194.32207     -1945.91107        44.00507
C25  25750718.14906   3975924.62606     -3724.00206        39.84906
C27  25268489.08907  -2690331.83007      2373.74207        46.28207
C28  21869856.21406   -754705.20906       445.25606        37.99706
C34  26916052.80405   2943744.20305     -3784.72005        30.19605
C37  22665594.13607  -1294351.45907      1012.55707        43.57907
E13  24230908.29106  -1833278.49706      1493.77306        35.90906  24230902.29505  -1367281.67605      1115.79305        32.72705
E15  23692218.11907   1151664.33507     -1308.99007        41.54807  23692218.71823    861034.60023      -978.25723        22.96023
E18  19252403.63805   3037443.26505     -3443.50205        35.01205  19252399.14114   2270293.36614     -2568.29214        24.69014
E19                      2593.98123     -2435.12023        19.42323                                                                
E21  25130722.76306  -3736836.60806      1177.08406        37.90906                  -2811646.93823       879.73523        21.19323
E26                       -29.73624      2467.31524        28.52924                                                                
E27  23502349.66206    827162.03106      -872.74106        37.11206  23502344.26605    617220.01405      -652.21805        29.54205
E30  25720248.14304   2320911.17704     -2706.25204        28.92404  25720255.93723   1762667.41423     -2022.68723        23.22123
> 2021 04 08 21 28 43.0000577  0 33                      
G02  22271911.47707  -2540936.96907      2100.27007        42.03407                                                                
G03                        -1.84423       -82.92723        19.30923                                                                
G06  21003062.08306  -1185929.62106       728.56806        39.35106  21003064.78105   -887461.17105       543.83905        29.99705
G12  22719066.61705  -4913508.17705      1930.36805        34.89305                                                                
G13  24999799.79906   3313727.05206     -3858.34306        38.87106                                                                
G14  23763087.55705   3474869.84405     -3245.34605        30.11005                                                                
G15  25139817.56606   5526979.92706     -3310.61906        41.25306                                                                
G17  22447165.95005   3453657.51305     -3199.65205        33.53505                                                                
G19  20563085.77207   2231501.17707     -2253.85907        42.83907                                                                
G24  20955059.61407   -192825.23307      -159.85707        47.34307  20955057.51605   -147565.40405      -118.78005        32.86905
R14  21617712.46907  -3417254.40507      2715.48207        41.53607
R13  19295362.99814     84933.19014      -402.70914        27.47514
R12  21517343.15305   4284762.59105     -3586.11205        31.07105
R24  20375144.68107  -2735351.77407      2153.47107        45.09607
R23  19023347.51108    493569.51508      -908.14908        47.64708
C04                    746189.16324      -665.37224        24.73324
C06  41051565.79206     67168.19706      -134.65506        36.63706
C11  24774783.97425   2958160.75425     -3474.71725        31.51725
C16  41458611.10125       232.65125       -11.66325        31.06125
C23  22201941.11607   1886140.54507     -1946.57307        44.71407
C25  25751316.83406   3979648.63606     -3724.10006        40.75106
C27  25267913.18807  -2692705.48707      2373.59107        45.73507
C28  21869648.45706   -755150.25106       445.28306        38.06106
C34  26916649.39105   2947528.74305     -3784.43005        30.49405
C37  22665276.95507  -1295363.87307      1012.11807        43.29107
E13  24230502.97206  -1834772.07406      1493.50706        36.31306  24230497.87505  -1368396.94005      1114.85005        32.89605
E15  23692346.43006   1152973.60006     -1309.35306        41.17406  23692348.22924    862012.25024      -978.03524        24.67824
E18  19252939.36705   3040887.35905     -3444.90805        35.01405  19252933.07224   2272865.21024     -2572.29224        25.29524
E19                      2594.03923     -2435.12023        22.15823                                                                
E21  25130382.79806  -3738013.56606      1176.77306        38.46306                  -2812517.61823       879.42423        19.57923
E26                       -29.79424      2467.31524        28.31524                                                                
E27  23502391.33306    828034.88006      -872.96206        37.25706  23502391.33324    617871.81724      -651.58924        28.92324
E30  25720643.86904   2323617.91704     -2707.03904        29.14904  25720651.06424   1764688.61924     -2022.53924        23.88524
> 2021 04 08 21 28 44.0000573  0 33                      
G02  22271393.43507  -2543037.53607      2100.07907        42.72507                                                                
G03                        -1.84223       -82.92723        19.39723                                                                
G06  21002801.86306  -1186657.97406       727.99606        36.88606  21002805.16125   -888004.99425       543.03225        30.60225
G12  22718580.95406  -4915438.36206      1930.16606        38.72606                                                                
G13  25000415.27306   3317585.07406     -3858.00706        39.70706                                                                
G14                   3478115.98824     -3246.55224        26.54524                                                                
G15  25140329.01206   5530290.52406     -3310.58306        40.94706                                                                
G17  22447646.51805   3456856.52005     -3199.07605        33.82405                                                                
G19  20563391.56007   2233755.27007     -2254.24707        41.63507                                                                
G24  20954970.57608   -192665.54808      -160.25508        47.69208  20954968.17705   -147446.10805      -119.53605        32.17605
R14  21617085.60307  -3419970.17907      2715.68707        42.06607
R13  19295321.92724     85341.08024      -405.12324        27.60024
R12  21517889.97505   4288348.51605     -3586.41705        29.83805
R24  20374627.83907  -2737505.19307      2153.14107        44.76007
R23  19023400.87407    494478.08507      -909.16407        46.41007
C04                    746862.90424      -665.37224        25.60224
C06  41051472.55706     67302.54906      -134.39206        36.15706
C11  24775329.89624   2961635.60724     -3474.68324        29.37424
C16  41458496.28025       244.11325       -11.39225        33.47125
C23  22202195.94007   1888087.10107     -1946.64107        44.54407
C25  25751911.32306   3983372.74506     -3724.32206        40.25806
C27  25267337.28607  -2695079.01407      2373.38807        44.49807
C28  21869448.49606   -755594.71006       444.64806        36.75706
C34  26917257.97005   2951313.31105     -3784.67905        30.12205
C37  22664963.67207  -1296376.01007      1011.82107        43.57907
E13  24230097.95206  -1836265.49606      1493.85306        35.76806  24230094.95405  -1369512.12405      1115.13005        33.41005
E15  23692473.54206   1154283.31306     -1310.02606        39.80506  23692477.73924    862990.21724      -978.74324        26.01324
E18  19253474.79705   3044332.50805     -3445.27105        34.18305  19253469.10124   2275437.82724     -2573.08224        27.13424
E19                      2593.94423     -2435.12023        21.17523                                                                
E21  25130035.63806  -3739190.65806      1177.14506        36.70806                  -2813396.22923       878.89723        21.23923
E26                       -29.69825      2467.31525        29.88425                                                                
E27  23502437.50106    828907.93806      -873.06906        36.50306  23502436.00204    618523.77404      -652.31904        28.59504
E30  25721044.69104   2326324.64204     -2705.98704        28.21904  25721046.79024   1766709.95724     -2021.31924        24.42124
> 2021 04 08 21 28 45.0000569  0 33                      
G02  22270874.19506  -2545137.86206      2100.18506        41.29706                                                                
G03                        -1.82623       -83.90223        19.48423                                                                
G06  21002543.14206  -1187385.46806       727.45106        37.10006  21002545.54004   -888548.50704       544.28204        28.70404
G12  22718099.48706  -4917368.47806      1929.60506        38.19206                                                                
G13  25001031.04606   3321443.00306     -3858.00406        38.67606                                                                
G14  23764102.05424   3481361.77724     -3245.64924        26.28324                                                                
G15  25140839.25906   5533601.16706     -3310.42206        39.86406                                                                
G17  22448135.47905   3460055.64005     -3199.04005        33.06305                                                                
G19  20563700.04707   2236009.81107     -2254.64707        42.06607                                                                
G24  20954880.33807   -192505.26407      -160.40807        46.29407  20954879.13905   -147326.46005      -119.41505        30.78005
R14  21616452.14207  -3422685.74507      2715.40107        41.84207
R13  19295251.17624     85749.24924      -404.01524        25.62024
R12  21518433.49805   4291935.06705     -3587.03505        32.34605
R24  20374098.70507  -2739657.98507      2152.80707        43.87607
R23  19023440.44607    495387.46407      -909.92307        47.04007
C04                    747524.09823      -665.37223        23.24923
C06  41051376.02405     67437.00505      -134.41805        35.01105
C11  24775869.82225   2965110.64925     -3474.89525        30.04325
C16  41458376.36305       255.72405       -11.38205        34.18105
C23  22202451.06307   1890034.07507     -1947.20107        43.71207
C25  25752510.00806   3987097.00006     -3724.95806        40.76906
C27  25266760.48607  -2697452.37707      2373.23407        44.23607
C28  21869244.93726   -756038.88426       443.29226        35.88026
C34  26917867.44805   2955097.79705     -3784.66305        30.40305
C37  22664647.69107  -1297387.77807      1011.74107        42.68007
E13  24229695.03106  -1837758.36306      1492.60106        37.12606  24229691.73305  -1370627.03805      1114.90805        33.31005
E15  23692609.34806   1155593.40106     -1310.07406        41.01706  23692607.24924    863968.68924      -978.05724        23.75624
E18  19254005.13005   3047778.82205     -3446.74905        33.88105  19254006.02924   2278011.44424     -2577.85924        26.66524
E19                      2594.00823     -2436.09523        20.31223                                                                
E21  25129697.47206  -3740367.50806      1176.61006        36.01206                  -2814274.92623       877.90823        21.26423
E26                       -29.75624      2467.31524        29.47024                                                                
E27  23502482.77006    829781.11106      -872.76106        35.62606  23502483.07004    619175.81504      -652.08504        29.01604
E30  25721443.41505   2329031.67705     -2706.61805        30.39105  25721441.61724   1768731.42524     -2020.57224        23.79324
> 2021 04 08 21 28 46.0000564  0 33                      
G02  22270324.37507  -2547237.58407      2099.45907        42.49207                                                                
G03                        -1.80221       -85.85421        12.00021                                                                
G06  21002254.14206  -1188112.38106       726.75406        39.80306  21002258.33904   -889091.34104       542.91904        27.56204
G12  22717581.14606  -4919298.43006      1929.62606        36.77906                                                                
G13  25001617.44006   3325300.79106     -3857.83406        38.42306                                                                
G14  23764565.23414   3484608.13114     -3249.18914        27.46814                                                                
G15  25141320.12606   5536911.81806     -3310.72606        40.03806                                                                
G17  22448600.15725   3463254.44925     -3199.35925        31.75425                                                                
G19  20563981.25207   2238264.79307     -2255.42107        41.60607                                                                
G24  20954760.42107   -192344.20607      -161.32207        46.78907  20954759.82205   -147206.16305      -120.44505        32.46205
R14  21615795.89607  -3425401.12107      2715.05307        44.63507
R13  19295184.92124     86158.18424      -402.50824        27.85924
R12  21518934.15205   4295522.01005     -3587.13205        34.89405
R24  20373545.28807  -2741810.09007      2152.09607        45.44907
R23  19023476.42107    496297.73707      -910.77207        47.03907
C04                    748192.71424      -665.37224        23.91024
C06  41051255.80706     67571.75006      -134.70406        35.53206
C11  24776390.86224   2968585.82724     -3475.09724        28.51724
C16  41458228.86505       267.57505       -11.85805        34.11405
C23  22202675.60807   1891981.53907     -1947.66307        44.61507
C25  25753073.91806   3990821.37906     -3724.38606        41.23606
C27  25266154.90507  -2699825.53707      2373.08607        45.52807
C28  21869005.70206   -756482.53106       443.17906        35.61206
C34  26918444.54905   2958882.33205     -3784.72305        31.91505
C37  22664303.52907  -1298399.23507      1011.43207        43.65307
E13  24229265.42906  -1839250.83306      1492.05406        37.11606  24229257.03405  -1371741.61505      1114.39005        33.83805
E15  23692708.87907   1156904.08907     -1310.88507        43.05007  23692706.48124    864947.49524      -979.10324        23.90124
E18  19254512.07906   3051226.33506     -3448.34206        36.22706  19254510.28024   2280585.72524     -2574.47124        28.20624
E19                      2593.91923     -2437.07123        20.77323                                                                
E21  25129318.83506  -3741544.44006      1176.83606        36.52106                  -2815153.52023       877.42823        22.76923
E26                       -29.65324      2466.33924        29.35324                                                                
E27  23502498.35906    830654.66906      -873.26806        38.73406  23502499.85825    619828.19725      -652.11625        30.29925
E30  25721822.05305   2331738.97405     -2708.59205        31.57805  25721805.86424   1770752.98124     -2019.90324        23.94624
> 2021 04 08 21 28 47.0000560  0 33                      
G02  22269806.93307  -2549337.03207      2099.04707        43.93507                                                                
G03                        -1.81423       -84.87823        19.71423                                                                
G06  21001992.42306  -1188838.60006       725.99306        38.42706  21002002.01724   -889633.68324       542.30924        26.65624
G12  22717092.18405  -4921228.33705      1929.56505        34.62805                                                                
G13  25002236.21206   3329158.51106     -3857.75206        38.21706                                                                
G14  23765040.70514   3487854.44914     -3248.13414        28.13814                                                                
G15  25141831.57206   5540222.46306     -3310.55806        40.01606                                                                
G17  22449084.32225   3466453.85525     -3199.53225        33.18825                                                                
G19  20564289.13906   2240520.12906     -2255.61906        40.77406                                                                
G24  20954671.38307   -192182.49107      -162.15907        47.05307  20954670.78305   -147085.38605      -121.32305        33.25605
R14  21615166.63207  -3428116.32007      2715.01307        45.16707
R13  19295153.74304     86564.69004      -406.08504        28.99104
R12  21519477.07605   4299109.60705     -3587.91405        34.34205
R24  20373022.15007  -2743961.59307      2151.17307        45.64507
R23  19023517.19307    497208.84007      -911.65207        46.60507
C04                    748857.14624      -665.37224        23.73024
C06  41051161.67205     67706.53605      -134.82205        35.25005
C11  24776928.38924   2972061.06824     -3476.14524        27.13224
C16  41458112.54605       279.57105       -11.74905        34.31905
C23  22202927.13307   1893929.45907     -1948.08607        44.02707
C25  25753668.10706   3994545.99706     -3724.48706        40.86906
C27  25265576.90507  -2702198.49107      2372.96107        44.86707
C28  21868802.14306   -756925.73206       442.81606        36.52706
C34  26919057.32405   2962666.79405     -3784.41805        32.30705
C37  22663991.44507  -1299410.24107      1010.64507        43.58207
E13  24228846.61906  -1840743.18806      1492.16206        35.75106  24228852.61405  -1372855.95405      1114.13505        33.88305
E15  23692835.69107   1158215.19207     -1311.56007        41.87807  23692835.99124    865926.37524      -980.61024        24.86624
E18  19255049.00706   3054674.98406     -3449.50806        38.21306  19255047.20804   2283161.05404     -2575.77704        28.53704
E19                      2593.96923     -2436.09523        19.11423                                                                
E21  25128974.67306  -3742721.10406      1176.44306        36.99006  25128981.26823  -2816032.43323       878.37723        22.16723
E26                       -29.71724      2467.31524        29.21624                                                                
E27  23502550.22306    831528.56006      -874.12206        39.23106  23502545.42625    620480.71925      -652.52725        30.02825
E30  25722214.48125   2334446.22825     -2706.90925        29.69225  25722200.09124   1772774.69524     -2019.89124        24.23924
> 2021 04 08 21 28 48.0000556  0 33                      
G02  22269287.69307  -2551436.10807      2098.88907        43.82607                                                                
G03                        -1.79823       -85.85423        21.53523                                                                
G06  21001736.40006  -1189564.26206       725.32206        39.01906  21001744.19524   -890175.59624       543.10924        25.66524
G12  22716609.21905  -4923158.18905      1929.40305        34.60405                                                                
G13  25002851.68606   3333016.02206     -3857.44506        38.23206                                                                
G14  23765540.45924   3491100.86324     -3246.60424        29.01324                                                                
G15  25142339.12106   5543533.12706     -3310.55906        38.77306                                                                
G17  22449582.27825   3469653.46925     -3199.19825        31.72325                                                                
G19  20564597.62506   2242775.81306     -2255.91606        41.07206                                                                
G24  20954584.14308   -192020.20208      -162.66608        48.08108  20954581.74525   -146964.24525      -121.08225        32.07225
R14  21614531.67107  -3430831.31607      2714.75007        44.07307
R13  19295118.06804     86971.96104      -407.97404        28.71204
R12  21520028.99405   4302697.53905     -3587.30305        32.40405
R24  20372494.51607  -2746112.51607      2150.55307        44.18207
R23  19023573.25407    498120.75307      -912.32207        46.22007
C04                    749523.76424      -665.37224        24.27524
C06  41051069.33606     67841.54206      -135.11706        35.66806
C11  24777489.00124   2975536.48524     -3474.86024        27.79324
C16  41457999.82405       291.69805       -12.27005        33.40705
C23  22203181.95707   1895877.80207     -1948.62907        43.01407
C25  25754264.39406   3998270.78006     -3725.04606        40.89906
C27  25265002.80307  -2704571.31307      2372.69807        45.23807
C28  21868591.98905   -757368.51405       442.85905        35.28505
C34  26919663.50505   2966451.25205     -3784.28605        32.09405
C37  22663677.26307  -1300420.97107      1010.50207        44.79207
E13  24228451.19206  -1842235.17806      1492.10606        35.77406  24228449.39405  -1373970.08205      1114.19105        34.45405
E15  23692965.20207   1159526.69407     -1311.58207        42.83907  23692965.80124    866905.79524      -980.19224        24.25724
E18  19255584.43606   3058124.82206     -3450.53806        39.32706  19255583.83724   2285737.21324     -2576.72224        28.39524
E19                      2594.02723     -2436.09523        20.29423                                                                
E21  25128629.91206  -3743897.79906      1176.49006        37.87906                  -2816911.03023       878.13723        21.64823
E26                       -29.77525      2467.31525        30.27825                                                                
E27  23502588.89606    832402.54406      -874.09406        40.12306  23502591.59424    621133.44424      -653.25824        29.38724
E30  25722596.71714   2337153.72614     -2706.96314        29.48214  25722594.91824   1774796.45324     -2020.66524        23.50424
> 2021 04 08 21 28 49.0000551  0 33                      
G02  22268741.17107  -2553534.86007      2098.58207        42.87607                                                                
G03                        -1.80223       -85.85423        20.35723                                                                
G06  21001449.49906  -1190289.36306       724.82106        39.70806  21001456.69424   -890717.02324       539.74424        24.83424
G12  22716098.07305  -4925087.96905      1929.93005        34.28305                                                                
G13  25003435.38206   3336873.42706     -3857.16206        39.45306                                                                
G14  23766014.73024   3494347.62424     -3248.11824        28.72824                                                                
G15  25142816.69006   5546843.71706     -3310.53406        38.42906                                                                
G17  22450058.04805   3472853.61705     -3199.60805        30.73305                                                                
G19  20564875.23306   2245031.93806     -2256.48506        40.00606                                                                
G24  20954466.32508   -191857.33808      -163.21208        48.36108  20954463.02705   -146842.57405      -121.90905        32.74905
R14  21613869.72907  -3433546.23707      2714.82307        44.47107
R13  19295036.22405     87379.54305      -407.53305        30.31205
R12  21520547.63505   4306285.96005     -3588.93805        31.34405
R24  20371944.39607  -2748262.90407      2150.28307        43.43407
R23  19023595.43907    499033.42407      -912.99107        46.46307
C04                    750188.99924      -665.37224        25.24124
C06  41050944.02306     67976.66206      -135.49806        35.70106
C11  24778005.54424   2979012.08724     -3476.14724        28.79524
C16  41457852.92605       304.01605       -12.50105        33.67405
C23  22203404.70307   1897826.46507     -1948.70507        43.12307
C25  25754829.80206   4001995.65206     -3724.97506        40.66606
C27  25264396.62207  -2706943.98807      2372.61607        44.59507
C28  21868356.95205   -757810.91105       442.33105        33.89805
C34  26920238.80605   2970235.62805     -3783.96305        32.11005
C37  22663334.30007  -1301431.40207      1010.39507        43.96307
E13  24228005.40105  -1843726.77405      1491.81305        33.56605  24228015.89405  -1375083.93805      1113.79905        35.11505
E15  23693065.93207   1160838.67307     -1312.23807        43.46407  23693066.23224    867885.49424      -980.57624        24.73124
E18  19256089.88606   3061575.75206     -3451.37506        40.56006  19256089.88624   2288314.19924     -2577.41024        28.44024
E19                      2593.93823     -2437.07123        18.72823                                                                
E21  25128254.57106  -3745074.37606      1176.38106        37.76506                  -2817789.22623       878.55323        21.60023
E26                       -29.67825      2467.31525        31.06825                                                                
E27  23502609.28206    833276.74706      -874.34906        40.90806  23502608.08304    621786.25004      -653.39804        29.32804
E30  25722971.45705   2339861.38805     -2708.23705        29.81705  25722960.06524   1776818.43624     -2020.53024        23.52324
> 2021 04 08 21 28 50.0000547  0 33                      
G02  22268222.23107  -2555633.30807      2098.31907        43.02307                                                                
G03                        -1.78623       -86.82923        20.85523                                                                
G06  21001193.77606  -1191013.87106       723.91806        39.73006  21001197.67324   -891258.07324       541.52724        25.75424
G12  22715614.50705  -4927017.57005      1929.16705        33.65005                                                                
G13  25004049.65706   3340730.71006     -3857.65006        39.02106                                                                
G14  23766513.88525   3497594.13825     -3246.76125        30.29625                                                                
G15  25143327.23706   5550154.31006     -3310.63906        38.36906                                                                
G17  22450550.00805   3476053.27705     -3199.68305        29.91005                                                                
G19  20565186.41806   2247288.28406     -2256.79606        39.71206                                                                
G24  20954378.18608   -191693.88108      -163.97508        48.12508  20954373.98905   -146720.52705      -122.33705        33.15505
R14  21613229.97207  -3436261.00307      2714.35407        44.38007
R13  19295016.13805     87787.90205      -408.88705        30.41305
R12  21521101.65105   4309874.78605     -3588.89405        31.08705
R24  20371423.95707  -2750412.67307      2149.45107        44.04207
R23  19023637.71007    499946.90207      -914.07007        46.09307
C04                    750859.26724      -665.37224        25.93424
C06  41050850.48805     68111.87205      -135.66405        35.00505
C11  24778549.66724   2982487.76124     -3475.81624        28.70324
C16  41457734.20805       316.39005       -12.80405        35.00705
C23  22203661.32507   1899775.60007     -1949.44907        43.85307
C25  25755426.38906   4005720.62506     -3725.14006        41.16706
C27  25263821.32007  -2709316.51707      2372.38007        44.28507
C28  21868151.29405   -758252.81305       441.97505        32.70005
C34  26920838.69105   2974020.03105     -3784.66705        31.98005
C37  22663018.01907  -1302441.49907      1009.72107        44.25207
E13  24227611.17405  -1845218.07505      1491.10005        32.87805  24227612.07305  -1376197.56005      1113.66805        34.66205
E15  23693196.04207   1162151.01507     -1312.69707        43.73707  23693196.34124    868865.41824      -982.01624        24.22024
E18  19256627.41406   3065027.80206     -3452.96506        40.96806  19256625.31624   2290892.04224     -2578.14724        28.98524
E19                      2593.99523     -2437.07123        19.21223                                                                
E21  25127909.81006  -3746251.04706      1176.40306        36.74906                  -2818666.22723       879.46723        21.99723
E26                       -29.73625      2467.31525        31.69125                                                                
E27  23502656.94906    834151.13906      -874.66106        41.28606  23502655.15004    622439.16204      -653.34504        29.41804
E30  25723368.98224   2342569.10224     -2709.21924        27.16824  25723354.89224   1778840.43724     -2020.11024        24.21824
> 2021 04 08 21 28 51.0000543  0 33                      
G02  22267702.69007  -2557732.88407      2100.77207        43.41307                                                                
G03                        -1.78923       -86.82923        21.66723                                                                
G06  21000935.05506  -1191738.47106       724.76106        40.03706  21000940.75124   -891799.02824       541.02524        27.47624
G12  22715127.64405  -4928946.33805      1927.82705        34.01305                                                                
G13  25004656.43706   3344586.08906     -3854.47406        36.63106                                                                
G14                   3500840.68524     -3245.55924        28.91824                                                                
G15  25143835.38506   5553463.75306     -3308.34306        39.52506                                                                
G17  22451015.58506   3479254.05606     -3201.63306        35.75306                                                                
G19  20565497.90206   2249545.79706     -2258.23406        40.62406                                                                
G24  20954289.14708   -191529.63308      -164.65308        47.88608  20954285.55005   -146597.89105      -122.73905        33.52705
R14  21612613.29907  -3438974.40007      2712.43207        44.46207
R13  19294977.46505     88197.06405      -409.60605        31.40005
R12  21521667.66005   4313463.02405     -3588.37605        34.33005
R24  20370905.01607  -2752562.95407      2151.01207        45.45107
R23  19023697.36807    500861.21007      -914.54907        46.38907
C04                    751523.46424      -665.37224        24.06624
C06  41050752.15605     68248.70705      -137.54605        33.32605
C11  24779099.18725   2985964.85325     -3477.75825        30.38125
C16  41457615.79005       330.42005       -15.61905        35.12605
C23  22203911.05207   1901724.52507     -1948.72707        44.02607
C25  25756018.47906   4009444.40306     -3722.60506        40.67306
C27  25263248.41707  -2711690.25807      2374.65507        45.37807
C28  21867950.43305   -758694.85905       441.95905        34.78805
C34  26921446.67024   2977807.11524     -3784.37324        28.64024
C37  22662703.53707  -1303450.65807      1008.26407        44.33507
E13  24227208.85205  -1846710.21805      1493.23505        32.83905  24227208.25305  -1377311.85305      1115.05505        34.70305
E15  23693325.85207   1163464.16707     -1313.94007        42.68907  23693326.45124    869846.06724      -982.18624        25.30624
E18  19257159.24607   3068481.83707     -3455.06707        41.69507  19257163.74304   2293471.32304     -2579.91404        28.86304
E19                      2594.05223     -2437.07123        17.80123                                                                
E21  25127571.04506  -3747426.79706      1175.65506        36.14406                  -2819540.99323       877.24023        23.11323
E26                       -29.79425      2467.31525        31.57525                                                                
E27  23502699.81906    835025.94306      -875.01906        39.00606  23502701.61824    623092.42024      -653.43224        29.02224
E30  25723747.92004   2345276.52104     -2707.10204        28.83204  25723749.71924   1780862.11124     -2020.96224        23.74324
> 2021 04 08 21 28 52.0000539  0 33                      
G02  22267179.85207  -2559834.52207      2102.65007        43.59907                                                                
G03                        -1.77423       -87.80523        20.88623                                                                
G06  21000679.03207  -1192463.37307       724.92507        41.75107  21000682.03004   -892340.40904       541.95304        27.90704
G12  22714637.48406  -4930873.89906      1926.99906        37.21106                                                                
G13  25005271.61125   3348438.59725     -3851.75925        33.15725                                                                
G14  23767487.31124   3504089.80224     -3245.76124        29.03324                                                                
G15  25144345.93207   5556771.20007     -3306.29807        42.57107                                                                
G17  22451505.44606   3482456.66406     -3203.72706        35.89406                                                                
G19  20565805.18906   2251804.92606     -2259.74306        40.65906                                                                
G24  20954200.40907   -191364.44707      -165.80207        47.19307  20954196.81105   -146474.54205      -123.24705        33.30005
R14  21611985.23407  -3441685.37107      2709.52407        43.85007
R13  19294914.50905     88607.40105      -410.88105        30.60005
R12  21522213.28206   4317050.27306     -3586.77106        38.57006
R24  20370380.67907  -2754714.43107      2151.38007        45.79307
R23  19023739.04007    501776.48207      -915.65607        45.95307
C04                    752191.09124      -665.37224        24.44424
C06  41050656.82205     68388.17605      -140.54205        32.58905
C11  24779658.30024   2989442.96824     -3478.75724        26.84624
C16  41457499.77025       347.23925       -18.59925        31.79025
C23  22204167.67507   1903672.94007     -1948.18207        43.58807
C25  25756613.26806   4013166.34106     -3721.13706        41.01706
C27  25262672.21607  -2714066.01907      2376.55307        45.48507
C28  21867748.37306   -759137.29906       442.42706        35.53706
C34  26922051.05225   2981595.88225     -3787.47725        30.29625
C37  22662389.65407  -1304458.43507      1007.10607        43.76407
E13  24226805.93115  -1848203.97215      1490.36215        30.57615  24226804.13205  -1378427.32305      1116.24905        34.81205
E15  23693458.36007   1164778.29607     -1314.60007        41.87307  23693456.56124    870827.43924      -981.34924        26.43524
E18  19257706.06807   3071938.52907     -3457.95207        42.34807  19257701.87005   2296052.64205     -2582.47205        29.83605
E19                      2593.95721     -2437.07121        12.00021                                                                
E21  25127231.38006  -3748600.75006      1173.12706        36.10806  25127233.17824  -2820415.92124       878.52324        23.65524
E26                       -29.70425      2468.29025        31.34425                                                                
E27  23502747.78606    835901.45106      -875.70006        37.58506  23502747.18724    623746.27324      -654.03424        29.08124
E30  25724144.54525   2347983.08325     -2705.90425        29.97525  25724145.14524   1782883.34424     -2021.82024        23.90624
> 2021 04 08 21 28 53.0000534  0 33                      
G02  22266629.73307  -2561937.62707      2103.22407        44.68907                                                                
G03                        -1.73123       -90.73223        23.14123                                                                
G06  21000393.33007  -1193188.59807       725.19807        42.51207  21000394.82905   -892881.93705       541.32405        29.95105
G12  22714122.14006  -4932800.12406      1925.17806        37.61006                                                                
G13  25005847.21225   3352288.40625     -3848.38925        31.12425                                                                
G14  23767977.77124   3507335.96524     -3242.24824        28.27424                                                                
G15  25144824.70006   5560077.75706     -3305.90206        41.34906                                                                
G17  22451964.12906   3485660.64606     -3204.77106        38.12906                                                                
G19  20566085.19506   2254065.29106     -2261.21506        40.89106                                                                
G24  20954082.29107   -191198.23007      -167.13507        47.00807  20954078.99305   -146350.33305      -124.83205        33.55905
R14  21611330.48706  -3444394.47906      2707.82806        41.05806
R13  19294852.15224     89018.62424      -411.51324        29.28924
R12  21522741.81607   4320636.70907     -3585.98207        42.29007
R24  20369832.35807  -2756866.67207      2152.47207        47.03207
R23  19023760.62507    502692.66807      -916.80607        46.23107
C04                    752852.88723      -663.42123        22.47123
C06  41050538.10405     68529.72805      -142.46205        34.63605
C11  24780172.44425   2992919.81225     -3484.76125        31.06725
C16  41457352.57225       364.09025       -20.43525        32.09625
C23  22204389.82107   1905621.05507     -1948.00007        42.95207
C25  25757177.47706   4016886.64906     -3719.84106        41.39306
C27  25262063.93707  -2716442.93607      2376.34307        43.41607
C28  21867514.53506   -759579.82806       442.41106        38.08506
C34                   2985384.97525     -3791.34225        29.84725
C37  22662048.19007  -1305464.89907      1005.56407        44.05807
E13  24226374.23024  -1849701.50024      1491.43924        26.78424  24226369.73305  -1379543.55405      1116.33805        34.95605
E15  23693560.88906   1166093.10106     -1315.01106        41.26606  23693556.99224    871809.32524      -981.80124        26.55024
E18  19258207.32007   3075397.25407     -3459.84707        42.06307  19258209.41905   2298635.38505     -2583.52705        31.19005
E19                      2594.02122     -2438.04622        12.91322                                                                
E21  25126855.74005  -3749773.52705      1172.27305        34.93005  25126858.73824  -2821293.06224       878.28324        24.43624
E26                       -29.77925      2471.21725        31.85025                                                                
E27  23502766.07406    836777.44006      -876.89806        37.12606  23502764.27504    624400.37104      -654.18504        28.72504
E30  25724514.18905   2350688.88205     -2704.92505        30.76205  25724511.49124   1784903.56824     -2021.41324        25.08624
> 2021 04 08 21 28 54.0000530  0 33                      
G02  22266109.59307  -2564041.40407      2104.32507        45.36407                                                                
G03                        -1.70723       -92.68323        21.50923                                                                
G06  21000134.60906  -1193913.90206       725.67606        41.18506  21000137.30705   -893423.56105       541.88605        32.10505
G12  22713637.37606  -4934724.94206      1924.46806        36.30306                                                                
G13  25006454.89224   3356137.96224     -3853.28024        29.47924                                                                
G14  23768482.62225   3510581.66725     -3245.18425        30.46625                                                                
G15  25145334.64706   5563383.99106     -3306.89706        40.72006                                                                
G17  22452436.00206   3488865.21306     -3205.17906        39.43806                                                                
G19  20566397.27906   2256326.32406     -2261.03506        39.50706                                                                
G24  20953992.95307   -191030.90607      -167.51407        45.32707  20953990.55405   -146225.39305      -125.20305        33.11705
R14  21610692.82906  -3447102.29006      2707.50206        38.82306
R13  19294796.39024     89430.56624      -409.98124        27.49024
R12  21523287.73807   4324222.40207     -3585.15107        41.58707
R24  20369310.42008  -2759018.78808      2152.11908        48.91508
R23  19023817.28507    503609.67407      -916.92407        46.12807
C04                    753520.03524      -663.42124        24.75524
C06  41050445.46825     68672.87925      -143.63625        33.52725
C11  24780718.66525   2996401.23025     -3481.08625        30.73825
C16  41457241.64925       384.45725       -19.79025        29.66125
C23  22204646.14307   1907568.94707     -1948.08207        41.75807
C25  25757775.86306   4020605.84106     -3718.76806        39.77106
C27  25261489.23507  -2718820.21707      2377.85807        43.95507
C28  21867306.17906   -760021.98006       441.52506        38.64006
C34  26923218.14424   2989172.23824     -3789.33424        26.95624
C37  22661736.40607  -1306470.36307      1005.41007        45.22707
E13  24225968.91124  -1851208.09124      1492.70724        25.09324  24225965.61305  -1380660.17305      1116.71105        34.89605
E15  23693688.60106   1167408.39706     -1315.28006        40.22406  23693687.40224    872791.43324      -981.69624        26.28524
E18  19258746.94726   3078856.98226     -3460.45926        37.77026  19258749.64505   2301219.20405     -2584.36705        31.13005
E19                      2593.92623     -2438.04623        19.71223                                                                
E21  25126518.77305  -3750945.20405      1172.18405        34.03605  25126514.57624  -2822167.78424       876.30124        26.84424
E26                       -29.69425      2473.16825        30.82125                                                                
E27  23502812.54106    837653.51006      -875.93106        37.47006  23502811.04204    625054.71704      -654.71604        29.16504
E30  25724916.81105   2353393.75305     -2704.73105        32.33905  25724907.21724   1786923.62024     -2019.60524        26.52524
> 2021 04 08 21 28 55.0000526  0 33                      
G02  22265589.75307  -2566145.33707      2104.01007        44.63007                                                                
G03                        -1.67823       -94.63423        20.15923                                                                
G06  20999878.28706  -1194639.09606       724.76406        38.02006  20999878.58705   -893965.00705       541.53705        32.16205
G12  22713151.41206  -4936649.37806      1923.86406        37.21506                                                                
G13  25007076.96105   3359986.59605     -3848.70505        35.46005                                                                
G14  23768979.67825   3513827.73325     -3248.56925        31.12825                                                                
G15  25145842.79507   5566689.95507     -3306.66707        41.59007                                                                
G17  22452924.06406   3492069.73506     -3204.01906        38.45106                                                                
G19  20566709.36306   2258587.87106     -2262.09806        37.66906                                                                
G24  20953902.11507   -190862.73907      -168.24807        43.51307  20953902.71505   -146099.83805      -125.44905        32.53305
R14  21610070.46025  -3449808.74825      2704.76925        34.84125
R13  19294760.71524     89845.57624      -414.42324        26.17224
R12  21523836.35806   4327808.04706     -3585.69506        41.47306
R24  20368786.08308  -2761170.60808      2151.90508        49.13008
R23  19023863.75307    504527.51707      -918.17307        46.14607
C04                    754181.32023      -663.42123        23.42723
C06  41050350.43425     68817.45025      -145.33325        29.61525
C11  24781265.78725   2999884.92525     -3479.29025        30.85825
C16  41457126.52924       404.85324       -15.00124        27.46424
C23  22204897.96907   1909516.99007     -1948.21507        42.57207
C25  25758371.25106   4024324.26206     -3718.12006        38.31206
C27  25260911.53507  -2721197.59307      2377.58507        44.55707
C28  21867104.41906   -760463.98706       441.59906        39.14306
C34  26923810.53424   2992961.46424     -3786.54324        28.52124
C37  22661421.92407  -1307475.18407      1004.61507        44.45207
E13  24225563.89124  -1852714.24224      1494.95624        29.21224  24225560.59305  -1381776.91305      1117.01805        34.51505
E15  23693820.21006   1168724.05006     -1315.95406        40.76706  23693818.11124    873773.82424      -983.06724        26.35624
E18  19259286.87325   3082318.26625     -3462.32825        34.75325  19259288.37224   2303803.75324     -2587.60824        27.86724
E19                      2593.99023     -2439.02223        20.49623                                                                
E21  25126172.81325  -3752116.06625      1171.70025        30.83325  25126170.41424  -2823042.38824       874.80924        29.43324
E26                       -29.76425      2475.12025        31.29925                                                                
E27  23502860.80806    838529.85306      -876.12906        39.38606  23502857.51004    625709.12504      -654.71004        29.30404
E30  25725296.04805   2356098.51405     -2704.25305        33.55805  25725302.94324   1788943.39924     -2020.03424        25.21524
> 2021 04 08 21 28 56.0000521  0 33                      
G02  22265037.83507  -2568248.96607      2103.64107        43.75007                                                                
G03                        -1.66223       -95.61023        20.44423                                                                
G06  20999593.78406  -1195363.46106       723.81806        35.91806  20999589.58705   -894505.95405       540.47605        31.95705
G12  22712636.06906  -4938573.73606      1924.08306        37.93006                                                                
G13  25007656.46006   3363834.89806     -3849.20906        36.09306                                                                
G14  23769443.15715   3517073.35415     -3248.05915        31.16715                                                                
G15  25146320.96406   5569995.79306     -3305.40706        41.20606                                                                
G17  22453382.44706   3495274.57706     -3204.75606        36.72006                                                                
G19  20566988.77006   2260849.99906     -2262.64706        36.15306                                                                
G24  20953783.69707   -190693.91907      -169.03007        42.25307  20953785.49605   -145973.72905      -126.66205        32.74805
R14  21609419.31025  -3452515.29825      2708.75025        33.68625
R13  19294696.56024     90263.64524      -414.74524        25.08824
R12  21524365.19207   4331394.10207     -3586.09807        41.90607
R24  20368234.16508  -2763321.92708      2151.16608        48.56308
R23  19023890.73407    505446.24607      -919.33807        46.24407
C04                    754847.54823      -663.42123        19.63423
C06  41050224.52124     68961.43024      -143.54924        28.45124
C11  24781786.52625   3003366.63325     -3481.24325        32.72825
C16  41456987.72524       421.61824       -10.18624        23.95724
C23  22205124.91207   1911465.48007     -1948.91607        42.77107
C25  25758930.66306   4028043.00006     -3718.45906        37.48106
C27  25260306.25406  -2723574.77606      2376.62006        40.80506
C28  21866866.38306   -760905.48206       440.68906        37.97906
C34  26924375.04324   2996751.88624     -3787.17024        27.62724
C37  22661079.26107  -1308479.54507      1004.25707        44.38907
E13  24225133.98925  -1854209.74025      1497.87425        30.97225  24225126.79405  -1382893.38305      1116.19405        33.95305
E15  23693921.24006   1170040.25406     -1316.61806        39.82306  23693918.24224    874756.79124      -982.81824        24.68924
E18  19259795.02125   3085780.78925     -3457.45725        30.55425  19259797.42024   2306389.36824     -2589.35524        24.88524
E19                      2594.04723     -2439.02223        19.60323                                                                
E21  25125802.56924  -3753290.31124      1169.15124        27.99024  25125797.77204  -2823916.85304       874.63204        29.05704
E26                       -29.82725      2476.09525        33.17225                                                                
E27  23502876.99706    839406.59006      -876.89606        40.02906  23502874.29904    626363.82304      -655.36704        29.47804
E30  25725667.19125   2358803.54625     -2704.07825        31.08625  25725667.49123   1790963.17723     -2019.32123        22.90623
> 2021 04 08 21 28 57.0000517  0 33                      
G02  22264519.19407  -2570352.36407      2102.86107        44.35507                                                                
G03                        -1.66622       -95.61022        15.29822                                                                
G06  20999332.06525  -1196088.78325       724.00925        34.37025  20999332.06505   -895046.39305       539.98005        31.99405
G12  22712147.10806  -4940498.01506      1924.38306        38.73406                                                                
G13  25008269.23506   3367682.54106     -3847.77106        37.95106                                                                
G14  23769940.51314   3520319.13914     -3245.43814        29.32714                                                                
G15  25146830.31206   5573301.26006     -3305.08806        41.17006                                                                
G17  22453868.71006   3498479.96806     -3205.65906        35.83406                                                                
G19  20567297.85606   2263112.78406     -2262.76106        35.82006                                                                
G24  20953697.65707   -190524.58807      -169.34907        43.38507  20953698.25705   -145847.29705      -126.72305        32.40205
R14  21608819.12625  -3455221.35825      2710.22625        31.71625
R13  19294619.51324     90673.47524      -413.95624        25.52024
R12  21524913.51207   4334980.84407     -3587.42807        43.09207
R24  20367709.22808  -2765472.68808      2150.39008        48.63508
R23  19023939.60107    506365.84707      -919.87507        45.62707
C04                    755509.67823      -663.42123        22.71223
C06  41050140.87924     69105.92224      -140.71524        27.26924
C11  24782332.14805   3006849.01005     -3483.19405        32.84105
C16  41456868.70724       431.99024       -24.86824        27.75724
C23  22205378.23707   1913414.57307     -1949.83807        42.87707
C25  25759526.95106   4031762.00506     -3719.70806        39.22206
C27  25259726.45507  -2725952.38607      2377.20907        42.56607
C28  21866661.92506   -761346.73406       441.29806        38.09706
C34  26924989.01824   3000542.77524     -3790.51724        26.29624
C37  22660764.77907  -1309483.57607      1003.78007        43.74507
E13  24224726.87105  -1855704.39005      1494.46805        33.12905  24224722.37405  -1384009.63605      1115.88005        33.30505
E15  23694051.35006   1171357.17906     -1317.50206        39.88106  23694048.65124    875740.23624      -981.64524        25.07524
E18  19260336.14725   3089244.78025     -3456.99825        29.78325  19260336.14724   2308976.27624     -2587.72724        25.62724
E19                      2593.95223     -2439.02223        19.30723                                                                
E21  25125459.90624  -3754473.35224      1167.32524        27.83924  25125454.21004  -2824791.04604       873.55604        28.24404
E26                       -29.73124      2476.09524        29.46424                                                                
E27  23502921.66606    840283.72106      -877.33606        39.24206  23502921.36605    627018.75305      -654.77305        29.54305
E30  25726063.51705   2361508.63705     -2705.31905        30.60605                   1792983.37523     -2019.18023        21.53023
> 2021 04 08 21 28 58.0000513  0 33                      
G02  22263998.75407  -2572455.79407      2104.42907        44.66307                                                                
G03                        -1.65023       -96.58523        21.60223                                                                
G06  20999072.44526  -1196811.54826       722.60826        38.99526  20999074.84305   -895586.30605       539.84205        31.26805
G12  22711660.54506  -4942422.87706      1924.34406        37.79006                                                                
G13  25008882.91106   3371529.42706     -3845.47506        37.63106                                                                
G14  23770428.27524   3523563.00024     -3246.32624        28.78924                                                                
G15  25147340.25907   5576605.76807     -3302.44707        43.60007                                                                
G17  22454361.86906   3501685.90606     -3206.94506        41.23806                                                                
G19  20567609.04106   2265376.30406     -2264.50106        39.76306                                                                
G24  20953609.81807   -190355.13907      -169.16007        45.17007  20953610.11805   -145720.76405      -126.57005        30.98905
R14  21608183.26625  -3457932.74225      2709.03425        32.73425
R13  19294601.52524     91093.06424      -417.71124        26.30424
R12  21525472.32606   4338568.54306     -3587.81306        40.85006
R24  20367191.18708  -2767623.44208      2151.53908        49.16908
R23  19024000.45907    507286.37307      -921.00807        46.16407
C04                    756174.91624      -663.42124        25.18224
C06  41050043.44624     69256.48724      -147.88424        24.31824
C11  24782888.86325   3010331.37925     -3481.68325        30.30925
C16  41456745.79224       444.38224       -23.34924        28.23424
C23  22205632.16107   1915364.16007     -1949.82907        42.79507
C25  25760118.44106   4035481.31206     -3718.82006        41.38506
C27  25259152.95207  -2728330.69207      2379.95907        46.82507
C28  21866461.06406   -761787.87406       441.63006        39.41606
C34  26925621.28024   3004331.75824     -3788.58124        28.26424
C37  22660453.29507  -1310487.51507      1003.50907        44.95707
E13  24224320.95205  -1857199.15105      1496.32105        32.51905  24224317.35405  -1385125.84805      1116.86405        33.72705
E15  23694180.26006   1172675.07506     -1319.47106        40.70206  23694178.76124    876724.36024      -982.10924        26.44524
E18  19260882.36925   3092710.84825     -3464.92825        31.83025  19260877.27204   2311564.38404     -2589.73504        28.98604
E19                      2594.01623     -2439.99723        21.35523                                                                
E21  25125108.84925  -3755658.49225      1166.64025        30.39325  25125110.34824  -2825665.66124       874.50624        29.35224
E26                       -29.78924      2476.09524        27.21924                                                                
E27  23502971.43106    841161.47606      -878.48406        39.15406  23502968.43404    627674.12204      -655.15704        28.64004
E30  25726456.24505   2364214.40405     -2706.07105        34.62805                   1795024.06924     -2018.51724        24.76924
> 2021 04 08 21 28 59.0000509  0 33                      
G02  22263478.31507  -2574560.47907      2103.85807        42.61807                                                                
G03                        -1.64023       -97.56123        22.50423                                                                
G06  20998818.22127  -1197532.43827       719.79327        42.86527  20998817.92124   -896124.16924       538.96524        28.96224
G12  22711173.08206  -4944349.76006      1927.55206        38.42906                                                                
G13  25009494.78725   3375372.02425     -3841.25425        35.25525                                                                
G14  23770931.02724   3526805.91224     -3249.80424        28.48624                                                                
G15  25147849.90607   5579905.03307     -3296.21507        42.88507                                                                
G17  22454853.82826   3504896.25226     -3212.48726        37.21226                                                                
G19  20567922.32407   2267642.93107     -2267.93507        42.36607                                                                
G24  20953522.57807   -190186.99607      -166.46907        45.23207  20953522.57805   -145595.26205      -124.01705        33.78305
R14  21607528.51927  -3460642.20727      2705.15927        41.71927
R13  19294584.73705     91512.68805      -418.39705        32.08405
R12  21526021.24606   4342157.56606     -3590.90306        41.37106
R24  20366672.54607  -2769776.37907      2153.19007        45.08807
R23  19024046.02707    508208.18207      -922.46407        45.67207
C04                    756837.61124      -663.42124        25.34124
C06  41049951.71024     69406.92324      -143.18124        25.63424
C11  24783434.48525   3013819.26725     -3492.25925        31.85825
C16  41456630.37225       463.11525       -24.62625        33.94125
C23  22205887.58407   1917314.61207     -1951.61907        42.99007
C25  25760715.92706   4039201.89306     -3721.72606        39.88306
C27  25258575.25207  -2730713.44307      2385.40007        44.52807
C28  21866256.90506   -762230.23106       443.26306        39.97806
C34  26926219.06625   3008126.39325     -3787.59325        31.30325
C37  22660140.91107  -1311491.98907      1005.84007        45.48607
E13  24223918.93005  -1858694.95705      1493.99305        33.74705  24223912.63405  -1386242.86905      1117.05005        33.92405
E15  23694313.36806   1173996.34106     -1323.23506        40.31506  23694309.47124    877710.73324      -982.87124        24.18824
E18  19261414.20006   3096181.81206     -3475.67706        36.88706  19261417.19804   2314156.18704     -2594.71304        29.38604
E19                      2594.07322     -2439.99722        13.11322                                                                
E21  25124769.78426  -3756838.15226      1167.43026        36.29926  25124768.28524  -2826540.82424       873.39324        26.27524
E26                       -29.84724      2476.09524        25.32924                                                                
E27  23503017.30006    842041.12906      -881.08906        38.91106  23503015.80105    628331.03205      -658.05705        29.54405
E30  25726851.97105   2366923.30505     -2714.16205        32.64105  25726859.46624   1797042.49024     -2018.58424        23.87024
> 2021 04 08 21 29 00.0000504  0 33                      
G02  22262929.69407  -2576663.15707      2100.18107        45.26707                                                                
G03                        -1.58323      -101.46323        19.07923                                                                
G06  20998531.61926  -1198247.77826       712.90026        41.46526  20998531.01905   -896657.83205       530.60405        30.34605
G12  22710655.34007  -4946284.81007      1939.31907        42.14507                                                                
G13  25010076.38425   3379212.72025     -3838.63325        32.19125                                                                
G14  23771401.70125   3530053.38725     -3262.69025        31.73625                                                                
G15  25148324.17706   5583198.40406     -3293.30906        39.92006                                                                
G17  22455315.50926   3508110.56426     -3216.89626        37.26626                                                                
G19  20568204.42806   2269910.70206     -2267.71706        39.32406                                                                
G24  20953405.35907   -190023.37607      -161.00407        45.18007  20953403.56105   -145473.12005      -120.59905        34.45705
R14  21606861.78126  -3463353.13126      2713.67926        38.22726
R13  19294498.39705     91931.99805      -420.09505        32.50705
R12  21526543.78426   4345754.07326     -3594.36626        37.54626
R24  20366122.72726  -2771932.38026      2150.55226        38.38326
R23  19024062.21607    509131.12507      -923.28607        43.88307
C04                    757502.12524      -663.42124        25.25724
C06  41049823.69824     69539.61624      -133.00624        28.24424
C11  24783953.12625   3017310.66825     -3491.72525        35.32925
C16  41456484.07325       484.48525       -15.97325        32.34825
C23  22206109.73026   1919268.08026     -1954.85526        38.80426
C25  25761284.63426   4042920.66426     -3727.76426        36.05626
C27  25257960.67806  -2733100.79606      2387.88506        41.22006
C28  21866023.06707   -762673.30907       443.32707        43.91907
C34  26926800.96425   3011918.35425     -3781.40525        33.44725
C37  22659796.44907  -1312500.58607      1011.54307        46.69107
E13  24223473.13826  -1860189.48526      1493.53326        36.22726  24223478.83525  -1387358.29625      1114.34325        30.86925
E15  23694413.79906   1175322.10006     -1327.52806        39.11606  23694412.00024    878701.04224      -986.26924        27.86024
E18  19261933.44126   3099659.28326     -3476.88326        36.88826  19261928.34405   2316753.00505     -2598.42805        30.68205
E19                      2593.97123     -2439.02223        20.40523                                                                
E21  25124393.54406  -3758016.23106      1182.10206        40.93806  25124392.64504  -2827420.99904       882.96804        29.42904
E26                       -29.77923      2480.97323        22.90823                                                                
E27  23503036.78606    842923.77406      -883.90806        39.42606  23503033.78804    628990.05704      -659.08104        28.35804
E30  25727219.21725   2369640.34225     -2716.55525        30.46825                   1799063.47423     -2019.89123        20.32223
> 2021 04 08 21 29 01.0000500  0 33                      
G02  22262409.25526  -2578760.53826      2094.34426        41.11426                                                                
G03                        -1.54023      -104.39023        17.73523                                                                
G06  20998276.49607  -1198956.52907       706.64107        42.16507  20998276.49624   -897186.82624       523.46624        27.71724
G12  22710165.77907  -4948228.17907      1946.73807        44.20807                                                                
G13  25010684.96305   3383055.86805     -3842.78105        34.28105                                                                
G14  23771900.85525   3533322.78325     -3275.41325        32.21325                                                                
G15  25148831.42625   5586487.28525     -3288.20025        35.40825                                                                
G17  22455806.86806   3511326.92006     -3216.77506        38.68706                                                                
G19  20568517.71106   2272179.64106     -2268.59206        39.40006                                                                
G24  20953315.72106   -189863.97306      -157.87606        39.73406  20953314.52205   -145353.71705      -118.62705        31.45805
R14  21606239.41207  -3466073.43007      2723.53407        44.41407
R13  19294459.42425     92352.76525      -420.91625        29.51225
R12  21527104.99525   4349350.35225     -3607.92025        35.48925
R24  20365599.88906  -2774086.47206      2152.31906        38.87406
R23  19024119.47607    510054.98907      -924.17307        42.64007
C04                    758163.26824      -661.47024        25.52224
C06  41049736.15925     69667.10725      -125.93325        31.29725
C11  24784505.34425   3020804.77125     -3498.00125        33.75625
C16  41456361.15825       491.91125        -0.66625        31.17825
C23  22206367.55227   1921226.56627     -1959.38427        42.16827
C25  25761877.02425   4046649.16725     -3738.63425        34.59525
C27  25257387.77406  -2735489.26106      2388.06106        40.63906
C28  21865818.30907   -763116.09007       442.66307        43.21307
C34  26927428.72926   3015693.59826     -3767.62726        36.48526
C37  22659482.86607  -1313514.29307      1016.17707        45.70707
E13  24223078.01226  -1861680.25426      1490.74826        36.26426  24223075.31424  -1388471.79424      1113.57324        28.73524
E15  23694547.20626   1176651.68126     -1331.23626        36.98026  23694544.80804    879693.57904      -993.76304        27.60404
E18  19262470.06906   3103139.90706     -3481.27906        39.16506  19262471.56824   2319356.29024     -2602.70424        27.31824
E19                      2594.02823     -2439.02223        22.07223                                                                
E21  25124048.48307  -3759201.38607      1188.88107        43.04107  25124046.38524  -2828306.06624       891.68924        28.59724
E26                       -29.85524      2483.90024        24.50124                                                                
E27  23503082.05506    843808.34806      -885.02006        39.08006  23503081.15524    629650.32324      -657.65824        27.05524
E30  25727616.44225   2372366.97025     -2708.06325        30.42725                   1801079.04322     -2018.91022        16.98222
> 2021 04 08 21 29 02.0000496  0 33                      
G02  22261893.91206  -2580854.79806      2094.42606        40.24206                                                                
G03                        -1.40824      -114.14624        23.90424                                                                
G06  20998024.07026  -1199661.97426       703.90026        38.26826  20998023.17113   -897715.34313       525.42813        23.13713
G12  22709674.42006  -4950178.20506      1952.25706        41.44106                                                                
G13  25011295.64006   3386899.17506     -3842.63006        35.66006                                                                
G14  23772403.30825   3536599.25225     -3280.63625        31.87925                                                                
G15  25149338.97525   5589778.14625     -3286.24125        33.18225                                                                
G17  22456298.22807   3514545.38507     -3220.28607        43.25807                                                                
G19  20568827.69706   2274449.30506     -2270.46306        39.77306                                                                
G24  20953222.78606   -189707.85906      -155.12506        37.85406  20953224.58405   -145236.68205      -116.20505        34.46405
R14  21605607.74907  -3468799.46507      2726.68907        47.33007
R13  19294410.25824     92775.00224      -423.29324        28.61924
R12  21527658.71225   4352961.64725     -3621.24825        34.77325
R24  20365071.65406  -2776238.78606      2152.68206        36.98406
R23  19024173.73907    510979.75507      -925.57407        43.85107
C04                    758810.03024      -661.47024        26.04824
C06  41049639.92625     69788.82425      -120.69725        35.16225
C11  24785055.76326   3024301.02426     -3497.65626        38.68126
C16  41456239.74225       485.74725         5.29525        32.64525
C23  22206625.97326   1923187.97526     -1961.59626        38.39426
C25  25762474.81025   4050397.01625     -3746.58125        31.73825
C27  25256810.37406  -2737879.92206      2391.59806        41.02206
C28  21865614.15007   -763559.16707       443.21307        43.54407
C34  26928021.71826   3019457.85126     -3762.99126        38.17626
C37  22659165.98606  -1314531.51406      1017.71406        40.07706
E13  24222666.39706  -1863168.19306      1487.40006        36.55106  24222672.99225  -1389582.89825      1110.74325        30.08425
E15  23694680.91425   1177983.76325     -1333.83425        33.92025  23694677.91624    880688.73424      -992.54324        24.37024
E18  19263017.19107   3106624.30507     -3487.01607        43.09407  19263013.59324   2321970.28624     -2604.17824        28.48024
E19                      2593.79023     -2418.53423        20.56723                                                                
E21  25123698.92507  -3760391.68807      1191.41707        43.12607  25123701.32304  -2829195.00604       889.93804        28.86004
E26                       -29.75224      2482.92424        25.47924                                                                
E27  23503132.12006    844694.33306      -887.39406        40.58906  23503129.42224    630312.02424      -661.49424        25.21724
E30  25728014.86624   2375101.12424     -2714.73724        27.07724                   1803097.11923     -2025.05623        20.84123
> 2021 04 08 21 29 03.0000492  0 33                      
G02  22261376.77007  -2582948.53507      2092.78107        42.63107                                                                
G03                        -1.36423      -117.07323        22.51523                                                                
G06  20997772.54525  -1200363.43125       699.61825        34.60025                   -898227.48023       518.77823        17.80523
G12  22709184.25907  -4952132.09507      1956.09907        45.41207                                                                
G13  25011913.21325   3390741.89525     -3842.62125        31.83025                                                                
G14  23772913.85425   3539879.84525     -3282.76425        30.64925                                                                
G15  25149843.52625   5593058.75925     -3282.08725        31.69425                                                                
G17  22456792.28607   3517766.72507     -3222.71107        43.45007                                                                
G19  20569136.78306   2276720.53506     -2272.35206        37.66306                                                                
G24  20953134.64725   -189554.35625      -153.20225        35.31025  20953134.34705   -145121.67005      -114.14205        35.09105
R14  21604968.89108  -3471528.05008      2730.25508        47.97508
R13  19294394.06904     93198.69704      -424.82604        28.96404
R12  21528213.92806   4356580.35406     -3621.83606        37.60006
R24  20364548.21706  -2778392.24206      2153.50906        37.20606
R23  19024219.90707    511905.45007      -926.29107        44.60007
C04                    759444.20324      -641.95724        26.21324
C06  41049541.89306     69908.10006      -117.38606        35.55206
C11  24785607.98126   3027799.99026     -3500.19626        36.15926
C16  41456126.12126       484.44326        -3.93126        39.57126
C23  22206882.29525   1925151.14025     -1963.14125        33.83125
C25  25763081.29025   4054143.04425     -3742.45225        30.90025
C27  25256232.07407  -2740273.63507      2395.24407        42.80907
C28  21865407.89307   -764003.00907       443.79307        44.65507
C34  26928636.89325   3023216.84425     -3763.02825        34.48325
C37  22658851.20406  -1315550.78106      1019.99906        38.21906
E13  24222272.47006  -1864655.54506      1486.08106        37.86006  24222270.67105  -1390693.54105      1109.84005        29.77405
E15  23694815.82005   1179318.82805     -1336.86005        32.85005  23694814.02223    881685.87423      -993.57123        22.47823
E18  19263560.41507   3110112.89307     -3490.89507        43.26407  19263556.51705   2324575.42405     -2606.18005        29.76405
E19                      2593.80023     -2411.70523        19.96223                                                                
E21  25123355.66307  -3761584.97207      1194.85507        41.58407  25123356.26224  -2830086.08024       892.72624        27.86024
E26                       -29.79923      2480.97323        22.92923                                                                
E27  23503182.48507    845582.03907      -888.71007        41.97007  23503179.78713    630974.96913      -666.75213        23.33713
E30  25728418.08724   2377835.62824     -2729.28724        24.35324                   1805138.47623     -2023.97923        22.16023
> 2021 04 08 21 29 04.0000487  0 33                      
G02  22260829.64806  -2585040.85906      2092.44706        38.87306                                                                
G03                        -1.30724      -120.97524        24.83724                                                                
G06  20997487.14225  -1201062.42325       698.44725        34.88425                   -898716.63223       514.81423        20.19923
G12  22708662.02007  -4954089.60807      1957.98807        47.28107                                                                
G13  25012491.51224   3394578.42824     -3840.37424        28.76524                                                                
G14  23773385.72825   3543165.03725     -3287.14525        29.98725                                                                
G15  25150317.49815   5596338.46815     -3277.22415        35.34115                                                                
G17  22457257.26407   3520989.54707     -3222.85507        44.36007                                                                
G19  20569420.08706   2278992.51406     -2272.19706        38.77006                                                                
G24  20953013.23125   -189402.25925      -152.02225        34.80325  20953012.93105   -145007.99405      -113.43805        35.12305
R14  21604313.54507  -3474259.44707      2731.71507        46.36707
R13  19294313.42505     93623.34905      -425.00905        29.68605
R12  21528748.45816   4360202.67116     -3620.65516        36.37616
R24  20364002.29506  -2780545.72106      2152.60506        36.52006
R23  19024244.49007    512831.89507      -926.60507        44.32007
C04                    760082.47824      -636.10424        27.68924
C06  41049414.78125     70022.11625      -121.44825        30.48225
C11  24786128.12125   3031300.80625     -3502.10025        34.57325
C16  41455974.12626       480.18426         4.27926        39.40626
C23  22207112.23625   1927112.77325     -1964.46925        29.54625
C25  25763652.69424   4057901.10524     -3754.14524        26.93824
C27  25255620.19807  -2742668.75607      2395.70607        41.98907
C28  21865172.25607   -764447.11707       444.12507        44.24307
C34  26929209.79625   3026973.14425     -3752.65125        34.77125
C37  22658505.84306  -1316571.94206      1021.47906        39.71706
E13  24221838.97006  -1866141.86406      1486.11106        40.02906  24221837.47124  -1391803.38024      1109.49624        28.59324
E15  23694923.44605   1180655.76005     -1337.08705        32.93905                    882686.59323      -995.43323        18.02923
E18  19264073.36007   3113604.23807     -3492.30007        42.33907  19264070.06204   2327182.53404     -2607.49404        29.02604
E19                      2593.81523     -2405.85123        19.55923                                                                
E21  25122976.12606  -3762781.15406      1196.70906        41.46106  25122978.82424  -2830979.37924       893.69424        27.54324
E26                       -29.86823      2482.92423        22.94923                                                                
E27  23503201.37207    846470.77207      -888.93207        42.37107  23503197.77523    631638.46523      -666.46123        22.64023
E30  25728804.51924   2380562.74824     -2735.87824        26.67324                   1807179.89923     -2041.43523        20.69223
> 2021 04 08 21 29 05.0000483  0 33                      
G02  22260309.50806  -2587133.58306      2093.47306        38.69506                                                                
G03                        -1.27123      -123.90223        23.05723                                                                
G06  20997232.01926  -1201761.38626       700.04926        35.82226                   -899231.67423       514.39523        17.84623
G12  22708170.06107  -4956047.80007      1956.49407        47.11707                                                                
G13  25013100.69124   3398418.46624     -3841.84724        28.63424                                                                
G14  23773884.58226   3546450.91826     -3284.67726        35.62026                                                                
G15  25150821.74815   5599617.20615     -3278.17615        33.92115                                                                
G17  22457750.12307   3524212.70807     -3223.03407        42.95307                                                                
G19  20569733.67006   2281264.52206     -2272.39806        40.49506                                                                
G24  20952922.09425   -189250.27025      -153.29325        32.76125  20952922.09406   -144894.56206      -114.15806        35.53106
R14  21603687.27907  -3476991.15607      2729.91207        47.47407
R13  19294272.35305     94048.21405      -424.98805        31.27305
R12  21529308.47006   4363825.60906     -3621.59106        35.86506
R24  20363482.75406  -2782699.06206      2153.21006        36.01806
R23  19024305.64707    513758.52207      -926.67307        44.21407
C04                    760705.01724      -630.25024        27.30124
C06  41049315.85024     70135.56524      -119.13324        25.84924
C11  24786681.53725   3034801.84025     -3499.67225        33.19825
C16  41455854.50926       476.35726         2.35026        36.88226
C23  22207368.55924   1929076.29724     -1964.18824        27.39624
C25  25764253.47824   4061659.08724     -3753.69924        28.77924
C27  25255040.39906  -2745064.81706      2395.99606        41.45106
C28  21864968.69707   -764891.65107       444.45607        45.35307
C34  26929808.48226   3030729.72426     -3755.45426        35.70526
C37  22658186.26406  -1317593.47506      1020.46106        39.98206
E13  24221432.45106  -1867628.79506      1487.78006        40.50706  24221433.05104  -1392913.78804      1110.98804        27.99204
E15  23695060.15105   1181993.13005     -1337.80405        31.02105                    883642.17322      -994.40722        15.28522
E18  19264617.78306   3117096.87706     -3492.78306        41.40406  19264613.88525   2329790.86125     -2609.17025        29.52425
E19                      2593.70123     -2402.92523        20.35023                                                                
E21  25122630.46506  -3763977.87306      1195.72206        40.96206  25122629.86504  -2831873.03904       893.58804        27.60604
E26                       -29.77123      2482.92423        21.69423                                                                
E27  23503250.83807    847359.32707      -888.21907        43.46707  23503249.63924    632302.09324      -664.54724        24.10224
E30  25729193.05025   2383293.79225     -2742.98325        33.89425                   1809223.91023     -2042.27323        19.95923
> 2021 04 08 21 29 06.0000479  0 33                      
G02  22259790.56806  -2589228.97706      2096.47406        40.08906                                                                
G03                        -1.25423      -124.87823        20.54623                                                                
G06  20996984.39025  -1202462.83125       702.64225        34.51625                   -899746.96023       514.43323        19.24123
G12  22707679.00107  -4958001.45607      1950.11507        42.74307                                                                
G13  25013714.66624   3402248.64024     -3834.91124        29.20024                                                                
G14  23774389.43326   3549732.17526     -3279.12626        37.16526                                                                
G15  25151326.89925   5602895.35125     -3282.52225        32.32825                                                                
G17  22458241.48307   3527435.55107     -3222.21607        42.07807                                                                
G19  20570047.25306   2283537.04106     -2272.52206        37.97806                                                                
G24  20952830.95725   -189094.81025      -156.78125        31.20025  20952831.55705   -144779.00105      -116.72305        35.44505
R14  21603044.52307  -3479718.42107      2724.51307        47.09907
R13  19294214.19305     94473.30005      -424.50105        30.60805
R12  21529864.58526   4367444.61926     -3616.37126        35.66926
R24  20362953.92006  -2784853.20506      2154.92106        36.38906
R23  19024361.70807    514685.76407      -927.45607        44.92507
C04                    761335.94824      -626.34824        25.19124
C06  41049218.41723     70253.70523      -119.09423        20.51723
C11  24787232.55625   3038306.98525     -3501.21925        33.43625
C16                       477.23825         7.20425        31.45825
C23  22207617.98625   1931038.93025     -1961.50525        32.19025
C25  25764845.86825   4065414.31425     -3747.18825        32.53225
C27  25254461.50006  -2747460.63806      2395.63006        40.21806
C28  21864763.04007   -765336.01107       444.14407        44.02607
C34  26930408.96625   3034494.69025     -3782.71325        31.73625
C37  22657870.28306  -1318611.94006      1016.84806        38.70406
E13  24221028.63106  -1869117.67006      1490.37806        37.56506  24221031.02905  -1394025.78805      1113.46605        29.85805
E15  23695200.45424   1183329.25624     -1333.54124        28.14624                    884640.87123      -998.35123        17.95623
E18  19265165.80306   3120589.79506     -3492.66206        40.34406  19265160.40704   2332399.14504     -2608.60404        29.15704
E19                      2593.75023     -2401.94923        21.23523                                                                
E21  25122280.90707  -3765170.65907      1190.40807        41.56907  25122282.10624  -2832763.56824       888.66224        28.43624
E26                       -29.83623      2483.90023        20.75623                                                                
E27  23503298.80507    848247.23907      -887.25807        42.76007  23503298.80524    632965.13724      -665.15324        25.36124
E30  25729597.17125   2386033.33925     -2734.25925        30.88725                   1811268.43623     -2041.92923        20.88523
> 2021 04 08 21 29 07.0000474  0 33                      
G02  22259241.94726  -2591330.27026      2105.55426        37.54026                                                                
G03                        -1.28623      -122.92723        20.49623                                                                
G06  20996694.19106  -1203168.26306       709.87506        40.97206                   -900267.90923       517.40623        22.20423
G12  22707159.76026  -4959947.25026      1938.62326        37.17426                                                                
G13  25014294.46425   3406080.24525     -3832.58825        35.21525                                                                
G14  23774865.50325   3553007.63525     -3271.21925        35.38425                                                                
G15  25151802.66925   5606180.42225     -3284.33625        32.38225                                                                
G17  22458704.96207   3530658.30307     -3224.19207        41.87407                                                                
G19  20570332.05506   2285809.90406     -2274.18006        39.34006                                                                
G24  20952709.24106   -188935.97106      -161.32306        39.21606  20952712.53905   -144660.29605      -120.88705        33.77805
R14  21602390.97607  -3482438.02907      2713.65507        45.36207
R13  19294149.13805     94898.29505      -425.52305        30.39705
R12  21530392.22026   4371056.17526     -3604.75026        35.81126
R24  20362407.99806  -2787008.90406      2157.40606        39.45806
R23  19024380.29607    515613.28107      -927.54807        44.88507
C04                    761964.94324      -626.34824        25.95924
C06                     70368.63022      -119.04322        17.10422
C11  24787761.09025   3041806.82125     -3490.11125        31.19625
C16  41455584.39624       487.62124        -5.84624        26.59024
C23  22207855.42226   1932997.73026     -1955.36726        40.95326
C25  25765419.37125   4069153.33125     -3733.83725        32.14025
C27  25253850.52306  -2749857.26206      2397.85806        40.57906
C28  21864528.00207   -765780.98307       445.56707        43.98707
C34  26930981.56925   3038284.02725     -3779.01625        32.50325
C37  22657528.22006  -1319625.76306      1010.37406        40.83706
E13  24220600.22706  -1870610.78606      1497.17706        37.49406  24220596.03004  -1395140.92104      1118.08704        28.12904
E15  23695291.59105   1184663.36605     -1334.15605        30.05705                    885637.24023     -1001.24723        20.38023
E18  19265676.35006   3124082.36306     -3492.24106        38.25506  19265674.85114   2335006.82214     -2608.42714        25.76214
E19                      2593.83423     -2405.85123        17.86723                                                                
E21  25121906.16607  -3766357.31707      1181.88307        43.07607  25121906.46624  -2833649.61524       886.65524        27.51324
E26                       -29.88223      2481.94923        21.49923                                                                
E27  23503319.49006    849134.00506      -886.13006        40.13806  23503317.99224    633627.42824      -664.10724        25.07324
E30  25729971.61124   2388792.50024     -2748.26624        27.37624                   1813316.29123     -2047.87423        18.56223
> 2021 04 08 21 29 08.0000470  0 33                      
G02  22258719.10906  -2593438.83006      2110.22606        37.50906                                                                
G03                        -1.36522      -117.07322        16.72622                                                                
G06  20996439.36707  -1203880.97707       715.62707        41.70807  20996442.06623   -900788.17923       525.30423        22.91823
G12  22706682.19125  -4961879.93625      1932.20425        32.13725                                                                
G13  25014902.44315   3409908.90715     -3824.94115        34.39515                                                                
G14  23775371.55325   3556264.45825     -3254.40525        33.14525                                                                
G15  25152303.02325   5609462.66525     -3284.34425        34.40625                                                                
G17  22459202.31806   3533880.89606     -3219.63206        39.83606                                                                
G19  20570646.83826   2288085.18226     -2277.16826        36.53026                                                                
G24  20952621.10206   -188770.13106      -169.51306        39.72106  20952623.50105   -144536.30405      -126.45105        32.53705
R14  21601760.81207  -3485145.92207      2703.07907        43.53007
R13  19294101.77105     95323.74805      -425.58605        30.71305
R12  21530954.03125   4374657.42525     -3592.01325        34.25425
R24  20361877.96507  -2789166.74707      2156.99607        42.08007
R23  19024435.15807    516541.97507      -928.91107        45.45107
C04                    762609.12124      -630.25024        27.04024
C06                     70485.89921      -119.16121        12.00021
C11  24788320.20325   3045286.14525     -3493.88125        34.36525
C16                       491.90623        -6.03123        22.59323
C23  22208107.24726   1934951.25426     -1948.64626        39.82926
C25  25766079.51425   4072874.89725     -3721.59425        31.25625
C27  25253269.22606  -2752254.01506      2394.37806        41.17506
C28  21864321.74507   -766225.74207       443.97107        44.27307
C34  26931592.24725   3042066.97725     -3782.74525        29.95425
C37  22657216.73508  -1320631.58108      1001.99708        47.62308
E13  24220196.70726  -1872109.68126      1505.35526        36.64726  24220191.91024  -1396260.48624      1119.12024        27.02824
E15  23695429.49606   1185995.37706     -1329.72406        38.15606                    886631.56325      -993.40925        29.61325
E18  19266229.46726   3127574.82426     -3493.46926        35.96026  19266219.57424   2337614.26324     -2610.34924        25.77824
E19                      2593.80123     -2414.63223        19.86023                                                                
E21  25121563.50307  -3767533.65707      1171.19507        44.57207  25121560.80505  -2834528.08405       874.69105        30.02305
E26                       -29.77323      2479.99823        21.82823                                                                
E27  23503365.95806    850019.45406      -884.63606        39.98206  23503366.85824    634288.95824      -662.90224        25.03224
E30  25730381.42823   2391566.84823     -2765.68323        22.31223                   1815356.01523     -2048.52223        18.09123
> 2021 04 08 21 29 09.0000466  0 33                      
G02  22258196.87107  -2595550.49907      2112.71007        44.80607                                                                
G03                        -1.33523      -119.02423        20.32223                                                                
G06  20996181.84606  -1204598.71606       719.46806        41.47406  20996180.64725   -901313.62525       535.94525        30.05025
G12  22706192.03024  -4963804.71324      1926.44524        28.03324                                                                
G13  25015513.42025   3413737.04025     -3827.39525        32.51625                                                                
G14  23775874.60525   3559502.95825     -3253.79025        31.54125                                                                
G15  25152810.87126   5612749.88526     -3287.66426        39.11126                                                                
G17  22459693.37806   3537101.67006     -3220.45506        39.12606                                                                
G19  20570955.62426   2290360.52226     -2275.56026        38.23326                                                                
G24  20952536.26107   -188598.38807      -173.70307        45.91007  20952536.56105   -144407.93205      -130.16405        33.44505
R14  21601133.94606  -3487845.87706      2697.55606        40.69906
R13  19294065.19705     95748.87305      -424.93705        34.19505
R12  21531499.05325   4378247.20025     -3586.59825        34.04825
R24  20361358.42526  -2791324.19326      2151.66726        38.04726
R23  19024486.12207    517471.46607      -929.96707        46.40307
C04                    763246.39624      -638.05524        26.73224
C06                     70613.12421      -119.98421        12.00021
C11  24788875.11926   3048778.66926     -3501.30226        37.41826
C16                       497.70123        -6.31923        20.41923
C23  22208358.47326   1936901.79426     -1949.66426        40.69926
C25  25766620.64025   4076596.88125     -3723.68925        33.54225
C27  25252688.52806  -2754647.72606      2393.89406        39.45606
C28  21864118.48606   -766669.12006       443.05806        41.36506
C34  26932181.93825   3045861.73825     -3811.78325        31.47325
C37  22656902.25307  -1321631.71607       997.77807        46.57607
E13  24219784.49206  -1873611.16606      1505.38606        37.25906  24219784.19204  -1397381.77904      1122.41104        28.12004
E15  23695555.70806   1187324.61706     -1329.01006        36.71906  23695559.90504    887623.63304      -991.18204        26.62604
E18  19266767.59406   3131065.51906     -3490.48006        39.01806  19266765.79605   2340220.73405     -2606.61405        31.32005
E19                      2593.85124     -2413.65624        27.08324                                                                
E21  25121221.74007  -3768703.02507      1167.11007        43.24607  25121220.54105  -2835401.25205       872.09905        29.53605
E26                       -29.83723      2480.97323        22.98023                                                                
E27  23503415.42406    850903.58206      -884.23806        40.61206  23503414.82424    634949.08724      -661.40324        26.93824
E30  25730780.45124   2394257.94124     -2731.16124        25.05624                   1817393.86222     -2039.37522        15.98522
> 2021 04 08 21 29 10.0000462  0 33                      
G02  22257673.43307  -2597665.06307      2116.36507        44.39907                                                                
G03                        -1.31223      -120.97523        19.30923                                                                
G06  20995925.82307  -1205318.79607       721.18307        41.77607  20995926.12324   -901858.17624       543.09424        28.10924
G12  22705705.46724  -4965723.42224      1926.37924        25.89424                                                                
G13  25016120.20025   3417562.05925     -3823.34125        34.27825                                                                
G14  23776368.36325   3562751.76425     -3255.42025        31.53425                                                                
G15  25153314.82227   5616037.64027     -3287.15127        46.15127                                                                
G17  22460185.93706   3540322.25206     -3220.69906        40.01806                                                                
G19  20571271.60527   2292636.94427     -2276.86727        41.61527                                                                
G24  20952449.92107   -188423.44607      -175.74207        47.13107  20952449.32105   -144277.31605      -131.56505        34.59705
R14  21600509.77806  -3490540.47306      2692.09806        37.60006
R13  19294024.72505     96174.79005      -426.31105        33.80305
R12  21532047.97325   4381825.99025     -3587.66725        33.02925
R24  20360829.59106  -2793481.83206      2157.64406        40.74606
R23  19024544.28207    518401.97107      -930.61507        47.36307
C04                    763901.95524      -638.05524        27.00724
C06                     70766.59021      -122.41521        12.00021
C11  24789436.03126   3052274.18126     -3494.26626        39.25826
C16                       507.26622        -5.56422        15.61422
C23  22208613.89727   1938851.20727     -1948.30127        42.54327
C25  25767205.83526   4080314.98026     -3708.93026        37.57526
C27  25252109.62808  -2757041.54308      2394.56208        47.53608
C28  21863910.43007   -767112.01607       443.39407        42.41907
C34  26932782.72325   3049669.71625     -3808.27725        34.30425
C37  22656593.46707  -1322628.22707       995.52307        45.92607
E13  24219387.86726  -1875114.58726      1505.88726        36.13226  24219379.47205  -1398504.25005      1123.28205        30.83305
E15  23695689.41606   1188653.72906     -1327.94006        35.55806  23695691.21423    888616.78023      -990.02423        23.30323
E18  19267315.61526   3134557.11626     -3488.81926        36.84926  19267308.42024   2342827.90024     -2607.15924        29.15024
E19                      2593.87825     -2431.21725        30.72925                                                                
E21  25120881.47606  -3769867.63806      1163.75606        41.47906  25120879.67724  -2836270.55024       864.70424        26.77524
E26                       -29.82223      2494.63223        23.26423                                                                
E27  23503460.09306    851787.59506      -883.77406        37.67006  23503461.89204    635609.23504      -660.45304        29.07404
E30  25731168.98224   2396993.32024     -2730.32724        26.77024                   1819422.38323     -2039.18523        18.35323
> 2021 04 08 21 29 11.0000457  0 33                      
G02  22257120.61607  -2599782.55707      2118.71307        46.20407                                                                
G03                        -1.26924      -123.90224        28.35524                                                                
G06  20995639.52106  -1206040.35106       721.91306        39.94106  20995637.42323   -902396.46123       530.29923        23.00123
G12  22705188.92524  -4967650.06424      1926.07424        24.68224                                                                
G13  25016695.20227   3421383.87627     -3819.98327        41.92727                                                                
G14  23776845.33215   3566002.46615     -3252.92315        29.62315                                                                
G15  25153791.49327   5619324.34327     -3285.56427        42.22627                                                                
G17  22460647.01826   3543544.52126     -3220.37426        37.98326                                                                
G19  20571554.60927   2294914.97227     -2279.15027        43.95927                                                                
G24  20952333.00207   -188246.86707      -177.00207        47.30607  20952333.00205   -144145.35705      -132.52805        35.05605
R14  21599858.62906  -3493231.65306      2689.93906        38.96406
R13  19293952.77405     96601.50705      -427.54305        31.42605
R12  21532566.01526   4385408.42626     -3586.12126        35.83726
R24  20360272.27707  -2795640.57307      2159.56807        44.29107
R23  19024563.46907    519333.39407      -932.01907        45.73807
C04                    764547.24924      -649.76224        26.21124
C06                     70927.69121      -148.29921        12.00021
C11  24789959.16827   3055769.95827     -3496.16827        42.12627
C16                       549.29322        -5.83022        16.24222
C23  22208839.64027   1940799.52227     -1947.78227        42.29727
C25  25767759.55127   4084022.80927     -3706.64827        42.43027
C27  25251497.15207  -2759437.23007      2397.43407        45.55307
C28  21863676.29207   -767555.34507       443.63007        43.04607
C34  26933368.21725   3053480.56525     -3809.21725        33.32125
C37  22656252.00307  -1323622.48007       993.42407        47.01907
E13  24218947.77105  -1876620.11205      1506.67305        35.18105  24218941.77505  -1399628.60405      1125.45805        31.40005
E15  23695796.74126   1189955.87226     -1320.30326        36.06426  23695793.14423    889605.11123      -986.02223        23.49423
E18  19267828.26006   3138050.64906     -3494.90406        37.38606  19267822.86424   2345434.85824     -2616.49924        24.39124
E19                      2593.93524     -2431.21724        28.11524                                                                
E21  25120508.83406  -3771029.46906      1160.88006        40.30506  25120507.93424  -2837138.62124       866.42024        26.14124
E26                       -29.89724      2497.55924        26.22524                                                                
E27  23503475.98206    852671.92006      -885.01206        36.68606  23503479.58004    636269.59504      -661.04204        27.98104
E30  25731529.93325   2399736.31125     -2720.03025        33.37025                   1821449.69323     -2024.70323        22.28923
> 2021 04 08 21 29 12.0000453  0 33                      
G02  22256596.87907  -2601902.82707      2121.80807        45.02307                                                                
G03                        90.24422      -123.90222        17.33222                      2964.91422       153.64922        13.24122
G06  20995381.10006  -1206762.89106       723.15206        41.31206  20995381.40024   -902934.73924       539.92624        25.60124
G12  22704699.66326  -4969575.30926      1914.39826        38.87426                                                                
G13  25017298.08527   3425202.22127     -3816.93327        41.68927                                                                
G14  23777338.19124   3569251.87824     -3248.21824        29.06824                                                                
G15  25154298.74126   5622622.79126     -3287.93126        38.07726                                                                
G17  22461138.37725   3546768.75725     -3222.57125        34.79225                                                                
G19  20571868.49227   2297194.72027     -2280.23927        45.29227                                                                
G24  20952247.86107   -188068.78507      -178.83807        46.69507  20952247.56106   -144012.43706      -133.33906        36.09306
R14  21599232.06306  -3495919.15906      2685.76106        36.21906
R13  19293924.29425     97028.82725      -432.31525        29.66125
R12  21533112.23706   4388991.23106     -3581.39806        39.87306
R24  20359751.53707  -2797800.71707      2161.04907        44.69507
R23  19024621.92807    520265.70907      -932.63507        46.38107
C04                    765208.20024      -647.81124        27.23824
C06                      -571.52221      -160.00021        12.00021
C11  24790496.09726   3059277.20326     -3510.68726        38.58726
C16                      -276.96223       -39.02423        20.98423
C23  22209095.36327   1942746.76327     -1946.44227        43.08727
C25  25768352.84126   4087727.47526     -3703.07426        39.93326
C27  25250932.94327  -2761827.38227      2396.94227        43.62227
C28  21863470.33407   -767999.10507       444.18907        43.26207
C34  26933981.29325   3057288.19825     -3808.45825        30.57825
C37  22655942.91707  -1324614.64607       991.09807        46.18707
E13  24218551.14605  -1878127.71905      1508.94705        33.12605  24218534.95705  -1400754.44705      1126.54905        32.11805
E15  23695927.45127   1191266.18027     -1301.86527        42.14927  23695923.85324    890585.44824      -987.95224        23.50124
E18  19268372.68306   3141546.70706     -3497.33806        36.49506  19268372.98324   2348045.50424     -2606.80824        24.96224
E19                      2594.04024     -2438.04624        28.90924                                                                
E21  25120168.26906  -3772188.85506      1157.63706        39.40606  25120164.97223  -2838004.57323       866.59523        22.48423
E26                       -29.96824      2499.51024        27.87224                                                                
E27  23503526.64706    853556.66006      -884.97706        36.99006  23503529.64524    636930.25724      -660.83024        28.23324
E30  25731922.96025   2402451.40425     -2706.29325        31.46125                   1823480.40423     -2022.70423        21.05023
> 2021 04 08 21 29 13.0000449  0 33                      
G02  22256073.74107  -2604025.59607      2122.55107        45.39107                                                                
G03                        -1.23023      -126.82923        18.95923                                                                
G06  20995123.27907  -1207486.02607       723.27707        42.20007  20995124.77804   -903474.65704       539.65304        28.40904
G12  22704215.19926  -4971488.11226      1911.47726        37.19026                                                                
G13  25017904.56507   3429018.41007     -3814.35307        42.14707                                                                
G14  23777827.45325   3572498.91525     -3247.05325        33.51525                                                                
G15  25154807.48927   5625917.69927     -3293.99027        42.17627                                                                
G17  22461631.53625   3549990.85125     -3228.78525        30.67725                                                                
G19  20572181.77507   2299476.28007     -2282.74007        45.34407                                                                
G24  20952161.82007   -187888.79207      -180.93307        47.48607  20952161.22105   -143878.08305      -134.96805        35.28305
R14  21598611.79206  -3498603.89706      2683.02406        40.43506
R13  19293880.52424     97458.06424      -429.53324        29.24924
R12  21533669.25106   4392572.10606     -3580.25206        37.30506
R24  20359226.30107  -2799961.52607      2161.35807        44.41507
R23  19024682.18707    521199.45307      -934.38907        47.14107
C04                    765859.36924      -653.66524        27.84024
C06                      -571.52321      -161.95121        12.00021
C11  24791043.81725   3062797.32525     -3501.31125        34.03325
C16                      -276.95923       -42.92723        21.66023
C23  22209348.08827   1944693.46527     -1946.30727        43.16827
C25  25768942.23326   4091429.24426     -3700.62426        39.98026
C27  25250343.25127  -2764209.77427      2397.05927        45.18627
C28  21863264.37706   -768442.59106       443.17006        41.27606
C34  26934594.36824   3061093.10824     -3812.43324        27.97524
C37  22655633.83107  -1325604.53807       988.73507        44.74007
E13  24218131.13705  -1879636.67805      1509.00105        34.37605  24218128.13905  -1401881.40305      1127.35105        31.82705
E15  23696065.35527   1192599.29927     -1330.96227        43.46527  23696056.66123    891557.76323      -989.43523        23.35623
E18  19268916.20725   3145044.23525     -3492.42125        32.58825  19268919.80424   2350657.74224     -2617.39224        25.75324
E19  27873918.48825      4540.42925     -2442.12925        32.01525                     28752.93321     -1593.91121        12.00021
E21  25119826.20606  -3773345.76306      1155.67906        39.15006                  -2838866.39223       871.73123        19.49023
E26                       -29.89324      2503.41224        24.19024                                                                
E27  23503574.31405    854442.18305      -885.89205        34.84505  23503578.51104    637591.48304      -661.36604        28.43704
E30  25732315.98824   2405158.28124     -2695.80524        27.16424                   1825513.13623     -2022.65023        20.62323
> 2021 04 08 21 29 14.0000444  0 33                      
G02  22255519.72407  -2606149.99107      2125.08507        44.74307                                                                
G03                        -1.21323      -127.80523        18.63223                                                                
G06  20994836.97707  -1208209.74007       723.75907        42.76607  20994837.27724   -904015.17424       539.88624        26.10724
G12  22703700.75525  -4973398.65225      1908.99525        35.42325                                                                
G13  25018481.36607   3432831.00507     -3811.38507        42.54407                                                                
G14  23778297.22725   3575748.13625     -3244.82025        31.32525                                                                
G15  25155281.76126   5629207.18026     -3283.91826        41.45026                                                                
G17  22462095.61515   3553218.40215     -3228.42615        30.18615                                                                
G19  20572464.47907   2301759.54807     -2284.13107        44.64107                                                                
G24  20952047.29907   -187707.31707      -182.29107        46.98007  20952045.50105   -143742.53105      -136.09405        35.00105
R14  21597955.24707  -3501285.44807      2679.94407        44.15207
R13  19293799.28105     97888.51505      -430.89605        31.46505
R12  21534182.49606   4396151.42206     -3578.68806        37.47506
R24  20358672.88408  -2802123.23808      2162.03308        48.40108
R23  19024701.37307    522134.40107      -935.59907        44.10607
C04                    766519.58424      -653.66524        25.60024
C06                      -571.51323      -163.90223        19.82223
C11  24791565.15725   3066313.44025     -3509.60225        30.16325
C16                      -276.95823       -42.92723        21.49723
C23  22209571.43427   1946639.65827     -1946.15527        43.17527
C25  25769504.04427   4095128.59427     -3698.16527        41.55027
C27  25249725.97827  -2766610.37927      2401.27827        45.42127
C28  21863029.93906   -768886.13606       443.29906        39.65506
C34  26935172.66824   3064914.68024     -3822.54224        25.93324
C37  22655292.96707  -1326592.48407       986.98807        43.98207
E13  24217696.43805  -1881147.45705      1511.79605        33.52905  24217692.24105  -1403009.44605      1128.39105        33.65905
E15  23696165.48627   1193933.99227     -1331.79527        43.87727  23696161.28924    892539.46324      -992.70224        26.87024
E18  19269433.34906   3148545.03406     -3501.80906        37.08906  19269432.74904   2353271.79004     -2615.37604        28.12904
E19  27874237.46725      6978.62025     -2445.46025        32.43825                     30570.94221     -1593.91121        12.43121
E21  25119459.26006  -3774500.40806      1153.52406        38.39106                  -2839756.50123       869.97823        21.58223
E26                       -29.98124      2508.29024        25.55324                                                                
E27  23503594.40006    855328.50306      -886.76206        35.80206  23503596.79905    638253.36405      -662.32505        30.30005
E30  25732694.32624   2407860.97424     -2702.90824        27.36924                   1827510.45723     -2016.85123        21.48423
> 2021 04 08 21 29 15.0000440  0 33                      
G02  22254995.08707  -2608276.07607      2126.77607        45.85207                                                                
G03                        -1.16422      -131.70722        16.07022                                                                
G06  20994579.75507  -1208933.80107       723.96307        41.91707  20994580.05524   -904556.12624       544.47924        25.38524
G12  22703217.78926  -4975307.90126      1908.72426        36.37326                                                                
G13  25019084.54807   3436641.24807     -3809.36907        43.01007                                                                
G14  23778802.67725   3578995.38025     -3248.73325        29.90925                                                                
G15  25155780.31626   5632489.06526     -3281.09226        38.81526                                                                
G17  22462593.87026   3556447.45026     -3229.83726        36.11126                                                                
G19  20572779.26107   2304044.23207     -2285.47207        44.77407                                                                
G24  20951962.15807   -187524.79207      -183.20907        46.99807  20951960.06005   -143606.21505      -136.98105        35.11305
R14  21597335.57607  -3503964.82707      2678.40507        43.86407
R13  19293777.39605     98320.03905      -432.00905        32.21705
R12  21534735.01307   4399729.95507     -3578.55307        41.83607
R24  20358144.65008  -2804285.78408      2162.65408        48.88808
R23  19024752.03807    523070.29307      -936.51107        44.07707
C04                    767167.74224      -651.71324        26.32424
C06                      -571.49823      -167.80523        18.81423
C11  24792117.37425   3069822.61825     -3509.20425        29.57025
C16                      -276.95423       -46.82923        22.81723
C23  22209825.65807   1948585.93607     -1945.83207        43.70607
C25  25770093.13607   4098826.23507     -3697.10407        41.86107
C27  25249147.07907  -2769012.41307      2402.45107        44.00407
C28  21862825.18106   -769329.89506       443.73606        40.93606
C34  26935788.74123   3068743.16723     -3819.50823        21.59823
C37  22654983.88107  -1327579.01507       985.79307        42.96207
E13  24217292.91725  -1882659.25525      1507.85525        29.86025  24217283.92305  -1404138.49805      1129.57605        33.85305
E15  23696301.89207   1195266.76907     -1333.47007        43.42007  23696296.49524    893534.13624      -996.33424        27.89424
E18  19269983.16806   3152047.90706     -3504.28506        40.30106  19269978.37205   2355887.52105     -2616.78105        29.64205
E19  27874586.72525      9421.95025     -2441.87125        32.83325                     32393.58222     -1819.50122        12.55222
E21  25119118.99606  -3775653.40206      1151.86406        38.99806                  -2840619.24723       865.08123        22.89823
E26                       -30.04624      2509.26624        27.31724                                                                
E27  23503643.56606    856215.23506      -886.93706        36.74406  23503644.76504    638915.62304      -662.66804        29.06304
E30  25733075.96224   2410560.07224     -2697.72124        28.85924                   1829524.56823     -2016.56123        21.04423
> 2021 04 08 21 29 16.0000436  0 33                      
G02  22254470.75007  -2610403.26507      2127.49407        45.76507                                                                
G03                        -1.13321      -133.65821        12.00021                                                                
G06  20994321.93307  -1209657.85407       723.88507        42.49507  20994322.23324   -905096.54324       540.38824        25.65524
G12  22702734.52426  -4977216.08726      1907.74226        36.60426                                                                
G13  25019690.72907   3440449.56407     -3807.49207        42.94007                                                                
G14  23779296.43625   3582247.45825     -3247.21425        30.35125                                                                
G15  25156282.16826   5635769.41526     -3279.09626        40.25126                                                                
G17  22463089.12726   3559677.69426     -3230.43726        36.52126                                                                
G19  20573095.24307   2306330.15707     -2286.34907        44.53707                                                                
G24  20951877.31707   -187341.44307      -183.75807        46.86207  20951875.21905   -143469.29105      -137.35505        34.93605
R14  21596706.91107  -3506642.56507      2677.34607        43.47307
R13  19293728.82905     98752.46305      -432.62105        32.65505
R12  21535284.83307   4403307.86407     -3578.10907        41.56507
R24  20357622.41108  -2806448.87908      2163.15508        48.82708
R23  19024811.99707    524007.13907      -937.06307        43.71007
C04                    767829.14624      -651.71324        26.70224
C06                      -571.49321      -171.70721        12.00021
C11  24792676.18724   3073333.90624     -3509.93624        28.26624
C16                      -276.95023       -52.68323        21.15223
C23  22210078.68207   1950531.51307     -1945.47207        43.42507
C25  25770684.32607   4102522.60707     -3696.08407        42.47907
C27  25248564.58207  -2771415.63107      2403.39607        44.93007
C28  21862618.32406   -769773.71606       443.90006        40.52706
C34                   3072571.26923     -3824.78323        17.70823
C37  22654675.39507  -1328564.50807       985.21007        42.73807
E13  24216881.00224  -1884172.00624      1509.47124        29.16424  24216875.60605  -1405268.11305      1129.71205        33.93105
E15  23696432.60107   1196600.43507     -1333.94807        43.56307  23696431.40204    894530.18304      -996.65104        28.23104
E18  19270524.89306   3155552.78206     -3505.94406        40.94706  19270524.89305   2358504.72605     -2617.52905        30.32205
E19  27874934.48405     11866.49905     -2444.61805        32.71805                     34216.92521     -1819.61521        12.00021
E21  25118779.63106  -3776805.36406      1151.48406        39.00206  25118781.72924  -2841479.45424       862.36224        23.52424
E26                       -29.96524      2512.19324        27.89224                                                                
E27  23503693.33206    857102.59806      -887.40206        36.57906  23503694.23104    639578.19504      -663.00104        28.52704
E30  25733468.09124   2413249.46824     -2697.34424        26.42024                   1831543.08223     -2016.70023        19.31723
> 2021 04 08 21 29 17.0000432  0 33                      
G02  22253945.51407  -2612530.50707      2126.62507        45.45007                                                                
G03                        -1.11721      -134.63421        12.00021                                                                
G06  20994063.51207  -1210381.47807       723.17707        42.48907  20994064.71124   -905636.97824       534.30024        24.99224
G12  22702253.05726  -4979124.09826      1907.71726        37.64626                                                                
G13  25020296.01006   3444257.35506     -3808.27206        41.27106                                                                
G14  23779788.69525   3585496.69425     -3243.54825        29.69225                                                                
G15  25156789.71726   5639052.08426     -3280.02926        37.80026                                                                
G17  22463584.68426   3562908.27326     -3230.68226        36.89726                                                                
G19  20573410.62407   2308616.55807     -2286.57307        44.11907                                                                
G24  20951791.87607   -187157.52707      -184.57307        46.78107  20951790.37705   -143332.02805      -137.37905        35.04105
R14  21596090.83707  -3509319.91307      2677.38107        43.86807
R13  19293697.95105     99185.56805      -433.82505        32.39305
R12  21535831.35407   4406885.99507     -3578.68407        41.66007
R24  20357098.67408  -2808611.67308      2161.91708        48.94208
R23  19024867.15907    524944.79707      -938.20407        43.68907
C04                    768479.51424      -653.66524        27.04924
C06                      -571.48321      -173.65821        12.00021
C11  24793229.30524   3076844.57224     -3511.97524        28.64524
C16                      -276.94923       -52.68323        18.86123
C23  22210332.30707   1952477.35907     -1946.26907        43.57207
C25  25771272.81907   4106218.87407     -3696.88107        42.87107
C27  25247983.28507  -2773818.97507      2402.37907        44.31207
C28  21862411.46706   -770217.26906       442.98106        40.68006
C34                   3076397.48923     -3822.81123        19.35523
C37  22654364.81007  -1329549.58707       984.58507        42.57307
E13  24216477.78105  -1885684.72605      1511.95405        29.58305  24216468.18805  -1406397.79905      1129.42805        33.95105
E15  23696566.30907   1197934.61207     -1334.55207        43.61407  23696565.40904    895526.54304      -997.87804        28.13204
E18  19271078.31006   3159058.99306     -3506.81706        40.72806  19271072.91405   2361123.02905     -2618.47405        29.96105
E19  27875268.45305     14311.20905     -2444.89205        33.85305                     36034.09621     -1818.83421        12.00021
E21  25118439.96606  -3777957.17706      1152.06606        38.85406  25118443.56324  -2842339.48824       861.37924        24.85224
E26                       -30.03024      2513.16824        24.30424                                                                
E27  23503741.29806    857990.14506      -887.84606        36.36606  23503742.79704    640240.91104      -663.02204        29.17304
E30  25733866.51524   2415925.63024     -2671.29124        24.64024                   1833564.21723     -2016.28223        20.26523
> 2021 04 08 21 29 18.0000427  0 33                      
G02  22253391.49807  -2614656.78007      2125.66307        45.30207                                                                
G03                        -1.12221      -134.63421        12.00021                                                                
G06  20993777.21006  -1211104.20506       722.34706        41.03106  20993774.81224   -906176.54824       535.17924        23.59924
G12  22701739.81326  -4981032.21326      1908.11526        37.59726                                                                
G13  25020871.61106   3448065.89206     -3809.12506        38.30406                                                                
G14  23780271.66024   3588744.48124     -3243.96224        28.32324                                                                
G15  25157262.49026   5642337.06426     -3282.34226        38.10126                                                                
G17  22464048.16326   3566138.58126     -3229.93826        37.15126                                                                
G19  20573696.02707   2310903.11907     -2286.83207        43.98907                                                                
G24  20951677.95507   -186972.96807      -184.80807        46.77907  20951676.15605   -143194.13905      -138.21005        34.68405
R14  21595437.88907  -3511997.55107      2678.01707        44.08207
R13  19293628.09905     99619.14305      -433.82205        32.51905
R12  21536349.99506   4410464.91606     -3578.73406        39.92906
R24  20356544.05808  -2810773.38308      2161.17408        49.34508
R23  19024894.73907    525883.29307      -938.94207        43.84307
C04                    769139.70724      -653.66524        27.00424
C06                      -571.49023      -173.65823        20.25123
C11  24793752.14325   3080355.83425     -3511.51325        30.19825
C16                      -276.94523       -54.63423        22.34123
C23  22210555.95207   1954423.82807     -1946.58007        43.79907
C25  25771833.13106   4109915.67606     -3697.29206        40.98806
C27  25247372.60807  -2776221.69807      2402.34307        44.65607
C28  21862179.72806   -770660.07106       442.14706        40.74506
C34  26937595.89023   3080223.87523     -3820.32423        23.31823
C37  22654025.74407  -1330534.54507       985.06007        42.18707
E13  24216037.08624  -1887196.77724      1512.42124        28.84224  24216031.09105  -1407526.81505      1128.90105        33.85105
E15  23696672.73507   1199269.07507     -1334.56107        42.85107  23696671.23614    896522.95914      -999.14714        27.19414
E18  19271590.65506   3162566.11706     -3507.49306        40.37906  19271590.35605   2363741.87805     -2618.67705        29.73905
E19  27875586.23305     16756.34505     -2446.08505        32.52905                     37857.30521     -1823.17921        12.00021
E21  25118071.22106  -3779109.09306      1152.11006        39.10406  25118073.91924  -2843199.76424       861.64224        25.80424
E26                       -29.93224      2513.16824        25.29324                                                                
E27  23503758.38706    858877.83706      -887.87006        36.32606  23503761.08504    640903.85704      -663.42404        28.81904
E30  25734222.66823   2418610.24623     -2673.58823        23.43823                   1835575.43323     -2014.31023        22.54223
> 2021 04 08 21 29 19.0000423  0 33                      
G02  22252866.56107  -2616781.84207      2124.48607        45.18407                                                                
G03                        -1.11922      -134.63422        14.14322                                                                
G06  20993519.08907  -1211825.94307       721.42107        41.85907  20993521.18824   -906715.59624       534.76524        25.16724
G12  22701256.54706  -4982939.97006      1908.36606        38.83706                                                                
G13  25021478.09105   3451875.35705     -3809.47705        34.45905                                                                
G14  23780769.91624   3591993.00724     -3243.06524        28.61324                                                                
G15  25157766.74006   5645618.00606     -3280.72606        39.43406                                                                
G17  22464542.82106   3569368.87406     -3229.13106        36.61006                                                                
G19  20574010.50907   2313189.64307     -2286.03407        43.96607                                                                
G24  20951592.21507   -186787.71707      -185.34407        47.29207  20951591.01505   -143055.80905      -138.32305        34.44005
R14  21594816.42007  -3514675.55007      2678.43607        43.50507
R13  19293583.13005    100053.20505      -434.04705        32.22505
R12  21536893.81907   4414044.60707     -3579.91407        41.73607
R24  20356021.81908  -2812933.70908      2159.71008        48.95908
R23  19024941.50707    526822.60407      -939.30107        43.66607
C04                    769791.41824      -653.66524        26.60024
C06                      -571.48624      -173.65824        27.44824
C11  24794311.55524   3083864.21124     -3503.95924        27.60724
C16                      -276.94823       -54.63423        19.28423
C23  22210812.57407   1956371.09107     -1947.30107        43.77907
C25  25772425.22107   4113613.38207     -3698.20007        42.03807
C27  25246791.31007  -2778623.31107      2401.29107        45.24707
C28  21861973.17106   -771102.13606       441.93806        40.77506
C34  26938208.96624   3084049.85224     -3818.57524        23.92424
C37  22653716.95807  -1331519.31607       984.96907        42.06707
E13  24215624.57205  -1888707.48605      1510.44405        29.91005  24215623.67305  -1408654.94605      1127.51605        33.95605
E15  23696807.04207   1200603.78707     -1334.38107        43.41207  23696804.64404    897519.62204      -996.22504        27.33804
E18  19272144.67206   3166073.82906     -3507.68306        39.12206  19272137.77704   2366361.37104     -2619.71004        29.21504
E19  27875933.39305     19201.55805     -2445.06305        32.16805                     39680.48421     -1823.17921        12.00021
E21  25117733.05506  -3780261.32806      1152.57806        39.56806  25117733.65524  -2844060.17424       862.09924        26.29924
E26                       -29.98524      2512.19324        23.86524                                                                
E27  23503807.25306    859765.57606      -887.42506        36.67006  23503810.85004    641566.73804      -662.60304        29.22304
E30  25734613.59824   2421301.56724     -2674.98524        24.83624                   1837591.36023     -2015.73123        23.41923
> 2021 04 08 21 29 20.0000419  0 33                      
G02  22252342.82407  -2618904.53607      2120.98307        44.97207                                                                
G03                        -1.11621      -134.63421        12.00021                                                                
G06  20993260.96806  -1212546.28206       719.50706        41.07106  20993264.86524   -907253.54824       535.29624        24.88024
G12  22700772.98206  -4984849.70606      1910.94006        38.83206                                                                
G13  25022084.27225   3455689.40925     -3814.96825        29.71925                                                                
G14  23781258.57724   3595241.67424     -3249.21224        29.33324                                                                
G15  25158272.19106   5648900.26906     -3283.25406        39.70806                                                                
G17  22465038.07806   3572597.23806     -3227.56306        37.21206                                                                
G19  20574325.59107   2315475.41907     -2285.30007        44.08207                                                                
G24  20951507.67307   -186602.44407      -185.24107        46.94607  20951506.47405   -142917.46605      -138.08005        34.48105
R14  21594190.75307  -3517355.59107      2681.43307        43.56407
R13  19293539.96005    100487.29305      -434.08705        32.65905
R12  21537449.33407   4417626.09407     -3583.10107        41.79307
R24  20355494.78408  -2815092.05908      2156.97108        48.50908
R23  19025004.76307    527762.44107      -940.13507        44.04807
C04                    770454.59224      -653.66524        26.74124
C06                      -571.48125      -173.65825        31.52825
C11  24794864.07324   3087368.38024     -3511.94824        29.32124
C16                      -276.94824       -52.68324        26.45924
C23  22211066.19907   1958319.43207     -1949.26907        43.79307
C25  25773015.21307   4117313.08007     -3700.91007        42.01607
C27  25246209.11307  -2781023.12607      2399.30607        44.70107
C28  21861769.31206   -771543.25006       440.49906        40.53206
C34  26938824.74023   3087866.09623     -3819.92323        21.90123
C37  22653408.17207  -1332505.03607       986.19507        42.43107
E13  24215217.45405  -1890216.52805      1507.84905        30.96505  24215215.95505  -1409781.84205      1125.96605        34.14705
E15  23696941.04907   1201938.42607     -1334.77807        43.12607  23696937.45224    898516.35624      -997.37124        27.35624
E18  19272687.59606   3169581.38606     -3507.27406        40.49106  19272684.59805   2368980.61805     -2618.97705        29.74105
E19  27876278.45405     21646.88405     -2445.51805        31.77705                     41503.66221     -1823.17921        12.00021
E21  25117391.29206  -3781415.14406      1154.93706        39.48306  25117393.99024  -2844921.70824       861.80024        25.71424
E26                       -30.03823      2511.21723        20.23723                                                                
E27  23503855.51906    860653.01406      -887.41906        36.30306  23503860.01604    642229.54804      -663.24604        29.39904
E30  25735006.32613   2423976.21013     -2676.58313        23.44513                   1839607.68423     -2015.78723        22.76623
> 2021 04 08 21 29 21.0000414  0 33                      
G02  22251790.00607  -2621022.98007      2115.38707        45.27907                                                                
G03                        -1.14821      -132.68321        12.00021                                                                
G06  20992975.26606  -1213264.21906       716.20606        41.20406  20992978.56324   -907789.70224       535.24424        26.09024
G12  22700257.33906  -4986763.18306      1915.82606        39.46206                                                                
G13                   3459509.39024     -3814.73824        25.56324                                                                
G14  23781731.35024   3598493.29124     -3251.45424        28.39124                                                                
G15  25158746.76206   5652185.02506     -3287.47706        38.93006                                                                
G17  22465504.25505   3575822.68105     -3222.63205        35.38405                                                                
G19  20574610.99307   2317758.86807     -2282.07507        44.75707                                                                
G24  20951392.55307   -186418.63607      -183.17507        45.64207  20951391.65305   -142780.15705      -136.75505        35.34905
R14  21593538.10507  -3520040.55907      2687.71207        43.13307
R13  19293482.10005    100920.41105      -432.65205        32.35705
R12  21537974.87006   4421211.18406     -3587.69406        40.39106
R24  20354941.06807  -2817247.57107      2153.35307        45.46407
R23  19025030.54507    528701.96207      -939.40307        45.11107
C04                    771106.05924      -653.66524        26.71024
C06                      -405.80825      -164.79425        29.92625
C11  24795384.21325   3090874.19725     -3503.77525        30.41225
C16                      -276.95025       -52.68325        34.11625
C23  22211287.74507   1960269.29207     -1951.19907        42.50007
C25  25773577.32426   4121017.40526     -3704.40526        39.12826
C27  25245599.63506  -2783420.13406      2395.92606        41.35906
C28  21861535.47407   -771983.66607       439.51507        42.08807
C34                   2733854.14923     -3812.67923        23.36523
C37  22653068.50707  -1333493.74007       990.40007        44.43607
E13  24214780.95614  -1891722.50914      1508.00614        28.84014  24214780.05705  -1410906.34505      1122.82305        34.19305
E15  23697042.07907   1203272.27107     -1333.34107        43.05007  23697042.37924    899512.38124      -996.03224        28.76324
E18  19273205.03806   3173087.79206     -3505.65506        39.58506  19273202.93925   2371599.16725     -2618.24025        29.74025
E19  27876595.03525     24091.46825     -2446.76625        30.35825                     43328.05221     -1823.17921        12.00021
E21  25117024.04606  -3782573.00206      1160.42406        40.96806  25117024.34623  -2845785.73223       862.26223        22.06323
E26                       -29.92222      2508.29022        14.73222                                                                
E27  23503875.60606    861539.40406      -886.05506        36.09806  23503877.40424    642891.27824      -660.88724        29.35724
E30  25735367.87624   2426650.89124     -2677.92424        23.74524                   1841626.05123     -2016.91523        20.07223
> 2021 04 08 21 29 22.0000410  0 33                      
G02  22251268.96707  -2623133.88407      2106.55607        44.78407                                                                
G03                        -1.17221      -130.73221        12.00021                                                                
G06  20992720.14206  -1213978.34106       712.62806        39.64706  20992722.24124   -908322.90624       533.01924        24.75224
G12  22699772.57406  -4988680.39806      1919.13406        39.88806                                                                
G13  25023266.35324   3463329.84324     -3815.23024        23.95024                                                                
G14  23782235.90124   3601740.09524     -3247.37924        28.22124                                                                
G15  25159251.61325   5655473.12425     -3297.02725        33.82525                                                                
G17  22466000.41205   3579043.44705     -3217.57605        33.79605                                                                
G19  20574924.87607   2320039.31607     -2278.80207        44.93307                                                                
G24  20951307.71107   -186234.96707      -184.09107        46.22307  20951306.81206   -142643.00306      -137.56506        35.64506
R14  21592915.13607  -3522731.67307      2693.98107        44.04107
R13  19293434.13305    101352.93605      -432.09105        32.39305
R12  21538532.78406   4424801.08706     -3592.04606        38.60006
R24  20354419.12907  -2819397.06807      2145.70607        43.79307
R23  19025082.41007    529642.00807      -940.46907        45.30407
C04                    771769.08724      -655.61624        26.39924
C06  41047659.19725      -244.06225      -157.19725        30.53725
C11  24795942.72625   3094374.64125     -3497.56225        32.80625
C16  41453791.93727      -204.72327       -39.96927        41.63727
C23  22211544.36807   1962222.58707     -1954.99707        42.72007
C25  25774170.31326   4124725.32226     -3713.36926        36.09226
C27  25245019.53727  -2785811.11627      2387.02827        43.76627
C28  21861333.41407   -772421.23207       435.74207        42.34607
C34                   2733854.21924     -3810.72824        24.83524
C37  22652758.52207  -1334485.11907       992.50707        45.84307
E13  24214379.23424  -1893222.26824      1501.02524        28.81824  24214374.43705  -1412026.32305      1117.35305        34.23705
E15  23697179.98407   1204605.14407     -1332.16007        43.29007  23697176.38604    900507.72004      -995.35604        27.55104
E18  19273748.56206   3176591.32106     -3501.26506        37.23906  19273752.15924   2374215.33724     -2614.39224        28.65224
E19  27876938.89705     26535.01705     -2444.29005        31.49405                     45152.45921     -1824.39821        12.00021
E21  25116682.28307  -3783735.26507      1164.38007        41.90907                  -2846652.37323       861.23123        18.51423
E26                       -29.95823      2504.38823        19.21223                                                                
E27  23503923.27306    862424.89106      -884.92706        36.33406  23503925.67104    643552.62104      -661.06104        29.07904
E30                   2759798.64824     -2702.43624        24.09024                                                                
> 2021 04 08 21 29 23.0000406  0 33                      
G02  22250747.62807  -2625236.07707      2098.64707        43.11607                                                                
G03                        -1.24521      -125.85421        12.00021                                                                
G06  20992463.52006  -1214688.67006       708.77006        38.76806  20992466.51823   -908853.43723       532.52823        23.09523
G12  22699288.41006  -4990600.86806      1923.16506        37.64306                                                                
G13  25023872.83323   3467143.99623     -3816.12223        20.15323                                                                
G14  23782730.55825   3604980.21725     -3249.13125        29.96725                                                                
G15  25159771.15325   5658768.91725     -3306.64025        30.02225                                                                
G17  22466486.67505   3582257.84305     -3211.94505        34.15005                                                                
G19  20575237.55907   2322315.93107     -2275.08807        44.09407                                                                
G24  20951222.87007   -186050.66607      -184.61307        45.59807  20951222.27106   -142505.37206      -137.92306        35.71806
R14  21592287.37107  -3525428.99907      2699.79807        43.02807
R13  19293387.66605    101784.50405      -431.51905        31.58905
R12  21539070.91106   4428395.61406     -3596.71006        40.34806
R24  20353903.48607  -2821539.05707      2138.45007        44.09907
R23  19025142.66807    530582.75207      -941.01307        45.14207
C04                    772423.41624      -655.61624        25.59524
C06  41047597.44025       -96.14425      -140.19325        33.17625
C11  24796490.74725   3097867.52325     -3489.53125        33.33925
C16  41453693.30527      -171.99527       -29.56127        43.67927
C23  22211802.48907   1964179.44807     -1958.42607        43.30907
C25  25774761.50426   4128442.77526     -3720.58626        35.61726
C27  25244443.63527  -2788193.04227      2378.80327        45.39527
C28  21861127.75607   -772854.84607       432.04807        41.92007
C34                   2736928.42324     -3810.73524        28.90824
C37  22652447.63707  -1335478.86507       994.53307        45.23007
E13  24213972.71604  -1894714.85704      1488.64804        28.73904  24213970.91705  -1413140.97905      1112.52205        34.05005
E15  23697309.49407   1205936.07407     -1329.98907        42.55107  23697308.29524    901501.56424      -995.64524        25.34524
E18  19274298.08126   3180090.72026     -3497.99026        35.56726  19274297.48224   2376828.49024     -2612.16124        26.22324
E19  27877282.45905     28979.69605     -2445.62805        31.28705                     46975.64621     -1824.39821        12.00021
E21  25116339.92006  -3784901.49706      1167.56306        40.50506                  -2847525.24922       861.46022        13.46322
E26                       -29.97023      2496.58323        17.93223                                                                
E27  23503973.03806    863309.10606      -883.87006        36.95406  23503974.23704    644212.89004      -659.54804        29.18104
E30                   2759798.75224     -2705.36324        25.03024                                                                
> 2021 04 08 21 29 24.0000402  0 33                      
G02  22250230.48607  -2627331.71607      2093.15607        43.74607                                                                
G03                        -1.35121      -118.04921        12.00021                                                                
G06  20992208.69606  -1215395.80006       705.68606        39.89906  20992211.69424   -909381.54824       531.94824        23.75524
G12  22698803.04606  -4992523.41706      1923.82006        38.41806                                                                
G13                   3470954.69923     -3818.25023        17.79523                                                                
G14  23783230.01225   3608226.61825     -3250.66825        29.95425                                                                
G15  25160271.50624   5662071.40324     -3308.51824        28.43324                                                                
G17  22466984.63025   3585467.43925     -3205.14425        33.71925                                                                
G19  20575551.14207   2324590.05907     -2273.46307        44.69507                                                                
G24  20951138.92807   -185865.82207      -185.27207        45.46407  20951137.42906   -142367.36006      -138.34806        35.55606
R14  21591654.50907  -3528130.97007      2703.87307        42.52307
R13  19293352.29005    102215.65205      -431.07105        31.64305
R12  21539634.22206   4431993.79606     -3599.35106        39.80506
R24  20353384.24507  -2823675.58507      2134.11107        44.16807
R23  19025196.63007    531524.27407      -942.12207        45.08007
C04                    773088.72524      -657.56724        26.97424
C06  41047489.51425        32.20025      -138.67125        34.65525
C11  24797042.36525   3101353.82025     -3482.16625        32.89025
C16  41453572.78927      -145.10927       -24.81427        44.89827
C23  22212056.71307   1966139.13407     -1961.04807        42.50507
C25  25775354.79325   4132165.09525     -3724.63725        34.27825
C27  25243868.63327  -2790569.22027      2373.79927        46.77327
C28  21860926.59507   -773285.59807       429.49907        41.96807
C34                   2740703.39924     -3785.83324        28.06324
C37  22652134.95307  -1336474.35207       995.95807        44.92907
E13  24213571.89304  -1896202.16004      1483.94904        29.01104  24213567.69605  -1414251.62405      1108.97505        34.07305
E15  23697442.90207   1207266.01707     -1329.55807        43.02207  23697441.70214    902494.68114      -990.47414        25.36514
E18  19274844.60325   3183587.50425     -3494.71725        33.92225  19274842.20424   2379439.67724     -2610.40524        26.65924
E19  27877627.22024     31424.23624     -2445.27524        28.31524                     48798.81721     -1823.17921        12.00021
E21  25115997.55706  -3786070.99106      1170.93606        40.53506                  -2848392.40122       867.06222        14.24822
E26                       -29.80822      2485.85122        16.57722                                                                
E27  23504020.10506    864192.59006      -883.64806        36.90606  23504023.10325    644872.62725      -659.66425        29.67625
E30                   2759798.84324     -2707.31424        25.67424                                                                
> 2021 04 08 21 29 25.0000397  0 33                      
G02  22249680.36707  -2629422.77607      2089.28007        42.07307                                                                
G03                        -1.41721      -113.17121        12.00021                                                                
G06  20991925.99206  -1216100.61506       703.32706        41.08406                   -909907.62223       530.70723        20.58423
G12  22698285.00406  -4994447.85206      1925.09006        37.79706                                                                
G13                   3474773.71622     -3817.41922        15.06222                                                                
G14  23783691.09305   3611478.01605     -3251.75205        31.58305                                                                
G15  25160751.77404   5665377.06404     -3305.69904        29.27904                                                                
G17  22467445.11105   3588674.82105     -3205.09905        34.58705                                                                
G19  20575833.24707   2326862.52507     -2271.49607        43.36607                                                                
G24  20951022.00907   -185680.34307      -186.04907        45.03207  20951022.60905   -142228.91405      -138.47105        35.19405
R14  21591006.05807  -3530836.07607      2706.14307        41.88607
R13  19293300.42605    102646.78105      -431.27005        32.16905
R12  21540155.86006   4435594.52506     -3601.85406        39.60306
R24  20352832.92707  -2825808.03207      2130.62707        44.68507
R23  19025223.91207    532466.55907      -942.83707        44.72807
C04                    773747.78624      -659.51824        27.05024
C06  41047368.39825       172.01825      -140.47525        34.23525
C11  24797559.80725   3104829.85425     -3481.13425        33.06825
C16  41453434.88427      -122.27327       -21.20827        44.75127
C23  22212284.55507   1968100.83607     -1962.56707        43.55307
C25  25775921.70126   4135890.68226     -3727.25426        35.81226
C27  25243261.25427  -2792941.06927      2369.99227        44.57927
C28  21860693.05706   -773714.17706       427.33106        39.89306
C34                   2744525.73024     -3793.28824        26.35924
C37  22651796.78707  -1337470.88207       996.61607        44.39207
E13                  -1897685.77815      1481.47715        34.24015  24213135.99505  -1415359.52705      1106.72905        34.06005
E15  23697547.82907   1208595.35707     -1329.05707        42.70207  23697543.03223    903489.29823      -993.96423        22.27623
E18  19275361.14505   3187082.69205     -3494.69405        35.45705  19275357.54824   2382050.00724     -2612.97224        26.33724
E19  27877943.20224     33870.10824     -2444.48524        28.27924                     50624.41821     -1823.17921        12.00021
E21  25115627.91306  -3787242.49206      1172.93506        39.85606                  -2849259.46323       867.06223        19.04823
E26                       -29.82622      2479.02222        16.16022                                                                
E27  23504040.19206    865075.54906      -883.12606        37.02806  23504041.99005    645531.94905      -658.87305        30.07405
E30                   2759798.93424     -2709.26624        25.58624                                                                
> 2021 04 08 21 29 26.0000393  0 33                      
G02  22249161.42606  -2631509.66506      2085.16206        41.38206                                                                
G03                        -1.46221      -110.24421        12.00021                                                                
G06  20991670.86907  -1216803.54007       702.10007        42.12907                   -910432.39122       531.29722        15.78322
G12  22697799.94006  -4996374.08006      1926.97606        41.07006                                                                
G13                   3478593.11221     -3819.74421        12.00021                                                                
G14  23784193.54505   3614729.46605     -3251.69605        30.84705                                                                
G15  25161269.21614   5668685.71914     -3310.12114        28.31714                                                                
G17  22467933.17405   3591878.74805     -3202.21105        34.13705                                                                
G19  20576142.63307   2329133.18007     -2269.96007        42.21607                                                                
G24  20950938.66707   -185494.71307      -185.61807        45.14307  20950937.46805   -142090.29605      -138.70305        34.85305
R14  21590369.89807  -3533544.46207      2709.81007        42.96107
R13  19293259.65405    103077.47405      -430.49605        32.90005
R12  21540700.28306   4439197.74606     -3604.25306        39.95206
R24  20352317.88407  -2827936.85007      2127.13007        44.08807
R23  19025272.47807    533409.22707      -942.80307        44.45407
C04                    774416.88624      -661.47024        25.44124
C06  41047287.15425       312.01325      -139.73225        33.79225
C11  24798109.62625   3108310.38225     -3479.35925        33.54125
C16  41453317.06627      -103.42727       -17.27327        44.09927
C23  22212544.17607   1970064.31907     -1964.12907        44.09107
C25  25776519.78726   4139619.64326     -3730.34426        36.69226
C27  25242688.95027  -2795309.24027      2366.57127        45.38327
C28  21860486.80006   -774141.09706       426.14506        38.29306
C34                   2748320.55324     -3790.60324        26.57924
C37  22651480.80607  -1338468.81407       998.56207        43.30107
E13  24212732.77406  -1899117.08106      1478.06506        36.10206  24212733.37305  -1416464.90905      1104.25105        34.33405
E15  23697679.13807   1209923.89707     -1328.36207        41.77807                    904487.88723      -995.62523        19.51023
E18  19275892.67705   3190576.48005     -3493.06105        35.24405  19275904.66924   2384658.98224     -2609.10524        25.88724
E19                     36316.38704     -2446.82104        25.50604                     52450.05222     -1825.61822        13.71322
E21  25115277.45506  -3788416.16906      1174.63706        37.81306                  -2850133.34023       866.33823        20.75423
E26                       -29.70022      2474.14422        16.57722                                                                
E27  23504089.95706    865957.78806      -882.06106        37.75806  23504090.85605    646190.82705      -658.87005        30.38305
E30                   2759798.84124     -2710.24124        23.88124                                                                
> 2021 04 08 21 29 27.0000389  0 33                      
G02  22248646.98206  -2633595.53606      2086.82706        41.30006                                                                
G03                        -1.50021      -107.31721        12.00021                                                                
G06  20991419.94207  -1217505.66107       702.32307        41.66807                   -910954.25623       525.59923        19.91323
G12  22697312.77706  -4998300.78306      1926.38806        41.12606                                                                
G13                   3482437.99621     -3820.49921        12.00021                                                                
G14  23784687.90314   3617980.95514     -3251.74914        29.00614                                                                
G15  25161773.16724   5671994.32424     -3311.57624        27.76624                                                                
G17  22468422.73505   3595081.96105     -3203.84305        35.13405                                                                
G19  20576456.51607   2331403.59507     -2270.97907        42.81907                                                                
G24  20950850.82807   -185308.65007      -186.24207        45.10807  20950852.62705   -141951.35205      -138.83905        35.01605
R14  21589760.12007  -3536253.60207      2708.65907        43.08707
R13  19293199.69605    103508.45005      -431.49505        32.53305
R12  21541266.29207   4442801.71807     -3604.15507        41.76207
R24  20351782.45407  -2830064.45807      2127.81207        42.86107
R23  19025334.53507    534352.54707      -943.81007        45.14907
C04                    775077.00124      -663.42124        26.13724
C06  41047192.12025       452.29325      -140.13525        35.39825
C11  24798652.85005   3111790.96905     -3480.40505        34.02405
C16  41453192.65227       -85.40627       -18.52927        43.88227
C23  22212798.10007   1972028.35407     -1963.79807        44.29607
C25  25777117.27306   4143349.33506     -3729.03406        39.42806
C27  25242111.85007  -2797675.98807      2368.02907        45.59807
C28  21860293.73406   -774567.42906       426.64906        39.23806
C34  26943040.72124   2752108.74624     -3781.06124        29.12024
C37  22651173.51907  -1339466.92707       997.77607        43.65307
E13  24212337.34806  -1900596.44706      1480.30506        36.23406  24212332.25105  -1417569.63305      1105.13105        34.57905
E15  23697811.64607   1211252.42907     -1328.79907        41.84307                    905499.32823      -995.20723        17.74223
E18  19276440.99806   3194070.83906     -3495.48806        36.27806  19276449.09204   2387268.17904     -2609.71404        26.54204
E19  27878637.22114     38762.80014     -2445.03514        25.95514                     54275.67022     -1825.61822        15.46222
E21  25114938.69006  -3789590.58806      1174.02606        38.76206                  -2851006.63223       874.87523        20.53223
E26                       -29.72923      2469.26623        19.28323                                                                
E27  23504136.12506    866839.90606      -882.10506        37.81406  23504139.12305    646849.57905      -659.03205        30.46005
E30                   2759798.91923     -2711.21723        23.19723                                                                
> 2021 04 08 21 29 28.0000385  0 33                      
G02  22248131.93907  -2635683.79107      2089.42307        42.59307                                                                
G03                        -1.51221      -106.34121        12.00021                                                                
G06  20991164.81907  -1218208.02607       702.39807        44.04207                   -911480.16523       527.81023        19.43823
G12  22696830.11106  -5000225.91706      1923.89106        38.50906                                                                
G13                   3486260.88922     -3849.75222        12.83322                                                                
G14  23785185.85824   3621234.85124     -3250.14924        27.52724                                                                
G15  25162278.01724   5675301.40324     -3307.82324        29.09224                                                                
G17  22468914.09406   3598287.88006     -3208.25006        36.37906                                                                
G19  20576770.69807   2333676.35107     -2273.97107        43.33307                                                                
G24  20950768.68507   -185121.50907      -187.69707        46.47507  20950768.08505   -141811.55005      -140.16005        34.34405
R14  21589129.35707  -3538959.90107      2705.42907        42.83307
R13  19293177.21105    103940.94205      -433.11205        33.91005
R12  21541828.10307   4446404.62507     -3602.98107        42.38707
R24  20351281.50107  -2832193.90307      2130.40807        45.42307
R23  19025390.59607    535297.12807      -945.30807        44.79207
C04                    775748.84224      -663.42124        25.99424
C06  41047103.68125       592.28625      -139.15025        35.08925
C11  24799210.46425   3115273.67425     -3486.54025        34.67025
C16  41453082.02827       -64.15127       -22.71027        43.36527
C23  22213055.92107   1973992.08207     -1963.96707        43.91007
C25  25777712.36106   4147076.89106     -3727.25606        38.68706
C27  25241537.14707  -2800046.00007      2371.52407        45.26007
C28  21860084.47806   -774994.10706       426.98306        39.50306
C34  26943656.79524   2755880.66724     -3776.30424        27.30624
C37  22650861.43507  -1340463.29507       995.98307        43.20307
E13  24211934.72606  -1902077.74806      1482.60306        38.67506  24211931.12905  -1418675.69905      1106.50005        34.40905
E15  23697945.05406   1212582.66606     -1330.94106        40.73106                    906490.91822      -990.02422        13.72722
E18  19276992.91606   3197568.26106     -3498.93506        37.05206  19276995.01424   2389879.97024     -2612.54124        25.99624
E19  27878981.68324     41207.92924     -2445.76824        25.81724                     56100.55122     -1825.90422        13.90722
E21  25114595.72706  -3790762.93706      1171.47106        39.19206                  -2851881.31723       876.44723        21.64423
E26                       -29.78123      2468.29023        19.55923                                                                
E27  23504184.99106    867723.05006      -883.58806        38.11006  23504186.49025    647509.03925      -659.65025        30.29425
E30                   2759798.99624     -2712.19324        26.17724                                                                
> 2021 04 08 21 29 29.0000380  0 33                      
G02  22247584.51807  -2637773.44807      2089.37507        42.06307                                                                
G03                        -1.47521      -109.26821        12.00021                                                                
G06  20990881.21507  -1218909.85107       701.76207        44.87507                   -912012.44324       523.29124        29.07724
G12  22696312.96906  -5002151.14506      1927.62906        40.36806                                                                
G13                   3490108.16422     -3850.72722        16.73422                                                                
G14  23785665.52624   3624483.82424     -3252.88924        28.28524                                                                
G15  25162761.28324   5678614.67624     -3306.21624        27.23124                                                                
G17  22469372.17705   3601496.16605     -3208.63205        35.34105                                                                
G19  20577054.30207   2335950.87107     -2273.91907        43.06307                                                                
G24  20950656.26207   -184934.40207      -185.51107        46.84607  20950654.16405   -141671.83205      -138.63405        34.30805
R14  21588470.41306  -3541665.13506      2706.25306        40.75706
R13  19293108.25905    104374.83405      -433.23505        33.53405
R12  21542353.63906   4450008.33506     -3605.35906        40.21006
R24  20350725.08607  -2834324.55507      2131.05107        43.00707
R23  19025420.27607    536242.72307      -945.02207        45.05807
C04                    776409.72924      -665.37224        25.25724
C06  41046987.36226       731.63626      -138.26826        35.95526
C11  24799725.20726   3118757.93926     -3484.04626        35.89226
C16  41452933.03226       -41.40026       -21.58026        41.00726
C23  22213279.56707   1975955.75907     -1963.01407        43.44307
C25  25778278.96906   4150804.03206     -3728.59206        39.59406
C27  25240931.86607  -2802418.45307      2373.10007        42.59807
C28  21859852.13906   -775421.36206       428.30106        38.78006
C34  26944228.19924   2759659.22624     -3785.94324        29.15324
C37  22650522.66907  -1341459.02207       996.76607        42.97607
E13  24211500.92706  -1903559.88606      1482.83706        38.64106  24211499.12805  -1419782.60205      1106.90705        35.08005
E15  23698046.38406   1213914.53406     -1331.21606        39.23706                    907483.05923     -1001.80723        21.19123
E18  19277518.15206   3201068.96006     -3502.15606        36.03306  19277507.65923   2392497.76223     -2625.30423        22.79823
E19  27879302.16124     43658.46624     -2446.50324        23.96624                     57928.05621     -1823.48421        12.00721
E21  25114223.08506  -3791934.90906      1173.48306        39.34706                  -2852759.71423       875.94223        23.37423
E26                       -29.70223      2471.21723        19.94223                                                                
E27  23504205.37706    868607.33506      -883.53606        36.59606  23504206.27724    648169.39024      -659.67524        28.30724
E30                   2759798.87624     -2711.21724        27.00424                                                                
> 2021 04 08 21 29 30.0000376  0 33                      
G02  22247065.27706  -2639863.00306      2089.64806        40.83406                                                                
G03                        -1.43123      -112.19523        17.95423                                                                
G06  20990627.59107  -1219610.04007       698.86407        41.59107  20990626.99125   -912535.15625       522.52025        31.96925
G12  22695824.90706  -5004078.47806      1929.11806        40.96806                                                                
G13                   3493951.67022     -3846.82522        17.24522                                                                
G14  23786167.07924   3627733.57424     -3255.56324        26.99924                                                                
G15  25163269.73124   5681918.88724     -3300.23824        26.57224                                                                
G17  22469857.54106   3604705.68706     -3210.82406        38.66306                                                                
G19  20577366.98506   2338225.67706     -2275.63206        41.11706                                                                
G24  20950570.82207   -184748.20207      -185.10307        45.00307  20950570.82205   -141532.83905      -138.59705        34.64605
R14  21587835.15326  -3544377.65326      2713.07326        39.07926
R13  19293067.78705    104809.38905      -435.20605        34.09505
R12  21542913.95106   4453614.07506     -3606.55206        38.03306
R24  20350221.43506  -2836455.11806      2130.89906        39.03506
R23  19025474.83807    537188.66207      -946.16607        45.24207
C04                    777077.69924      -663.42124        26.05224
C06  41046897.42426       869.87926      -133.22326        36.63026
C11  24800275.02726   3122243.44026     -3486.41326        35.87226
C16  41452818.21126       -20.41226       -20.36026        41.35426
C23  22213539.18707   1977920.28207     -1964.83007        43.42807
C25  25778876.15506   4154532.75506     -3728.40106        40.00606
C27  25240356.56506  -2804792.23506      2374.95306        40.72406
C28  21859649.77906   -775849.11606       427.54806        39.55606
C34  26944815.79225   2763452.10225     -3794.47825        33.50025
C37  22650206.98807  -1342456.01207       997.70407        45.94607
E13  24211100.70406  -1905042.25406      1483.95506        38.13806  24211097.40605  -1420889.44505      1106.84305        33.45505
E15  23698179.19225   1215248.68925     -1335.36825        34.32125                    908478.68924      -995.00324        24.28524
E18  19278055.68006   3204572.10206     -3505.89506        35.75006  19278057.77824   2395123.07324     -2621.42024        26.99424
E19  27879641.82624     46123.84124     -2446.58124        27.20824                     59753.68821     -1825.61821        12.00021
E21  25113878.32406  -3793108.65906      1174.15906        38.87306  25113880.72223  -2853636.17823       875.79023        23.10923
E26                       -29.77723      2474.14423        21.38423                                                                
E27  23504255.14306    869492.14006      -885.50806        36.26606  23504254.84324    648830.16724      -665.64624        27.43324
E30                   2759798.94024     -2711.21724        29.49524                                                                
> 2021 04 08 21 29 31.0000372  0 33                      
G02  22246548.73507  -2641952.07807      2088.78907        44.52007                                                                
G03                        -1.42221      -113.17121        12.00021                                                                
G06  20990374.26607  -1220307.16107       696.19707        42.97807  20990375.46505   -913055.28505       518.05805        31.54605
G12  22695336.84507  -5006010.25007      1933.62307        42.47407                                                                
G13                   3497794.30323     -3843.89823        18.21423                                                                
G14  23786658.13925   3630994.74225     -3262.71725        31.33025                                                                
G15  25163780.27724   5685226.33224     -3300.63924        25.70524                                                                
G17  22470349.20106   3607919.29106     -3216.08006        37.69906                                                                
G19  20577678.17006   2340502.99806     -2277.59406        37.41806                                                                
G24  20950485.68107   -184564.51807      -183.15307        43.26107  20950485.98005   -141395.71405      -136.58805        34.38405
R14  21587198.09426  -3547092.18226      2715.39126        40.08726
R13  19293025.51605    105246.08005      -436.74205        34.04405
R12  21543458.37406   4457222.82206     -3610.13306        37.72206
R24  20349697.39826  -2838587.58026      2129.28126        35.74626
R23  19025534.79607    538135.96607      -947.20607        45.41507
C04                    777736.28724      -661.47024        24.85624
C06  41046805.08826      1002.43226      -130.35826        36.22526
C11  24800822.74826   3125734.56726     -3492.65526        37.20926
C16  41452713.58426        -2.21026       -20.01626        37.91426
C23  22213791.61206   1979886.96806     -1968.29606        41.49506
C25  25779473.64226   4158261.48826     -3735.10426        36.24526
C27  25239780.36426  -2807170.97826      2379.90126        36.77326
C28  21859455.21407   -776277.64607       429.12307        42.34307
C34  26945421.97325   2767247.20525     -3798.69125        32.79925
C37  22649896.10308  -1343454.88608      1000.24408        47.78408
E13  24210692.68606  -1906524.71406      1482.47806        39.09506  24210695.38405  -1421995.86605      1106.67305        29.80805
E15  23698315.59706   1216585.16806     -1338.08806        39.70206  23698319.49524    909477.06824      -998.63224        27.05024
E18  19278605.49906   3208080.29606     -3508.97706        37.70006  19278600.10325   2397756.58225     -2619.94525        30.49525
E19  27879988.38625     48563.20725     -2436.77125        31.82925                     61579.30622     -1825.61822        13.16522
E21  25113534.76207  -3794285.25407      1179.19107        42.86107  25113532.06424  -2854514.88224       879.83624        29.32924
E26                       -29.84122      2475.12022        16.95722                                                                
E27  23504303.40907    870379.37507      -887.85907        41.72607  23504302.51014    649492.74114      -662.79014        26.46414
E30                   2759798.83425     -2711.21725        33.67525                                                                
> 2021 04 08 21 29 32.0000367  0 33                      
G02  22246000.71426  -2644041.40326      2086.17526        40.10726                                                                
G03                        -1.37922      -116.09722        12.66822                                                                
G06  20990093.96007  -1220999.21607       688.75907        43.39707  20990090.96224   -913571.35724       517.30224        28.89124
G12  22694819.10406  -5007948.51406      1942.72606        39.79706                                                                
G13                   3501630.73623     -3842.92223        18.68623                                                                
G14  23787127.61425   3634263.42725     -3272.15025        34.32625                                                                
G15  25164259.94523   5688527.04323     -3300.34223        22.82323                                                                
G17  22470813.28006   3611135.12306     -3216.66306        40.25506                                                                
G19  20577960.87406   2342781.27506     -2277.45906        36.28906                                                                
G24  20950371.46006   -184384.85406      -178.34206        41.28806  20950371.16015   -141261.96815      -134.51115        31.77715
R14  21586546.94507  -3549807.66807      2719.13407        45.30807
R13  19292964.95805    105684.18505      -438.89505        32.23705
R12  21543999.49926   4460829.85126     -3614.04126        36.53726
R24  20349137.38506  -2840720.37506      2133.12806        40.56906
R23  19025555.48207    539084.00107      -948.43807        44.89007
C04                    778401.84724      -661.47024        25.42224
C06  41046660.58825      1132.25425      -130.75025        34.57625
C11  24801339.29026   3129227.14226     -3490.09526        35.72226
C16  41452562.18826         7.58126       -10.74326        37.55126
C23  22214028.14826   1981856.97926     -1972.24026        40.58526
C25  25780039.65025   4162001.33325     -3742.28425        35.06325
C27  25239173.88425  -2809551.08125      2379.77625        35.49125
C28  21859220.17707   -776706.50007       428.67307        43.62207
C34  26946004.76925   2771045.31125     -3798.04025        30.08725
C37  22649550.14307  -1344457.96007      1005.31907        46.25007
E13  24210264.58326  -1908003.11126      1485.19526        38.20626  24210263.68304  -1423101.43904      1104.71704        27.75404
E15  23698423.82306   1217925.02706     -1341.29506        38.41506  23698421.42404    910477.47204     -1001.29704        28.06604
E18  19279116.94526   3211581.82826     -3512.90726        37.50826  19279119.64324   2400395.56124     -2619.21024        26.41724
E19  27880296.27306     50992.71806     -2425.95206        38.18506                     63404.52422     -1824.26522        15.23022
E21  25113160.02107  -3795467.67907      1185.45607        43.09707  25113159.12224  -2855398.05424       884.58824        28.90524
E26                       -29.77923      2480.97323        19.06523                                                                
E27  23504321.99606    871268.50506      -889.78006        40.60606  23504320.79724    650156.28624      -662.52524        24.19724
E30                   2759798.88425     -2710.24125        31.75625                                                                
> 2021 04 08 21 29 33.0000363  0 33                      
G02  22245485.37126  -2646129.52926      2080.88426        40.69326                                                                
G03                        -1.26721      -123.90221        12.00021                                                                
G06  20989843.63406  -1221684.96106       682.74906        39.37706  20989842.13524   -914083.45724       510.97724        26.06524
G12  22694328.64307  -5009897.90707      1953.82007        44.53407                                                                
G13                   3505466.58623     -3836.09323        18.53023                                                                
G14  23787629.76726   3637543.80326     -3286.61726        36.06726                                                                
G15  25164766.59523   5691826.50623     -3297.54023        22.91523                                                                
G17  22471303.74006   3614355.19506     -3223.95406        41.45206                                                                
G19  20578276.55606   2345061.56006     -2281.98606        39.37006                                                                
G24  20950283.92026   -184210.78926      -174.86426        38.60526  20950283.92005   -141131.57505      -127.79205        35.15005
R14  21585922.47707  -3552530.12707      2726.23307        42.40007
R13  19292911.29505    106124.65405      -442.04005        32.05905
R12  21544543.92326   4464448.24126     -3627.00426        37.31426
R24  20348634.33426  -2842853.34926      2132.51826        37.58826
R23  19025618.43807    540033.25707      -950.17407        44.93107
C04                    779042.38824      -657.56724        25.32724
C06  41046567.95225      1266.39625      -122.90425        34.98925
C11  24801893.90625   3132725.46925     -3495.82325        33.06025
C16  41452439.57325         7.04825        -0.05025        35.01425
C23  22214283.27206   1983831.64706     -1975.58506        40.52706
C25  25780640.13425   4165750.86025     -3751.85925        34.31025
C27  25238598.28206  -2811935.52006      2389.51706        37.20306
C28  21859019.61607   -777136.41907       431.49607        43.59207
C34  26946613.04825   2774848.46725     -3799.69625        32.05425
C37  22649240.75706  -1345466.39306      1010.77106        41.00906
E13  24209863.16006  -1909480.17506      1477.07206        36.20806  24209864.36025  -1424203.83125      1100.60725        29.86125
E15  23698559.92825   1219269.80425     -1345.69825        33.79025  23698556.03123    911482.08023     -1003.70523        22.80223
E18  19279673.95926   3215089.55226     -3521.37926        37.69326  19279668.56324   2403031.41024     -2626.75224        26.68324
E19  27880642.23326     53411.55826     -2412.46426        36.04126                     65216.77722     -1824.32222        15.64422
E21  25112816.45926  -3796656.74926      1193.99126        41.28326  25112813.46124  -2856286.69224       892.02124        27.72024
E26                       -29.83723      2480.97323        18.15323                                                                
E27  23504371.46207    872160.36907      -893.96207        43.83607  23504372.36224    650822.26824      -665.38824        25.54524
E30                   2759799.15225     -2724.87525        30.91325                                                                
> 2021 04 08 21 29 34.0000359  0 33                      
G02  22244969.72826  -2648211.84526      2082.45326        40.92326                                                                
G03                        -1.10823      -135.61023        20.06623                                                                
G06  20989596.00506  -1222364.33706       676.73306        36.29906  20989596.00523   -914586.91523       512.35623        22.26023
G12  22693835.18507  -5011855.96907      1962.88807        45.72107                                                                
G13                   3509297.19323     -3837.06923        17.85723                                                                
G14  23788138.21525   3640835.77625     -3297.76025        34.91025                                                                
G15  25165273.54423   5695125.18723     -3291.12523        23.43423                                                                
G17  22471803.19426   3617579.64726     -3228.45526        39.01326                                                                
G19  20578591.33806   2347345.55506     -2284.90706        38.59006                                                                
G24  20950197.88026   -184042.53226      -165.66026        39.17826  20950194.88205   -141005.88305      -123.53405        35.45805
R14  21585279.42207  -3555258.37107      2733.41907        46.57807
R13  19292879.81705    106568.19105      -444.41305        32.73405
R12  21545110.23106   4468085.25706     -3640.60206        38.18506
R24  20348113.29415  -2844990.50515      2133.36615        34.89915
R23  19025673.90007    540983.60907      -950.42607        44.97807
C04                    779677.52124      -643.90924        26.93524
C06  41046451.33325      1389.69625      -113.61725        33.77725
C11  24802452.12025   3136228.21825     -3509.43225        29.74925
C16  41452319.65626         4.86326         0.06326        38.25926
C23  22214538.39506   1985809.12306     -1978.59406        37.09206
C25  25781241.81825   4169508.91125     -3762.93125        32.68525
C27  25238018.48306  -2814329.01906      2396.84506        38.31706
C28  21858813.95807   -777569.00107       434.03507        43.74507
C34  26947219.82825   2778661.92325     -3819.38425        31.35625
C37  22648925.67507  -1346479.63607      1016.01707        42.58707
E13  24209458.44105  -1910957.10405      1477.33105        33.77105  24209461.73824  -1425306.83324      1102.91924        28.09024
E15  23698699.33225   1220622.63625     -1348.92825        30.30925                    912495.44223     -1006.71623        19.40423
E18  19280230.07426   3218617.11926     -3530.78526        37.65726  19280220.48124   2405650.82324     -2636.58024        25.49024
E19  27880980.69925     55817.93225     -2401.88125        31.91625                     67026.62123     -1811.89823        19.01123
E21  25112466.90106  -3797853.01606      1198.85106        41.01306  25112464.80224  -2857180.18324       895.55424        28.02024
E26                       -29.78723      2488.77823        19.79723                                                                
E27  23504421.82707    873056.15807      -897.08507        43.73907  23504423.32624    651491.26724      -669.92424        27.25024
E30                   2759799.25024     -2739.50924        28.87024                                                                
> 2021 04 08 21 29 35.0000355  0 33                      
G02  22244453.78527  -2650293.33627      2080.66627        41.97027                                                                
G03                        -1.01021      -142.43921        12.00021                                                                
G06  20989342.68005  -1223038.20105       670.17205        33.02605                   -915087.35423       506.16323        18.06423
G12  22693340.52707  -5013822.23307      1969.18007        46.08307                                                                
G13                   3513131.08122     -3829.26422        16.99722                                                                
G14  23788638.86825   3644138.52225     -3307.35525        33.87625                                                                
G15  25165762.20524   5698416.60924     -3265.71024        29.18024                                                                
G17  22472297.85226   3620811.15526     -3237.01526        40.84826                                                                
G19  20578906.71906   2349633.03906     -2289.23406        39.26906                                                                
G24  20950109.44126   -183879.41026      -161.36726        39.51026  20950105.54405   -140884.11705      -120.34805        35.27305
R14  21584645.36107  -3557991.81907      2733.25607        46.29407
R13  19292848.93905    107014.75205      -448.05305        31.95305
R12  21545662.14806   4471731.04306     -3649.67006        38.65206
R24  20347599.75025  -2847130.50425      2140.93325        33.34625
R23  19025730.26107    541935.35107      -952.56907        44.79307
C04                    780296.93024      -626.34824        25.43224
C06  41046352.70125      1501.81425      -107.57525        34.89125
C11  24803003.73825   3139736.28625     -3520.78125        29.83125
C16  41452195.54226        -1.38426         8.54926        38.75626
C23  22214801.91306   1987789.97806     -1981.98406        36.06906
C25  25781843.50125   4173274.73125     -3770.18225        31.41525
C27  25237439.28425  -2816726.76025      2407.05025        34.90025
C28  21858612.19807   -778003.41407       434.70707        44.33407
C34  26947836.80124   2782482.36524     -3826.79024        29.06624
C37  22648608.79407  -1347496.92207      1019.09007        41.96707
E13  24209059.71706  -1912433.66006      1475.77506        36.13806  24209060.61604  -1426409.41704      1101.36404        28.09404
E15  23698836.33724   1221992.78824     -1345.37724        27.53524                    913495.27623     -1009.46023        17.74623
E18  19280775.09706   3222152.85206     -3538.70006        41.06206  19280772.39924   2408291.13724     -2646.98424        25.43924
E19  27881314.36824     58213.53224     -2385.28024        29.21524                     68825.61222     -1810.92722        16.18522
E21  25112117.34306  -3799055.37206      1204.53606        40.65606  25112117.04304  -2858078.02204       899.99504        28.19504
E26                       -29.82222      2484.87622        15.41922                                                                
E27  23504474.29107    873955.55807      -901.03807        43.61707  23504475.49024    652162.83424      -672.36124        27.08724
E30                   2759799.46424     -2750.24124        28.84924                                                                
> 2021 04 08 21 29 36.0000350  0 33                      
G02  22243909.06226  -2652373.42726      2079.93726        40.16726                                                                
G03                        -0.88423      -151.21923        22.38523                                                                
G06  20989065.07305  -1223708.39905       668.54105        35.13205                   -915610.96023       505.59223        22.76023
G12  22692814.99107  -5015793.16607      1972.93007        47.36307                                                                
G13                   3516960.13322     -3833.16622        17.17422                                                                
G14  23789122.43325   3647447.25525     -3311.34125        33.01225                                                                
G15  25166229.28225   5701678.36725     -3253.04825        34.37225                                                                
G17  22472763.72927   3624048.35927     -3237.98727        41.71427                                                                
G19  20579191.22206   2351922.33006     -2290.04206        39.61306                                                                
G24  20949989.52426   -183718.51326      -160.27126        38.57426  20949986.22605   -140763.96605      -119.47605        35.01205
R14  21583991.81307  -3560728.62707      2737.79607        46.72807
R13  19292798.27405    107463.23905      -449.14105        32.11705
R12  21546201.17526   4475378.30726     -3649.79026        36.13626
R24  20347051.42906  -2849270.69006      2140.35106        38.37006
R23  19025761.43907    542888.38707      -953.34707        45.34307
C04                    780913.97724      -622.44524        25.97324
C06  41046237.88126      1610.67826      -106.02326        35.91126
C11  24803533.47125   3143253.45025     -3522.70825        29.75425
C16  41452041.74926       -11.60926        14.02926        36.12626
C23  22215034.25225   1989772.75125     -1979.60325        31.55525
C25  25782419.40224   4177045.54024     -3775.78224        27.69324
C27  25236824.11026  -2819138.39326      2403.43826        36.84026
C28  21858377.76007   -778438.21107       434.90607        44.15207
C34  26948433.08824   2786310.75624     -3827.45624        28.60424
C37  22648264.93207  -1348516.42607      1020.47207        42.04207
E13  24208631.61306  -1913908.93906      1474.63606        40.58106  24208628.61514  -1427511.13014      1102.41814        27.98714
E15  23698945.46124   1223346.88124     -1347.50524        25.72324                    914504.94923     -1009.19323        19.18123
E18  19281299.73407   3225693.07207     -3541.62407        42.01507  19281294.03824   2410934.66124     -2638.16524        26.45324
E19  27881614.76024     60604.07024     -2395.01624        27.65824                     70621.86123     -1796.35023        18.06023
E21  25111736.60606  -3800260.97606      1206.98806        40.65706  25111739.30524  -2858978.27924       901.62924        29.07724
E26                       -32.09023      2489.75423        19.21223                                                                
E27  23504495.57607    874857.09007      -902.39707        43.73607  23504495.57624    652836.17224      -672.62724        26.19424
E30                   2759799.66525     -2759.99725        30.53425                                                                
> 2021 04 08 21 29 37.0000346  0 33                      
G02  22243394.01926  -2654452.75626      2080.02926        37.42926                                                                
G03                        -0.82123      -156.09723        19.30923                                                                
G06  20988820.74206  -1224375.73406       666.27006        37.38306  20988824.33924   -916113.21424       499.86924        24.45524
G12  22692320.63307  -5017767.47407      1976.15307        47.44307                                                                
G13                   3520792.81123     -3829.26423        20.47923                                                                
G14  23789633.57905   3650760.14305     -3314.41405        32.07105                                                                
G15  25166729.33626   5704926.84326     -3259.50426        36.14726                                                                
G17  22473257.78707   3627288.18907     -3239.75207        42.77307                                                                
G19  20579507.80306   2354212.71106     -2290.80906        40.28206                                                                
G24  20949901.68506   -183559.20906      -158.84806        38.68206  20949896.88805   -140645.00205      -118.47405        35.37505
R14  21583352.05608  -3563468.37408      2740.74708        47.50408
R13  19292762.59805    107913.13605      -450.10405        31.96305
R12  21546768.98225   4479029.39825     -3659.66925        35.39625
R24  20346522.59606  -2851411.00706      2140.27406        40.96206
R23  19025818.70007    543842.45207      -954.45007        45.39407
C04                    781517.78724      -612.68924        27.64524
C06  41046120.96226      1715.81026      -103.56826        36.44826
C11  24804091.68524   3146773.09024     -3519.52224        28.89424
C16  41451925.72925       -24.25325        13.53125        35.16525
C23  22215305.56424   1991758.51324     -1985.84324        27.98124
C25  25783026.48224   4180823.07124     -3777.69524        25.09024
C27  25236242.51326  -2821543.71926      2405.95026        40.31726
C28  21858174.20107   -778873.05907       435.00607        43.53507
C34  26949056.65625   2790140.01425     -3825.22125        32.81325
C37  22647948.05206  -1349537.55806      1021.98406        41.39506
E13  24208231.69007  -1915383.18107      1473.80507        42.50007  24208229.59124  -1428612.10024      1101.95624        26.89224
E15  23699083.66605   1224710.10205     -1363.82005        29.86805                    915517.95223     -1009.36523        19.44723
E18  19281854.35007   3229236.54807     -3544.76707        42.08407  19281851.65224   2413580.84424     -2647.65324        28.89424
E19  27881949.02804     62990.60904     -2385.78104        27.71404                     72406.10122     -1796.35022        15.25422
E21  25111387.04806  -3801469.14406      1209.16806        40.71206  25111389.14704  -2859880.49304       903.74204        29.12604
E26                       -32.00623      2491.70523        19.51423                                                                
E27  23504547.74007    875759.97407      -903.39607        43.98907  23504548.64014    653510.07314      -679.06314        25.08614
E30                   2759799.63925     -2765.85125        31.15125                                                                
> 2021 04 08 21 29 38.0000342  0 33                      
G02  22242878.97525  -2656530.77225      2078.84425        35.12325                                                                
G03                        -0.77724      -159.02424        24.57224                                                                
G06  20988573.41306  -1225040.72106       663.68506        38.44506  20988576.11124   -916610.52424       498.02024        26.05824
G12  22691823.57707  -5019744.73807      1978.66807        47.03207                                                                
G13                   3524617.43024     -3827.46524        28.95424                                                                
G14  23790143.52605   3654076.43105     -3317.75905        33.53405                                                                
G15  25167228.79026   5708190.85426     -3260.65426        37.62426                                                                
G17  22473752.44507   3630528.99107     -3242.03907        42.62007                                                                
G19  20579824.38406   2356503.96906     -2291.74406        39.80206                                                                
G24  20949810.24806   -183401.26506      -157.44106        38.93406  20949807.55005   -140527.05305      -117.23605        35.02705
R14  21582719.19407  -3566210.15607      2742.65707        47.24407
R13  19292715.23105    108364.09405      -451.56505        32.71905
R12  21547335.29005   4482687.78205     -3660.12705        34.17205
R24  20346002.45607  -2853551.33507      2140.13407        42.75507
R23  19025878.95807    544797.24107      -955.30607        45.35407
C04                    782128.05224      -606.83624        28.09824
C06  41046024.42926      1818.93626      -103.09826        36.04026
C11  24804651.69724   3150289.74624     -3522.49724        25.88624
C16  41451798.91725       -39.06925        15.28925        33.23825
C23  22215566.98324   1993750.49324     -1985.75124        27.18124
C25  25783632.06323   4184599.35723     -3777.56423        22.00423
C27  25235659.71626  -2823950.31726      2407.20726        38.54426
C28  21857967.94407   -779308.10507       434.81707        42.99707
C34  26949669.43225   2793971.17225     -3830.79025        32.50525
C37  22647631.17106  -1350560.20306      1023.35606        40.89106
E13  24207829.96807  -1916856.64907      1472.87807        42.87007  24207829.36824  -1429712.24024      1099.16824        26.52624
E15  23699225.16805   1226074.90905     -1365.91405        31.95805                    916533.10023     -1016.12923        18.32223
E18  19282409.56607   3232782.72607     -3547.57807        42.05007  19282407.16705   2416228.90805     -2649.29205        30.18605
E19  27882283.59724     65341.15624     -2356.04924        26.62124                     74194.92423     -1784.15423        20.09923
E21  25111037.79006  -3802679.59606      1211.43806        40.63106  25111038.09024  -2860784.24024       904.29624        29.25424
E26                       -32.06424      2491.70524        25.27024                                                                
E27  23504599.00507    876663.82007      -904.28207        44.25307  23504601.40324    654185.44524      -679.60624        24.49924
E30                   2759799.75825     -2769.75325        31.93225                                                                
> 2021 04 08 21 29 39.0000337  0 33                      
G02  22242331.25425  -2658607.43425      2076.91025        32.42025                                                                
G03                        -0.75624      -160.97524        24.60524                                                                
G06  20988298.80306  -1225703.52806       661.74706        37.86106  20988299.70224   -917105.54524       494.11824        27.20324
G12  22691296.54207  -5021724.32607      1980.22107        46.79507                                                                
G13  25033490.17525   3528444.61925     -3826.52225        31.32125                                                                
G14  23790624.99325   3657395.76025     -3320.34725        32.57125                                                                
G15  25167699.76426   5711446.84626     -3255.61826        39.00026                                                                
G17  22474221.32007   3633771.04607     -3242.96007        41.73207                                                                
G19  20580110.68606   2358796.13506     -2292.61706        38.45406                                                                
G24  20949691.83006   -183244.18106      -156.59206        39.87906  20949687.63305   -140409.69105      -117.29205        34.95505
R14  21582056.05307  -3568953.68207      2744.14607        46.70007
R13  19292649.27705    108816.33205      -453.05105        32.72005
R12  21547865.32305   4486349.00905     -3662.35105        34.85005
R24  20345445.14107  -2855691.32407      2139.83107        44.55207
R23  19025907.13907    545753.08407      -956.42307        45.30007
C04                    782723.71724      -602.93324        27.45424
C06  41045893.11925      1925.14025      -101.10825        31.96925
C11  24805169.13924   3153808.44524     -3522.35824        25.91924
C16  41451637.62824       -59.48824        12.39124        29.47924
C23  22215804.71824   1995741.04524     -1986.57224        27.95824
C25  25784208.56423   4188371.71123     -3776.75323        20.70223
C27  25235044.24206  -2826357.47406      2407.64106        36.22806
C28  21857735.60507   -779743.01107       434.55907        42.32407
C34  26950240.53725   2797799.98625     -3829.34025        34.79425
C37  22647286.11006  -1351583.87106      1023.99706        41.43306
E13  24207401.56507  -1918329.15107      1472.05207        43.54507  24207401.86424  -1430811.86024      1094.57924        26.51324
E15  23699334.59205   1227441.54405     -1368.01905        32.51205                    917552.19522     -1016.98722        16.54122
E18  19282934.80206   3236331.56906     -3550.23306        41.18206  19282932.40405   2418879.01905     -2651.00005        31.23105
E19  27882584.88824     67688.10924     -2358.51224        27.08524                     75970.60323     -1784.47823        22.83523
E21  25110658.25306  -3803891.79606      1212.84106        41.46006  25110657.35424  -2861689.58224       906.25924        28.87224
E26                       -32.12924      2492.68124        24.83024                                                                
E27  23504621.18907    877568.83107      -905.50407        44.33707  23504621.18924    654861.08424      -671.50024        25.20424
E30                   2759799.69125     -2772.68025        31.95625                                                                
> 2021 04 08 21 29 40.0000333  0 33                      
G02  22241817.11025  -2660684.58025      2080.57825        30.35825                                                                
G03                        -0.71123      -163.90223        21.82123                                                                
G06  20988052.67306  -1226364.33206       659.68306        38.15106  20988052.37424   -917598.95024       492.34624        27.52124
G12  22690798.58707  -5023705.95407      1982.25807        46.29507                                                                
G13  25034105.34925   3532272.11425     -3825.10425        30.43525                                                                
G14  23791138.53825   3660717.81825     -3322.54825        34.24425                                                                
G15  25168202.21626   5714701.32126     -3253.84726        37.90226                                                                
G17  22474718.37606   3637014.49006     -3243.80506        41.42906                                                                
G19  20580425.16806   2361089.28806     -2294.14506        37.96006                                                                
G24  20949599.19406   -183087.73706      -156.71806        40.44406  20949597.09605   -140292.92605      -116.63105        34.75005
R14  21581411.50007  -3571698.58707      2745.46207        45.96407
R13  19292623.79405    109269.61605      -454.21805        32.88805
R12  21548429.83205   4490012.88105     -3664.70805        35.05005
R24  20344929.49807  -2857831.13807      2139.42607        44.17207
R23  19025970.69507    546709.84707      -957.54607        45.32107
C04                    783325.91324      -599.03124        27.86824
C06  41045791.79025      2023.67525       -95.24825        31.48225
C11  24805724.35424   3157333.45824     -3519.09124        24.25724
C16  41451516.81224       -69.79924        12.68524        26.48824
C23  22216062.24024   1997726.38324     -1990.49824        27.62224
C25  25784815.04424   4192144.94824     -3778.62024        24.55624
C27  25234463.84426  -2828766.72926      2407.92526        36.77526
C28  21857530.54607   -780177.89107       434.76407        42.41607
C34  26950856.31025   2801630.83325     -3832.67125        34.21225
C37  22646966.23206  -1352608.34306      1024.63906        40.62406
E13  24207000.74207  -1919801.01107      1471.47207        43.42507  24207001.04224  -1431910.99024      1099.59424        26.36924
E15  23699473.09605   1228809.67305     -1368.84905        33.39805                    918571.87322     -1018.66422        13.40922
E18  19283492.41606   3239882.95506     -3552.41006        41.13506  19283489.41805   2421531.00005     -2652.57205        31.17505
E19  27882924.55325     70043.33025     -2377.35825        29.52225                     77749.80323     -1779.39123        21.44123
E21  25110308.39507  -3805105.44007      1213.97207        41.68507  25110307.79604  -2862595.90204       907.04804        29.36104
E26                       -32.03223      2492.68123        22.73023                                                                
E27  23504675.15207    878474.71407      -906.39107        44.51907  23504674.85224    655537.40324      -673.64124        25.89724
E30                   2759799.79725     -2775.60725        34.02425                                                                
