     2.11           OBSERVATION DATA    M (MIXED)           RINEX VERSION / TYPE
RTCM2RINEX 1.2.19   NRCan               20210428 13:01:09UTCPGM / RUN BY / DATE
gfzrnx-1.11-7352    FILE CONVERSION     20210428 130110 UTC COMMENT
ALGO CACS-GSD 883160 Algonquin Park ON Canada               MARKER NAME
40104M002                                                   MARKER NUMBER
ACSOPS              NRCan                                   OBSERVER / AGENCY
3015995             SEPT POLARX5        5.3.2               REC # / TYPE / VERS
303                 AOAD/M_T        NONE                    ANT # / TYPE
   918129.4000 -4346071.2000  4561977.8000                  APPROX POSITION XYZ
        0.1000        0.0000        0.0000                  ANTENNA: DELTA H/E/N
     1     1                                                WAVELENGTH FACT L1/2
GPS -    L1 Phase aligned to CA and L2 aligned to P2        COMMENT
GLONASS- L1 Phase aligned to C1 and L2 aligned to P2        COMMENT
    18                  GPS                                 LEAP SECONDS
     8    C1    C2    L1    L2    P1    P2    S1    S2      # / TYPES OF OBSERV
    17                                                      # OF SATELLITES
   G03   900   900   900   900   900   900   900   900      PRN / # OF OBS
   G04   900   900   900   900   900   900   900   900      PRN / # OF OBS
   G07   900   900   900   900   900   900   900   900      PRN / # OF OBS
   G08   900   900   900   900   900   900   900   900      PRN / # OF OBS
   G09   900   900   900   900   900   900   900   900      PRN / # OF OBS
   G16   900         900   900   900   900   900   900      PRN / # OF OBS
   G26   900   900   900   900   900   900   900   900      PRN / # OF OBS
   G27   900   900   900   900   900   900   900   900      PRN / # OF OBS
   G31   900   900   900   900   900   900   900   900      PRN / # OF OBS
   R02   900   900   900   900   900   900   900   900      PRN / # OF OBS
   R03   900   900   900   900   900   900   900   900      PRN / # OF OBS
   R04   900   900   900   900   900   900   900   900      PRN / # OF OBS
   R12   900   900   900   900   900   900   900   900      PRN / # OF OBS
   R13   900   900   900   900   900   900   900   900      PRN / # OF OBS
   R14   900   900   900   900   900   900   900   900      PRN / # OF OBS
   R21   900   900   900   900   900   900   900   900      PRN / # OF OBS
   R22   215   215   215   215   215   215   215   215      PRN / # OF OBS
     1.000                                                  INTERVAL
  2021     4    28    12    45    0.0000000     GPS         TIME OF FIRST OBS
  2021     4    28    12    59   59.0000000     GPS         TIME OF LAST OBS
                                                            END OF HEADER
 21 04 28 12 45 00.0000000  0 16G03G04G07G08G09G16G26G27G31R02R03R04
                                R12R13R14R21
  24621036.204    24621039.897   129384391.4484  100818992.4754   24621036.035
  24621039.374          38.370          21.500
  20533964.773    20533965.698   107906707.1504   84083144.3674   20533964.477
  20533965.519          49.810          45.180
  24807490.223    24807488.997   130364236.3224  101582510.2764   24807489.754
  24807488.693          39.370          21.620
  24746595.255    24746600.746   130044230.6704  101333173.7514   24746595.001
  24746598.180          35.060          12.620
  21929669.096    21929671.198   115241190.4074   89798337.3414   21929668.516
  21929670.576          47.680          39.810
  19999347.725                   105097290.6924   81893993.8364   19999346.822
  19999346.683          48.810          46.370
  20908605.127    20908608.158   109875474.6664   85617265.0394   20908604.627
  20908608.221          49.810          44.680
  22457358.916    22457361.934   118014239.3974   91959159.1034   22457358.268
  22457360.982          45.370          35.430
  23626138.926    23626139.422   124156192.1804   96745083.5194   23626138.543
  23626139.083          42.250          40.370
  22464515.401    22464520.058   119874938.650    93236067.942    22464515.544
  22464520.228          47.060          41.310
  20094049.343    20094054.861   107565026.554    83661693.207    20094049.245
  20094054.811          52.930          50.560
  21373835.838    21373841.101   114455954.038    89021307.713    21373835.780
  21373841.418          49.370          46.310
  21245269.221    21245275.096   113488435.831    88268794.678    21245270.084
  21245275.181          49.310          46.870
  19544818.789    19544822.670   104368272.564    81175335.179    19544818.355
  19544822.822          43.810          46.370
  22213564.074    22213568.465   118410813.878    92097311.871    22213564.127
  22213568.823          47.430          44.500
  23243584.585    23243590.337   124381111.454    96740902.057    23243584.120
  23243591.124          43.180          42.060
 21 04 28 12 45 01.0000000  0 16G03G04G07G08G09G16G26G27G31R02R03R04
                                R12R13R14R21
  24621654.513    24621658.171   129387641.1184  100821524.6824   24621654.344
  24621657.759          38.430          21.560
  20533960.811    20533961.656   107906686.5004   84083128.2774   20533960.515
  20533961.597          49.750          45.250
  24806931.892    24806930.800   130361304.1304  101580225.4434   24806931.423
  24806930.725          39.250          21.810
  24745844.443    24745849.500   130040283.9604  101330098.4144   24745844.184
  24745847.153          34.930          12.870
  21929254.506    21929256.607   115239011.9464   89796639.8394   21929253.925
  21929256.039          47.560          39.870
  19999399.994                   105097565.4474   81894207.9314   19999399.091
  19999398.970          48.810          46.430
  20908983.216    20908986.302   109877461.6324   85618813.3224   20908982.717
  20908986.333          49.810          44.750
  22456713.625    22456716.549   118010848.6894   91956516.9934   22456712.977
  22456715.767          45.310          35.560
  23626695.339    23626696.215   124159116.0394   96747361.8504   23626694.956
  23626695.487          42.060          40.430
  22465346.318    22465350.993   119879373.439    93239517.240    22465346.546
  22465351.283          46.930          41.120
  20094358.963    20094364.632   107566684.486    83662982.712    20094358.967
  20094364.547          53.000          50.430
  21373391.917    21373397.038   114453576.480    89019458.502    21373391.703
  21373397.373          49.370          46.370
  21245775.744    21245781.664   113491141.747    88270899.277    21245776.598
  21245781.700          49.430          47.120
  19544787.761    19544791.360   104368106.373    81175205.920    19544787.206
  19544791.731          43.870          46.180
  22213023.517    22213028.159   118407934.011    92095071.974    22213023.928
  22213028.548          47.120          44.430
  23243950.301    23243956.053   124383068.250    96742424.010    23243949.764
  23243956.710          43.120          42.000
 21 04 28 12 45 02.0000000  0 16G03G04G07G08G09G16G26G27G31R02R03R04
                                R12R13R14R21
  24622272.737    24622276.659   129390890.8554  100824056.9354   24622272.568
  24622276.225          38.310          21.560
  20533957.010    20533957.765   107906666.5054   84083112.6954   20533956.715
  20533957.792          49.810          45.250
  24806373.788    24806372.702   130358371.9264  101577940.6074   24806373.319
  24806372.742          39.180          21.930
  24745093.421    24745098.362   130036337.2644  101327023.0684   24745093.158
  24745096.113          35.060          13.310
  21928839.977    21928842.105   115236833.9914   89794942.7324   21928839.396
  21928841.600          47.620          39.930
  19999452.339                   105097840.8144   81894422.5024   19999451.432
  19999451.377          48.870          46.500
  20909361.453    20909364.525   109879449.0034   85620361.9234   20909360.948
  20909364.516          49.870          44.750
  22456068.455    22456071.201   118007458.3274   91953875.1524   22456067.803
  22456070.610          45.250          35.560
  23627251.529    23627252.499   124162040.0094   96749640.2664   23627251.145
  23627251.922          42.000          40.430
  22466177.346    22466182.411   119883808.446    93242966.680    22466177.660
  22466182.455          46.930          41.310
  20094668.788    20094674.596   107568343.288    83664272.888    20094668.878
  20094674.457          53.060          50.500
  21372948.126    21372953.189   114451199.655    89017609.862    21372947.854
  21372953.551          49.500          46.500
  21246282.365    21246288.295   113493847.848    88273004.027    21246283.125
  21246288.286          49.560          47.120
  19544756.584    19544760.394   104367940.616    81175076.996    19544756.147
  19544760.662          43.930          46.180
  22212482.844    22212487.862   118405054.370    92092832.251    22212483.689
  22212488.372          47.060          44.430
  23244316.147    23244321.867   124385025.857    96743946.588    23244315.534
  23244322.704          43.250          41.870
 21 04 28 12 45 03.0000000  0 16G03G04G07G08G09G16G26G27G31R02R03R04
                                R12R13R14R21
  24622891.266    24622895.075   129394140.6654  100826589.2474   24622891.092
  24622894.776          38.310          21.870
  20533953.330    20533953.969   107906647.1544   84083097.6164   20533953.034
  20533954.116          49.870          45.310
  24805815.569    24805814.889   130355439.7074  101575655.7694   24805815.096
  24805814.715          39.060          21.930
  24744342.792    24744346.982   130032390.5594  101323947.6814   24744342.524
  24744345.067          35.000          12.870
  21928425.560    21928427.724   115234656.5214   89793246.0014   21928424.976
  21928427.242          47.500          39.930
  19999504.791                   105098116.7894   81894637.5474   19999503.884
  19999503.892          48.810          46.430
  20909739.703    20909742.896   109881436.7454   85621910.8124   20909739.198
  20909742.775          49.810          44.750
  22455423.267    22455425.981   118004068.3134   91951233.5814   22455422.615
  22455425.493          45.120          35.560
  23627807.830    23627808.907   124164964.1194   96751918.7934   23627807.446
  23627808.375          41.810          40.500
  22467008.478    22467013.810   119888243.662    93246416.291    22467008.684
  22467013.591          46.870          41.620
  20094978.841    20094984.596   107570002.951    83665563.740    20094978.891
  20094984.506          53.250          50.560
  21372504.461    21372509.345   114448823.606    89015761.821    21372504.117
  21372509.810          49.500          46.310
  21246789.023    21246794.979   113496554.142    88275108.926    21246789.684
  21246794.961          49.680          47.060
  19544725.712    19544729.240   104367775.272    81174948.396    19544725.158
  19544729.691          43.810          46.310
  22211942.498    22211947.699   118402174.955    92090592.705    22211943.495
  22211948.110          47.060          44.430
  23244681.858    23244687.906   124386984.258    96745469.790    23244681.604
  23244688.760          43.180          41.810
 21 04 28 12 45 04.0000000  0 16G03G04G07G08G09G16G26G27G31R02R03R04
                                R12R13R14R21
  24623509.561    24623513.849   129397390.5374  100829121.6134   24623509.387
  24623513.236          38.370          21.810
  20533949.788    20533950.414   107906628.4484   84083083.0404   20533949.493
  20533950.557          49.750          45.310
  24805257.466    24805257.162   130352507.4684  101573370.9044   24805256.997
  24805256.705          38.680          21.810
  24743592.105    24743595.731   130028443.8614  101320872.3314   24743591.846
  24743594.014          35.180          13.000
  21928011.202    21928013.406   115232479.5544   89791549.6644   21928010.621
  21928012.990          47.370          39.930
  19999557.480                   105098393.3754   81894853.0684   19999556.577
  19999556.527          48.870          46.500
  20910118.074    20910121.320   109883424.8744   85623460.0034   20910117.574
  20910121.101          49.750          44.750
  22454778.142    22454780.739   118000678.6434   91948592.2814   22454777.489
  22454780.439          45.000          35.620
  23628364.149    23628365.204   124167888.3534   96754197.4164   23628363.769
  23628364.850          41.870          40.560
  22467839.677    22467845.170   119892679.105    93249866.078    22467839.820
  22467844.884          46.870          41.310
  20095289.145    20095294.774   107571663.458    83666855.242    20095289.083
  20095294.725          53.250          50.430
  21372060.912    21372065.831   114446448.329    89013914.383    21372060.617
  21372066.243          49.500          46.250
  21247295.845    21247301.569   113499260.631    88277213.969    21247296.248
  21247301.640          49.620          47.180
  19544694.813    19544698.404   104367610.358    81174820.130    19544694.286
  19544698.828          43.750          46.370
  22211402.308    22211407.643   118399295.751    92088353.327    22211403.314
  22211408.001          47.310          44.620
  23245047.624    23245054.118   124388943.442    96746993.620    23245047.552
  23245054.865          43.120          41.680
 21 04 28 12 45 05.0000000  0 16G03G04G07G08G09G16G26G27G31R02R03R04
                                R12R13R14R21
  24624128.130    24624132.159   129400640.4804  100831654.0344   24624127.956
  24624131.720          38.430          21.930
  20533946.305    20533947.069   107906610.3884   84083068.9664   20533946.006
  20533947.114          49.680          45.370
  24804699.202    24804699.005   130349575.2304  101571086.0384   24804698.733
  24804698.700          38.500          21.810
  24742840.814    24742844.494   130024497.1414  101317796.9734   24742840.551
  24742842.951          35.120          13.060
  21927596.942    21927599.173   115230303.0864   89789853.7154   21927596.361
  21927598.829          47.310          40.060
  19999610.263                   105098670.5654   81895069.0604   19999609.356
  19999609.270          48.870          46.560
  20910496.422    20910499.722   109885413.3864   85625009.4914   20910495.917
  20910499.503          49.750          44.870
  22454133.039    22454135.712   117997289.3304   91945951.2604   22454132.386
  22454135.462          44.810          35.560
  23628920.656    23628921.635   124170812.6884   96756476.1184   23628920.281
  23628921.344          41.930          40.560
  22468670.929    22468676.216   119897114.781    93253316.039    22468671.000
  22468676.154          46.810          41.430
  20095599.552    20095605.011   107573324.807    83668147.398    20095599.440
  20095605.060          53.180          50.500
  21371617.349    21371622.662   114444073.806    89012067.536    21371617.282
  21371622.904          49.500          46.370
  21247802.614    21247808.333   113501967.280    88279319.139    21247802.905
  21247808.355          49.560          47.120
  19544664.143    19544667.702   104367445.863    81174692.189    19544663.494
  19544667.996          43.430          46.180
  22210862.168    22210867.654   118396416.767    92086114.105    22210863.129
  22210867.882          47.620          44.500
  23245413.380    23245420.330   124390903.387    96748518.006    23245413.631
  23245421.158          42.870          41.870
 21 04 28 12 45 06.0000000  0 16G03G04G07G08G09G16G26G27G31R02R03R04
                                R12R13R14R21
  24624746.730    24624750.575   129403890.4754  100834186.4944   24624746.551
  24624750.199          38.500          22.120
  20533942.919    20533943.769   107906592.9744   84083055.3964   20533942.625
  20533943.800          49.750          45.370
  24804141.210    24804141.053   130346642.9884  101568801.1694   24804140.745
  24804140.722          38.310          22.060
  24742089.769    24742093.275   130020550.4204  101314721.6274   24742089.492
  24742091.880          35.250          13.180
  21927182.816    21927185.114   115228127.1204   89788158.1574   21927182.231
  21927184.757          47.370          40.060
  19999663.158                   105098948.3724   81895285.5334   19999662.251
  19999662.143          48.870          46.560
  20910874.847    20910878.155   109887402.2894   85626559.2854   20910874.342
  20910877.977          49.870          44.870
  22453487.989    22453490.604   117993900.3594   91943310.5054   22453487.337
  22453490.551          44.810          35.680
  23629476.926    23629478.321   124173737.1644   96758754.9294   23629476.550
  23629477.864          42.000          40.680
  22469502.141    22469507.187   119901550.691    93256766.194    22469502.280
  22469507.460          46.810          41.620
  20095910.003    20095915.485   107574987.006    83669440.221    20095909.940
  20095915.556          53.180          50.430
  21371174.046    21371179.359   114441700.025    89010221.261    21371174.011
  21371179.618          49.430          46.250
  21248309.374    21248315.196   113504674.082    88281424.419    21248309.558
  21248315.048          49.430          47.180
  19544633.552    19544637.013   104367281.791    81174564.581    19544632.712
  19544637.286          43.430          46.250
  22210322.309    22210327.724   118393537.987    92083875.066    22210323.028
  22210327.800          47.810          44.560
  23245779.655    23245786.905   124392864.096    96750043.011    23245779.758
  23245787.581          42.750          41.870
 21 04 28 12 45 07.0000000  0 16G03G04G07G08G09G16G26G27G31R02R03R04
                                R12R13R14R21
  24625365.419    24625369.023   129407140.5574  100836719.0264   24625365.241
  24625368.718          38.620          22.120
  20533939.682    20533940.701   107906576.2104   84083042.3344   20533939.388
  20533940.608          49.620          45.310
  24803583.018    24803583.353   130343710.7364  101566516.2974   24803582.558
  24803582.785          38.250          21.870
  24741338.479    24741341.944   130016603.6784  101311646.2454   24741338.189
  24741340.817          35.180          13.370
  21926768.775    21926771.109   115225951.6434   89786462.9804   21926768.194
  21926770.783          47.370          39.930
  19999716.165                   105099226.7814   81895502.4754   19999715.262
  19999715.127          48.870          46.500
  20911253.428    20911256.678   109889391.5644   85628109.3694   20911252.923
  20911256.526          49.810          44.750
  22452843.052    22452845.681   117990511.7314   91940670.0194   22452842.399
  22452845.707          44.680          35.680
  23630033.397    23630034.662   124176661.7524   96761033.8274   23630033.026
  23630034.402          42.120          40.680
  22470333.451    22470338.676   119905986.832    93260216.515    22470333.581
  22470338.878          46.810          41.870
  20096220.714    20096226.155   107576650.086    83670733.726    20096220.629
  20096226.209          53.120          50.370
  21370730.828    21370736.248   114439326.986    89008375.565    21370730.904
  21370736.444          49.310          46.370
  21248816.219    21248822.005   113507381.035    88283529.827    21248816.273
  21248821.871          49.560          47.060
  19544602.689    19544606.597   104367118.157    81174437.303    19544602.005
  19544606.601          43.370          46.180
  22209782.575    22209787.695   118390659.437    92081636.198    22209782.990
  22209787.833          48.000          44.750
  23246145.863    23246153.516   124394825.580    96751568.612    23246146.297
  23246154.061          42.430          41.680
 21 04 28 12 45 08.0000000  0 16G03G04G07G08G09G16G26G27G31R02R03R04
                                R12R13R14R21
  24625983.858    24625987.350   129410390.6874  100839251.5914   24625983.680
  24625987.189          38.560          22.060
  20533936.512    20533937.719   107906560.0924   84083029.7744   20533936.213
  20533937.531          49.680          45.310
  24803024.941    24803024.994   130340778.4504  101564231.3974   24803024.481
  24803024.838          38.060          21.560
  24740587.510    24740590.581   130012656.9244  101308570.8594   24740587.211
  24740589.763          35.120          13.680
  21926354.819    21926357.193   115223776.6814   89784768.2054   21926354.243
  21926356.907          47.370          39.930
  19999769.279                   105099505.7994   81895719.8914   19999768.376
  19999768.223          48.810          46.500
  20911632.098    20911635.299   109891381.2334   85629659.7604   20911631.598
  20911635.147          49.870          44.750
  22452198.279    22452200.921   117987123.4534   91938029.8064   22452197.627
  22452200.926          44.620          35.620
  23630590.078    23630591.213   124179586.4694   96763312.8284   23630589.712
  23630590.954          42.180          40.620
  22471164.838    22471170.354   119910423.181    93263667.011    22471164.981
  22471170.295          46.750          41.870
  20096531.586    20096536.947   107578314.045    83672027.915    20096531.416
  20096536.996          53.120          50.430
  21370287.551    21370293.342   114436954.681    89006530.433    21370287.940
  21370293.423          49.180          46.060
  21249323.212    21249328.810   113510088.184    88285635.386    21249323.069
  21249328.685          49.750          47.250
  19544572.005    19544576.266   104366954.956    81174310.368    19544571.504
  19544576.042          43.370          46.120
  22209242.962    22209247.907   118387781.119    92079397.508    22209242.988
  22209247.831          48.120          44.430
  23246512.371    23246520.359   124396787.852    96753094.823    23246512.912
  23246520.743          42.250          41.680
 21 04 28 12 45 09.0000000  0 16G03G04G07G08G09G16G26G27G31R02R03R04
                                R12R13R14R21
  24626602.448    24626605.869   129413640.8964  100841784.2244   24626602.271
  24626605.740          38.500          21.680
  20533933.561    20533934.835   107906544.6194   84083017.7184   20533933.266
  20533934.589          49.620          45.310
  24802466.699    24802467.321   130337846.1834  101561946.5134   24802466.244
  24802466.789          37.930          21.500
  24739836.881    24739839.783   130008710.1454  101305495.4304   24739836.577
  24739838.709          35.180          13.560
  21925941.042    21925943.287   115221602.2084   89783073.8124   21925940.461
  21925943.125          47.370          39.930
  19999822.469                   105099785.4334   81895937.7884   19999821.562
  19999821.440          48.870          46.500
  20912010.836    20912014.064   109893371.2814   85631210.4484   20912010.336
  20912013.840          49.810          44.810
  22451553.534    22451556.185   117983735.5274   91935389.8654   22451552.882
  22451556.217          44.750          35.620
  23631146.911    23631147.631   124182511.2964   96765591.9144   23631146.549
  23631147.541          42.310          40.680
  22471996.376    22472001.905   119914859.720    93267117.652    22471996.452
  22472001.722          46.750          41.750
  20096842.668    20096847.957   107579978.843    83673322.760    20096842.372
  20096847.966          53.060          50.370
  21369844.548    21369850.638   114434583.147    89004685.904    21369845.102
  21369850.549          49.120          46.180
  21249830.146    21249835.785   113512795.541    88287741.109    21249829.945
  21249835.516          49.870          47.310
  19544541.566    19544545.568   104366792.180    81174183.763    19544541.057
  19544545.528          43.430          46.180
  22208703.402    22208707.758   118384903.027    92077158.994    22208702.995
  22208707.937          48.250          44.430
  23246879.017    23246887.202   124398750.918    96754621.663    23246879.576
  23246887.698          42.060          41.810
 21 04 28 12 45 10.0000000  0 16G03G04G07G08G09G16G26G27G31R02R03R04
                                R12R13R14R21
  24627221.102    24627224.585   129416891.1704  100844316.9054   24627220.924
  24627224.352          38.680          22.000
  20533930.761    20533932.031   107906529.7944   84083006.1664   20533930.466
  20533931.763          49.750          45.310
  24801908.941    24801909.302   130334913.8844  101559661.6014   24801908.484
  24801908.730          37.810          21.620
  24739085.800    24739088.903   130004763.4054  101302420.0604   24739085.493
  24739087.709          35.120          13.930
  21925527.399    21925529.572   115219428.2364   89781379.8084   21925526.823
  21925529.425          47.370          39.930
  19999875.770                   105100065.6734   81896156.1564   19999874.867
  19999874.773          48.810          46.500
  20912389.636    20912392.841   109895361.7144   85632761.4344   20912389.131
  20912392.605          49.810          44.810
  22450908.949    22450911.489   117980347.9614   91932750.2054   22450908.298
  22450911.578          44.870          35.620
  23631703.762    23631704.071   124185436.2684   96767871.1144   23631703.400
  23631704.138          42.500          40.680
  22472827.830    22472833.314   119919296.448    93270568.438    22472827.933
  22472833.054          46.750          41.810
  20097153.848    20097158.990   107581644.471    83674618.249    20097153.530
  20097159.092          52.930          50.430
  21369401.785    21369407.961   114432212.379    89002841.972    21369402.407
  21369407.734          49.120          46.060
  21250337.210    21250342.737   113515503.083    88289846.975    21250336.862
  21250342.482          49.810          47.120
  19544510.856    19544515.232   104366629.837    81174057.495    19544510.569
  19544515.094          43.620          46.180
  22208163.847    22208167.997   118382025.143    92074920.644    22208163.051
  22208167.939          48.370          44.560
  23247245.744    23247254.188   124400714.784    96756149.091    23247246.361
  23247254.621          41.750          41.500
 21 04 28 12 45 11.0000000  0 16G03G04G07G08G09G16G26G27G31R02R03R04
                                R12R13R14R21
  24627839.818    24627843.203   129420141.4844  100846849.6214   24627839.640
  24627842.894          38.750          21.870
  20533928.141    20533929.317   107906515.6214   84082995.1224   20533927.851
  20533929.058          49.810          45.180
  24801350.793    24801351.146   130331981.5774  101557376.6934   24801350.336
  24801350.730          37.870          21.500
  24738334.733    24738337.935   130000816.6574  101299344.6764   24738334.420
  24738336.701          35.310          13.430
  21925113.908    21925115.916   115217254.7554   89779686.1854   21925113.336
  21925115.818          47.430          39.870
  19999929.144                   105100346.5234   81896374.9994   19999928.241
  19999928.217          48.870          46.430
  20912768.476    20912771.727   109897352.5164   85634312.7094   20912767.976
  20912771.445          49.870          44.680
  22450264.374    22450266.909   117976960.7414   91930110.8144   22450263.726
  22450266.990          44.930          35.620
  23632260.542    23632260.608   124188361.3464   96770150.3934   23632260.185
  23632260.752          42.500          40.680
  22473659.265    22473664.687   119923733.371    93274019.360    22473659.444
  22473664.508          46.750          41.810
  20097465.117    20097470.255   107583310.951    83675914.400    20097464.845
  20097470.393          52.870          50.430
  21368959.113    21368965.262   114429842.362    89000998.623    21368959.801
  21368965.069          49.180          46.180
  21250844.216    21250849.520   113518210.780    88291952.960    21250843.769
  21250849.345          49.680          47.250
  19544480.668    19544484.879   104366467.908    81173931.547    19544480.211
  19544484.781          43.620          46.250
  22207624.274    22207628.170   118379147.466    92072682.456    22207623.201
  22207627.977          48.310          44.560
  23247613.096    23247621.362   124402679.402    96757677.127    23247613.378
  23247621.808          41.620          41.430
 21 04 28 12 45 12.0000000  0 16G03G04G07G08G09G16G26G27G31R02R03R04
                                R12R13R14R21
  24628458.373    24628461.623   129423391.8884  100849382.4064   24628458.195
  24628461.329          38.680          21.680
  20533925.704    20533926.696   107906502.0844   84082984.5744   20533925.409
  20533926.477          49.810          45.180
  24800792.868    24800793.096   130329049.2864  101555091.7914   24800792.417
  24800792.810          38.000          21.680
  24737583.550    24737587.163   129996869.8644  101296269.2674   24737583.251
  24737585.647          35.430          13.250
  21924700.453    21924702.353   115215081.7874   89777992.9654   21924699.877
  21924702.317          47.430          39.870
  19999982.646                   105100627.9834   81896594.3184   19999981.743
  19999981.779          48.870          46.430
  20913147.357    20913150.553   109899343.7134   85635864.2914   20913146.857
  20913150.357          49.810          44.680
  22449619.901    22449622.361   117973573.8714   91927471.6944   22449619.253
  22449622.481          45.000          35.500
  23632817.393    23632817.008   124191286.5584   96772429.7794   23632817.040
  23632817.397          42.500          40.620
  22474490.857    22474496.087   119928170.494    93277470.461    22474490.996
  22474495.957          46.750          42.060
  20097776.401    20097781.676   107584978.320    83677211.242    20097776.342
  20097781.855          52.870          50.370
  21368516.713    21368522.723   114427473.067    88999155.841    21368517.388
  21368522.549          49.310          46.250
  21251351.137    21251356.382   113520918.626    88294059.061    21251350.659
  21251356.257          49.500          47.250
  19544450.811    19544454.713   104366306.404    81173805.939    19544449.885
  19544454.530          43.680          46.310
  22207084.536    22207088.400   118376270.000    92070444.430    22207083.338
  22207088.127          48.180          44.500
  23247980.427    23247988.763   124404644.817    96759205.785    23247980.740
  23247989.068          41.430          41.560
 21 04 28 12 45 13.0000000  0 16G03G04G07G08G09G16G26G27G31R02R03R04
                                R12R13R14R21
  24629077.161    24629080.420   129426642.3744  100851915.2444   24629076.992
  24629079.772          38.560          21.430
  20533923.325    20533924.121   107906489.2034   84082974.5374   20533923.035
  20533924.022          49.870          45.180
  24800234.635    24800235.270   130326116.9584  101552806.8604   24800234.179
  24800234.912          37.930          21.750
  24736832.429    24736836.100   129992923.0754  101293193.8504   24736832.134
  24736834.562          34.930          12.930
  21924287.070    21924288.880   115212909.3034   89776300.1184   21924286.497
  21924288.916          47.430          39.870
  20000036.261                   105100910.0484   81896814.1104   20000035.358
  20000035.461          48.810          46.430
  20913526.353    20913529.452   109901335.2934   85637416.1734   20913525.849
  20913529.345          49.750          44.680
  22448975.670    22448978.098   117970187.3544   91924832.8524   22448975.022
  22448978.058          45.060          35.500
  23633374.097    23633373.886   124194211.8884   96774709.2574   23633373.744
  23633374.065          42.560          40.620
  22475322.338    22475327.607   119932607.811    93280921.701    22475322.606
  22475327.540          46.810          42.000
  20098087.992    20098093.268   107586646.578    83678508.771    20098087.974
  20098093.496          52.870          50.430
  21368074.474    21368080.439   114425104.508    88997313.628    21368075.068
  21368080.171          49.310          46.180
  21251857.911    21251863.348   113523626.651    88296165.307    21251857.602
  21251863.268          49.310          47.120
  19544420.730    19544424.513   104366145.321    81173680.652    19544419.764
  19544424.454          43.680          46.310
  22206544.820    22206548.505   118373392.769    92068206.589    22206543.595
  22206548.362          47.930          44.370
  23248348.035    23248355.977   124406611.057    96760735.069    23248348.298
  23248356.510          41.560          41.370
 21 04 28 12 45 14.0000000  0 16G03G04G07G08G09G16G26G27G31R02R03R04
                                R12R13R14R21
  24629695.667    24629698.837   129429892.8794  100854448.1044   24629695.488
  24629698.358          38.680          21.560
  20533921.040    20533921.728   107906476.9624   84082964.9994   20533920.750
  20533921.688          49.930          45.180
  24799677.002    24799677.086   130323184.6474  101550521.9414   24799676.546
  24799676.934          38.180          21.620
  24736081.393    24736085.002   129988976.2704  101290118.4324   24736081.094
  24736083.508          35.310          13.250
  21923873.713    21923875.600   115210737.3344   89774607.6754   21923873.141
  21923875.613          47.430          39.870
  20000090.068                   105101192.7324   81897034.3824   20000089.165
  20000089.259          48.870          46.430
  20913905.408    20913908.427   109903327.2654   85638968.3594   20913904.909
  20913908.400          49.810          44.680
  22448331.448    22448333.813   117966801.1734   91922194.2684   22448330.805
  22448333.697          45.120          35.560
  23633930.992    23633930.621   124197137.3484   96776988.8354   23633930.640
  23633930.751          42.560          40.620
  22476154.015    22476159.235   119937045.362    93284373.132    22476154.265
  22476159.217          46.810          42.120
  20098399.861    20098404.967   107588315.683    83679806.966    20098399.785
  20098405.262          52.930          50.370
  21367632.324    21367638.026   114422736.713    88995472.010    21367632.821
  21367637.964          49.310          46.250
  21252364.787    21252370.019   113526334.884    88298271.704    21252364.541
  21252370.273          49.180          47.250
  19544390.689    19544394.257   104365984.669    81173555.692    19544389.675
  19544394.347          43.620          46.180
  22206004.912    22206008.691   118370515.773    92065968.923    22206003.883
  22206008.561          47.680          44.370
  23248715.467    23248723.567   124408578.059    96762264.961    23248715.870
  23248724.144          41.620          41.620
 21 04 28 12 45 15.0000000  0 16G03G04G07G08G09G16G26G27G31R02R03R04
                                R12R13R14R21
  24630314.222    24630317.571   129433143.5044  100856981.0594   24630314.039
  24630316.989          38.750          21.430
  20533918.818    20533919.484   107906465.3694   84082955.9664   20533918.523
  20533919.484          49.870          45.180
  24799119.118    24799119.077   130320252.3054  101548237.0004   24799118.666
  24799118.885          38.250          21.500
  24735330.156    24735333.992   129985029.4804  101287043.0094   24735329.843
  24735332.472          35.250          13.680
  21923460.392    21923462.506   115208565.8604   89772915.6164   21923459.820
  21923462.386          47.500          39.870
  20000144.037                   105101476.0104   81897255.1184   20000143.133
  20000143.168          48.930          46.430
  20914284.571    20914287.522   109905319.6124   85640520.8364   20914284.066
  20914287.531          49.810          44.680
  22447687.159    22447689.667   117963415.3554   91919555.9684   22447686.516
  22447689.394          45.180          35.560
  23634487.678    23634487.361   124200062.9274   96779268.5054   23634487.321
  23634487.459          42.620          40.750
  22476985.777    22476990.988   119941483.135    93287824.737    22476985.888
  22476990.881          46.870          42.180
  20098711.886    20098716.867   107589985.631    83681105.816    20098711.797
  20098717.194          53.060          50.310
  21367190.273    21367196.069   114420369.688    88993630.994    21367190.666
  21367195.971          49.310          46.180
  21252871.422    21252876.819   113529043.297    88300378.248    21252871.511
  21252877.298          48.930          47.120
  19544360.743    19544364.387   104365824.430    81173431.066    19544359.683
  19544364.320          43.750          46.250
  22205464.821    22205468.975   118367638.980    92063731.418    22205464.217
  22205468.921          47.370          44.370
  23249083.549    23249091.153   124410545.800    96763795.414    23249083.697
  23249091.819          41.750          41.560
 21 04 28 12 45 16.0000000  0 16G03G04G07G08G09G16G26G27G31R02R03R04
                                R12R13R14R21
  24630932.647    24630935.875   129436394.1704  100859514.0454   24630932.460
  24630935.616          38.620          21.370
  20533916.747    20533917.342   107906454.4304   84082947.4424   20533916.452
  20533917.395          49.930          45.120
  24798561.113    24798560.866   130317319.9894  101545952.0764   24798560.661
  24798560.866          38.250          21.310
  24734578.919    24734583.149   129981082.6784  101283967.5694   24734578.598
  24734581.418          35.370          13.250
  21923047.299    21923049.431   115206394.8724   89771223.9384   21923046.732
  21923049.252          47.430          39.810
  20000198.134                   105101759.9044   81897476.3344   20000197.231
  20000197.195          48.930          46.370
  20914663.688    20914666.631   109907312.3404   85642073.6114   20914663.189
  20914666.738          49.870          44.620
  22447042.968    22447045.601   117960029.8814   91916917.9384   22447042.329
  22447045.158          45.120          35.620
  23635044.422    23635044.194   124202988.6254   96781548.2674   23635044.069
  23635044.185          42.750          40.750
  22477817.593    22477822.433   119945921.152    93291276.515    22477817.606
  22477822.629          46.870          42.310
  20099024.077    20099028.870   107591656.431    83682405.328    20099023.934
  20099029.245          53.250          50.370
  21366748.369    21366754.013   114418003.431    88991790.569    21366748.710
  21366754.138          49.180          46.180
  21253378.075    21253383.803   113531751.866    88302484.912    21253378.549
  21253384.295          48.810          47.120
  19544330.524    19544334.217   104365664.617    81173306.763    19544329.706
  19544334.436          43.620          46.250
  22204924.653    22204929.353   118364762.404    92061494.085    22204924.573
  22204929.228          47.250          44.310
  23249451.676    23249459.230   124412514.301    96765326.473    23249451.743
  23249459.735          41.560          41.250
 21 04 28 12 45 17.0000000  0 16G03G04G07G08G09G16G26G27G31R02R03R04
                                R12R13R14R21
  24631551.073    24631554.515   129439644.8904  100862047.0644   24631550.886
  24631554.229          38.560          21.430
  20533914.780    20533915.343   107906444.1324   84082939.4184   20533914.485
  20533915.432          49.930          45.180
  24798003.228    24798002.875   130314387.6404  101543667.1264   24798002.778
  24798002.924          38.310          21.310
  24733827.485    24733832.305   129977135.8774  101280892.1554   24733827.159
  24733830.365          35.180          13.750
  21922634.286    21922636.410   115204224.3994   89769532.6594   21922633.714
  21922636.218          47.620          39.810
  20000252.353                   105102044.4084   81897698.0264   20000251.450
  20000251.333          49.000          46.370
  20915042.958    20915045.909   109909305.4594   85643626.6894   20915042.458
  20915046.016          49.930          44.620
  22446398.706    22446401.536   117956644.7524   91914280.1734   22446398.062
  22446400.999          45.180          35.620
  23635601.309    23635601.139   124205914.4464   96783828.1254   23635600.952
  23635600.942          42.680          40.680
  22478649.292    22478654.262   119950359.392    93294728.479    22478649.368
  22478654.432          46.930          42.370
  20099336.384    20099341.097   107593328.095    83683705.512    20099336.241
  20099341.530          53.180          50.310
  21366306.533    21366312.194   114415637.916    88989950.719    21366306.895
  21366312.413          49.180          46.310
  21253884.942    21253890.863   113534460.608    88304591.710    21253885.591
  21253891.404          48.810          47.060
  19544300.716    19544304.270   104365505.226    81173182.791    19544299.862
  19544304.619          43.680          46.250
  22204384.561    22204389.673   118361886.071    92059256.934    22204385.031
  22204389.677          47.250          44.310
  23249819.699    23249827.455   124414483.615    96766858.148    23249819.650
  23249827.718          41.620          41.500
 21 04 28 12 45 18.0000000  0 16G03G04G07G08G09G16G26G27G31R02R03R04
                                R12R13R14R21
  24632169.771    24632173.079   129442895.7014  100864580.1644   24632169.593
  24632172.846          38.750          21.500
  20533912.929    20533913.500   107906434.4854   84082931.8994   20533912.634
  20533913.595          49.930          45.180
  24797444.978    24797444.562   130311455.2844  101541382.1744   24797444.527
  24797444.937          38.250          21.430
  24733076.190    24733081.390   129973189.0524  101277816.6994   24733075.864
  24733079.302          35.250          13.180
  21922221.430    21922223.375   115202054.4164   89767841.7644   21922220.863
  21922223.277          47.620          39.810
  20000306.643                   105102329.5194   81897920.1904   20000305.740
  20000305.591          49.000          46.370
  20915422.398    20915425.178   109911298.9554   85645180.0624   20915421.898
  20915425.367          49.810          44.680
  22445754.470    22445757.519   117953259.9864   91911642.6924   22445753.831
  22445756.906          45.120          35.620
  23636158.044    23636157.825   124208840.3954   96786108.0814   23636157.687
  23636157.731          42.870          40.750
  22479481.000    22479486.288   119954797.831    93298180.594    22479481.112
  22479486.212          46.930          42.310
  20099648.915    20099653.658   107595000.648    83685006.381    20099648.651
  20099654.007          53.180          50.310
  21365864.857    21365870.644   114413273.125    88988111.441    21365865.256
  21365870.832          49.250          46.250
  21254391.957    21254397.949   113537169.540    88306698.658    21254392.677
  21254398.530          49.000          47.180
  19544271.114    19544274.771   104365346.264    81173059.158    19544270.076
  19544274.865          43.620          46.310
  22203844.734    22203850.185   118359009.976    92057019.971    22203845.494
  22203850.113          47.250          44.250
  23250187.937    23250195.666   124416453.740    96768390.475    23250187.830
  23250195.840          41.370          41.430
 21 04 28 12 45 19.0000000  0 16G03G04G07G08G09G16G26G27G31R02R03R04
                                R12R13R14R21
  24632788.527    24632791.353   129446146.5654  100867113.3044   24632788.349
  24632791.397          38.750          21.370
  20533911.238    20533911.823   107906425.4854   84082924.8864   20533910.943
  20533911.882          50.000          45.180
  24796886.955    24796886.731   130308522.9344  101539097.2244   24796886.504
  24796886.924          38.180          21.060
  24732324.993    24732330.144   129969242.2074  101274741.2324   24732324.672
  24732328.222          35.310          13.250
  21921808.650    21921810.622   115199884.9434   89766151.2664   21921808.078
  21921810.439          47.810          39.810
  20000361.031                   105102615.2374   81898142.8284   20000360.128
  20000359.958          49.060          46.430
  20915801.895    20915804.623   109913292.8244   85646733.7254   20915801.395
  20915804.788          49.870          44.620
  22445110.319    22445113.520   117949875.5654   91909005.4814   22445109.676
  22445112.881          45.120          35.620
  23636714.775    23636714.796   124211766.4614   96788388.1314   23636714.421
  23636714.542          42.870          40.750
  22480312.624    22480318.287   119959236.468    93301632.874    22480312.870
  22480318.059          46.930          42.060
  20099961.544    20099966.323   107596674.048    83686307.916    20099961.311
  20099966.636          53.180          50.370
  21365423.472    21365429.273   114410909.083    88986272.740    21365423.817
  21365429.451          49.310          46.310
  21254899.039    21254905.075   113539878.629    88308805.730    21254899.835
  21254905.603          49.120          47.120
  19544241.275    19544244.937   104365187.724    81172935.847    19544240.537
  19544245.223          43.430          46.250
  22203304.870    22203310.590   118356134.105    92054783.176    22203305.966
  22203310.568          47.310          44.310
  23250556.368    23250564.208   124418424.628    96769923.383    23250556.028
  23250564.199          41.180          41.180
 21 04 28 12 45 20.0000000  0 16G03G04G07G08G09G16G26G27G31R02R03R04
                                R12R13R14R21
  24633407.265    24633409.908   129449397.4934  100869646.4954   24633407.091
  24633410.015          38.560          21.370
  20533909.713    20533910.295   107906417.1284   84082918.3744   20533909.418
  20533910.286          50.060          45.180
  24796329.018    24796328.387   130305590.5634  101536812.2514   24796328.561
  24796328.856          37.870          21.120
  24731573.622    24731578.862   129965295.3604  101271665.7794   24731573.292
  24731577.185          35.120          13.370
  21921396.067    21921397.886   115197715.9694   89764461.1564   21921395.495
  21921397.685          47.810          39.810
  20000415.544                   105102901.5664   81898365.9424   20000414.641
  20000414.444          49.060          46.370
  20916181.335    20916184.183   109915287.0814   85648287.6904   20916180.830
  20916184.281          49.870          44.680
  22444466.245    22444469.495   117946491.4934   91906368.5434   22444465.606
  22444468.941          45.120          35.620
  23637271.648    23637271.800   124214692.6474   96790668.2744   23637271.291
  23637271.370          42.930          40.750
  22481144.448    22481150.425   119963675.295    93305085.281    22481144.623
  22481149.861          46.870          42.250
  20100274.276    20100279.171   107598348.297    83687610.106    20100274.088
  20100279.382          53.250          50.370
  21364982.222    21364987.937   114408545.807    88984434.640    21364982.508
  21364988.250          49.500          46.430
  21255406.313    21255412.372   113542587.899    88310912.939    21255407.034
  21255412.846          49.310          47.250
  19544211.355    19544215.334   104365029.601    81172812.870    19544210.984
  19544215.638          43.310          46.370
  22202765.338    22202771.173   118353258.445    92052546.554    22202766.518
  22202771.030          47.370          44.310
  23250924.691    23250932.938   124420396.244    96771456.848    23250924.297
  23250932.630          40.930          40.870
 21 04 28 12 45 21.0000000  0 16G03G04G07G08G09G16G26G27G31R02R03R04
                                R12R13R14R21
  24634025.771    24634028.387   129452648.4924  100872179.7314   24634025.597
  24634028.651          38.620          21.370
  20533908.412    20533908.854   107906409.4074   84082912.3584   20533908.117
  20533908.810          50.120          45.120
  24795770.641    24795769.899   130302658.1794  101534527.2784   24795770.190
  24795770.816          37.870          20.870
  24730822.376    24730827.724   129961348.5334  101268590.3214   24730822.055
  24730826.114          35.120          13.120
  21920983.466    21920985.223   115195547.4944   89762771.4344   21920982.899
  21920985.035          47.810          39.750
  20000470.219                   105103188.5024   81898589.5284   20000469.316
  20000469.047          49.180          46.370
  20916560.899    20916563.819   109917281.7404   85649841.9704   20916560.395
  20916563.855          49.810          44.620
  22443822.358    22443825.581   117943107.7744   91903731.8804   22443821.719
  22443825.063          45.180          35.560
  23637828.499    23637828.695   124217618.9564   96792948.5134   23637828.142
  23637828.235          42.930          40.810
  22481976.291    22481982.088   119968114.307    93308537.843    22481976.421
  22481981.806          46.810          42.310
  20100587.240    20100592.212   107600023.384    83688912.951    20100586.990
  20100592.261          53.310          50.310
  21364541.203    21364546.968   114406183.311    88982597.145    21364541.373
  21364547.200          49.620          46.370
  21255913.664    21255919.597   113545297.339    88313020.284    21255914.290
  21255920.148          49.430          47.310
  19544181.597    19544185.696   104364871.902    81172690.211    19544181.498
  19544186.050          43.430          46.370
  22202225.859    22202231.672   118350382.982    92050310.083    22202227.138
  22202231.672          47.430          44.370
  23251292.499    23251301.739   124422368.669    96772990.971    23251292.853
  23251301.145          41.000          40.750
 21 04 28 12 45 22.0000000  0 16G03G04G07G08G09G16G26G27G31R02R03R04
                                R12R13R14R21
  24634644.344    24634647.228   129455899.5534  100874713.0284   24634644.166
  24634647.353          38.370          21.310
  20533907.142    20533907.522   107906402.3524   84082906.8614   20533906.848
  20533907.464          50.120          45.120
  24795212.511    24795212.042   130299725.7894  101532242.3104   24795212.055
  24795212.837          37.620          20.870
  24730071.268    24730076.491   129957401.6984  101265514.8734   24730070.948
  24730075.047          35.120          13.250
  21920570.932    21920572.720   115193379.5194   89761082.1004   21920570.365
  21920572.470          47.930          39.750
  20000524.983                   105103476.0444   81898813.5874   20000524.080
  20000523.766          49.250          46.370
  20916940.536    20916943.545   109919276.7574   85651396.5284   20916940.031
  20916943.491          49.930          44.620
  22443178.708    22443181.748   117939724.4034   91901095.4904   22443178.069
  22443181.247          45.250          35.560
  23638385.328    23638385.480   124220545.3974   96795228.8564   23638384.966
  23638385.117          43.000          40.750
  22482808.219    22482813.712   119972553.513    93311990.554    22482808.178
  22482813.667          46.870          42.060
  20100900.468    20100905.315   107601699.336    83690216.471    20100900.106
  20100905.350          53.310          50.370
  21364100.288    21364106.075   114403821.567    88980760.226    21364100.413
  21364106.316          49.680          46.500
  21256420.951    21256427.019   113548006.937    88315127.749    21256421.564
  21256427.408          49.560          47.120
  19544152.321    19544156.210   104364714.640    81172567.898    19544152.084
  19544156.608          43.500          46.250
  22201686.675    22201692.238   118347507.742    92048073.779    22201687.739
  22201692.314          47.680          44.060
  23251660.858    23251670.805   124424341.903    96774525.703    23251661.587
  23251669.768          40.930          41.060
 21 04 28 12 45 23.0000000  0 16G03G04G07G08G09G16G26G27G31R02R03R04
                                R12R13R14R21
  24635262.586    24635265.819   129459150.6854  100877246.3644   24635262.403
  24635265.998          38.430          21.120
  20533905.984    20533906.306   107906395.9384   84082901.8634   20533905.689
  20533906.243          50.060          45.060
  24794654.439    24794653.746   130296793.3774  101529957.3204   24794653.983
  24794654.864          37.310          21.000
  24729320.394    24729325.608   129953454.8404  101262439.4024   24729320.077
  24729323.975          35.120          13.620
  21920158.474    21920160.200   115191212.0454   89759393.1584   21920157.902
  21920159.990          47.810          39.750
  20000579.877                   105103764.2004   81899038.1244   20000578.974
  20000578.597          49.180          46.370
  20917320.230    20917323.333   109921272.1604   85652951.3884   20917319.725
  20917323.204          50.000          44.620
  22442535.067    22442538.018   117936341.3854   91898459.3744   22442534.428
  22442537.486          45.310          35.620
  23638942.206    23638942.559   124223471.9504   96797509.2854   23638941.849
  23638942.022          42.870          40.750
  22483640.191    22483645.872   119976992.945    93315443.434    22483640.003
  22483645.639          46.620          42.000
  20101213.705    20101218.614   107603376.169    83691520.673    20101213.379
  20101218.588          53.250          50.370
  21363659.484    21363665.280   114401460.552    88978923.890    21363659.618
  21363665.512          49.750          46.620
  21256928.386    21256934.476   113550716.710    88317235.346    21256928.878
  21256934.683          49.750          47.500
  19544122.835    19544126.792   104364557.790    81172445.910    19544122.768
  19544127.243          43.680          46.370
  22201147.603    22201152.880   118344632.728    92045837.662    22201148.413
  22201152.893          47.930          44.120
  23252029.736    23252039.468   124426315.903    96776061.034    23252030.492
  23252038.489          41.180          40.810
 21 04 28 12 45 24.0000000  0 16G03G04G07G08G09G16G26G27G31R02R03R04
                                R12R13R14R21
  24635881.025    24635884.441   129462401.8694  100879779.7614   24635880.847
  24635884.642          38.180          21.120
  20533904.831    20533905.192   107906390.1674   84082897.3664   20533904.536
  20533905.139          50.060          45.060
  24794096.381    24794095.576   130293860.9584  101527672.3224   24794095.925
  24794096.877          37.430          21.000
  24728569.666    24728574.693   129949507.9654  101259363.9254   24728569.346
  24728572.894          35.120          13.680
  21919746.105    21919747.854   115189045.0614   89757704.6004   21919745.538
  21919747.616          47.810          39.750
  20000634.824                   105104052.9584   81899263.1314   20000633.921
  20000633.554          49.180          46.370
  20917699.916    20917703.099   109923267.9594   85654506.5564   20917699.411
  20917702.992          50.000          44.620
  22441891.404    22441894.287   117932958.7154   91895823.5274   22441890.765
  22441893.792          45.310          35.620
  23639499.245    23639499.468   124226398.6334   96799789.8164   23639498.888
  23639498.945          42.930          40.750
  22484472.270    22484477.938   119981432.601    93318896.515    22484471.845
  22484477.607          46.560          42.060
  20101527.068    20101532.138   107605053.862    83692825.549    20101526.826
  20101531.986          53.180          50.310
  21363218.703    21363224.610   114399100.302    88977088.138    21363219.030
  21363224.830          49.750          46.560
  21257435.907    21257441.885   113553426.679    88319343.102    21257436.197
  21257442.042          49.680          47.500
  19544093.586    19544097.619   104364401.363    81172324.237    19544093.412
  19544097.950          43.870          46.430
  22200608.665    22200613.575   118341757.946    92043601.723    22200609.117
  22200613.584          48.120          44.250
  23252399.016    23252408.498   124428290.667    96777596.953    23252399.526
  23252407.299          41.250          40.560
 21 04 28 12 45 25.0000000  0 16G03G04G07G08G09G16G26G27G31R02R03R04
                                R12R13R14R21
  24636499.830    24636502.929   129465653.1284  100882313.2024   24636499.648
  24636503.296          38.120          21.000
  20533903.708    20533904.182   107906385.0524   84082893.3794   20533903.413
  20533904.164          49.930          45.060
  24793538.304    24793537.987   130290928.5144  101525387.3104   24793537.848
  24793538.818          37.370          21.000
  24727818.470    24727823.187   129945561.1014  101256288.4384   24727818.140
  24727821.810          35.180          13.430
  21919333.866    21919335.436   115186878.5884   89756016.4394   21919333.300
  21919335.337          47.750          39.750
  20000689.807                   105104342.3304   81899488.6154   20000688.904
  20000688.621          49.120          46.370
  20918079.807    20918082.959   109925264.1194   85656062.0044   20918079.302
  20918082.843          50.120          44.620
  22441247.902    22441250.683   117929576.3984   91893187.9564   22441247.262
  22441250.146          45.430          35.680
  23640056.203    23640056.440   124229325.4304   96802070.4364   23640055.846
  23640055.894          43.000          40.810
  22485304.243    22485309.825   119985872.502    93322349.759    22485303.719
  22485309.619          46.430          42.120
  20101840.488    20101845.710   107606732.395    83694131.071    20101840.412
  20101845.585          53.120          50.370
  21362778.190    21362784.053   114396740.816    88975252.980    21362778.539
  21362784.227          49.810          46.370
  21257943.378    21257949.285   113556136.832    88321451.000    21257943.498
  21257949.410          49.620          47.430
  19544064.543    19544068.303   104364245.367    81172202.904    19544064.162
  19544068.710          43.930          46.370
  22200069.831    22200074.141   118338883.391    92041365.960    22200069.947
  22200074.342          48.180          44.120
  23252768.475    23252777.791   124430266.218    96779133.474    23252768.828
  23252776.346          41.310          40.500
 21 04 28 12 45 26.0000000  0 16G03G04G07G08G09G16G26G27G31R02R03R04
                                R12R13R14R21
  24637118.408    24637121.207   129468904.4444  100884846.7004   24637118.230
  24637121.967          38.000          21.000
  20533902.680    20533903.314   107906380.5804   84082889.8944   20533902.385
  20533903.310          49.750          45.120
  24792980.608    24792980.353   130287996.1044  101523102.3244   24792980.157
  24792980.764          37.370          20.870
  24727067.407    24727072.383   129941614.1854  101253212.9114   24727067.081
  24727070.702          35.000          14.120
  21918921.655    21918923.349   115184712.6074   89754328.6634   21918921.082
  21918923.152          47.870          39.680
  20000744.852                   105104632.3124   81899714.5754   20000743.946
  20000743.810          48.930          46.370
  20918459.743    20918462.841   109927260.6764   85657617.7644   20918459.237
  20918462.769          49.930          44.620
  22440604.484    22440607.113   117926194.4264   91890552.6564   22440603.850
  22440606.567          45.500          35.620
  23640613.282    23640613.537   124232252.3604   96804351.1594   23640612.920
  23640612.875          43.000          40.810
  22486136.188    22486141.766   119990312.646    93325803.206    22486135.665
  22486141.627          46.250          42.000
  20102154.101    20102159.498   107608411.765    83695437.250    20102154.145
  20102159.341          53.120          50.430
  21362337.794    21362343.674   114394382.087    88973418.413    21362338.209
  21362343.817          49.870          46.370
  21258450.786    21258456.689   113558847.151    88323559.024    21258450.871
  21258456.778          49.430          47.560
  19544035.553    19544039.264   104364089.795    81172081.900    19544034.994
  19544039.627          43.870          46.250
  22199530.982    22199534.967   118336009.058    92039130.365    22199530.776
  22199535.114          48.250          44.000
  23253138.220    23253146.471   124432242.549    96780670.632    23253138.242
  23253145.496          41.430          40.560
 21 04 28 12 45 27.0000000  0 16G03G04G07G08G09G16G26G27G31R02R03R04
                                R12R13R14R21
  24637736.816    24637740.196   129472155.8284  100887380.2394   24637736.641
  24637740.674          38.000          20.870
  20533901.812    20533902.563   107906376.7544   84082886.9124   20533901.513
  20533902.576          50.120          45.120
  24792422.679    24792422.330   130285063.6604  101520817.2984   24792422.223
  24792422.719          37.430          20.870
  24726316.367    24726321.263   129937667.2694  101250137.4004   24726316.032
  24726319.608          35.310          14.060
  21918509.510    21918511.302   115182547.1274   89752641.2764   21918508.937
  21918511.065          47.810          39.750
  20000800.041                   105104922.9014   81899941.0074   20000799.135
  20000799.107          49.060          46.370
  20918839.902    20918842.795   109929257.6264   85659173.8284   20918839.397
  20918842.777          50.250          44.620
  22439961.036    22439963.499   117922812.8134   91887917.6344   22439960.397
  22439963.074          45.680          35.620
  23641170.433    23641170.245   124235179.4104   96806631.9764   23641170.077
  23641169.878          43.180          40.870
  22486968.191    22486973.479   119994753.016    93329256.814    22486967.731
  22486973.720          46.180          42.000
  20102468.027    20102473.397   107610091.997    83696744.101    20102468.027
  20102473.262          53.250          50.430
  21361897.571    21361903.291   114392024.113    88971584.432    21361898.009
  21361903.510          49.930          46.500
  21258958.074    21258963.999   113561557.630    88325667.171    21258958.239
  21258964.177          49.250          47.370
  19544006.783    19544010.400   104363934.654    81171961.237    19544005.960
  19544010.632          43.930          46.430
  22198992.196    22198995.707   118333134.937    92036894.938    22198991.592
  22198995.930          48.120          43.870
  23253507.357    23253515.720   124434219.667    96782208.387    23253507.817
  23253514.754          41.430          40.310
 21 04 28 12 45 28.0000000  0 16G03G04G07G08G09G16G26G27G31R02R03R04
                                R12R13R14R21
  24638355.505    24638358.907   129475407.2684  100889913.8214   24638355.331
  24638359.346          37.750          20.680
  20533901.043    20533901.946   107906373.5724   84082884.4304   20533900.744
  20533901.968          50.060          45.000
  24791864.540    24791864.455   130282131.1994  101518532.2734   24791864.080
  24791864.688          37.310          20.870
  24725565.085    24725570.361   129933720.3854  101247061.9214   24725564.746
  24725568.510          35.120          14.250
  21918097.534    21918099.180   115180382.1474   89750954.2784   21918096.963
  21918099.077          48.000          39.680
  20000855.319                   105105214.0994   81900167.9144   20000854.416
  20000854.523          49.060          46.250
  20919220.178    20919222.870   109931254.9384   85660730.1774   20919219.673
  20919222.861          50.310          44.500
  22439317.574    22439320.100   117919431.5574   91885282.8904   22439316.934
  22439319.630          45.620          35.620
  23641727.454    23641726.908   124238106.5784   96808912.8844   23641727.093
  23641726.904          43.310          40.870
  22487800.240    22487805.514   119999193.613    93332710.609    22487799.815
  22487805.844          46.060          41.810
  20102782.078    20102787.340   107611773.108    83698051.631    20102782.069
  20102787.336          53.370          50.370
  21361457.304    21361463.172   114389666.877    88969751.030    21361457.921
  21361463.230          49.930          46.500
  21259465.384    21259471.344   113564268.281    88327775.447    21259465.661
  21259471.586          49.180          47.370
  19543977.878    19543981.486   104363779.945    81171840.910    19543977.011
  19543981.629          43.750          46.370
  22198453.294    22198456.263   118330261.029    92034659.675    22198452.431
  22198456.764          48.060          44.000
  23253877.017    23253884.598   124436197.526    96783746.727    23253877.460
  23253884.168          41.310          40.180
 21 04 28 12 45 29.0000000  0 16G03G04G07G08G09G16G26G27G31R02R03R04
                                R12R13R14R21
  24638974.144    24638977.932   129478658.7844  100892447.4754   24638973.967
  24638978.124          37.430          20.930
  20533900.524    20533901.458   107906371.0364   84082882.4544   20533900.225
  20533901.481          50.120          45.000
  24791306.433    24791306.464   130279198.7644  101516247.2614   24791305.973
  24791306.710          37.120          20.620
  24724813.928    24724819.267   129929773.4634  101243986.3984   24724813.593
  24724817.465          35.120          14.750
  21917685.635    21917687.187   115178217.6754   89749267.6794   21917685.064
  21917687.173          48.000          39.680
  20000910.871                   105105505.9054   81900395.2954   20000909.968
  20000910.061          49.120          46.250
  20919600.431    20919602.921   109933252.6434   85662286.8324   20919599.931
  20919603.011          50.370          44.500
  22438674.268    22438676.749   117916050.6474   91882648.4154   22438673.629
  22438676.249          45.620          35.500
  23642284.574    23642283.983   124241033.8634   96811193.8844   23642284.217
  23642283.957          43.430          40.810
  22488632.212    22488637.446   120003634.383    93336164.545    22488631.948
  22488638.099          46.000          41.370
  20103096.276    20103101.356   107613455.086    83699359.835    20103096.267
  20103101.539          53.500          50.430
  21361017.314    21361023.164   114387310.379    88967918.192    21361017.922
  21361023.101          49.810          46.430
  21259972.672    21259978.815   113566979.117    88329883.877    21259973.101
  21259979.030          49.180          47.310
  19543948.938    19543952.644   104363625.666    81171720.917    19543948.066
  19543952.788          43.620          46.310
  22197914.146    22197917.088   118327387.330    92032424.572    22197913.301
  22197917.656          47.810          43.750
  23254246.990    23254253.829   124438176.184    96785285.676    23254247.321
  23254253.748          41.180          40.060
 21 04 28 12 45 30.0000000  0 16G03G04G07G08G09G16G26G27G31R02R03R04
                                R12R13R14R21
  24639592.883    24639596.961   129481910.3654  100894981.1784   24639592.705
  24639596.836          37.620          20.870
  20533900.283    20533901.047   107906369.1524   84082880.9864   20533899.984
  20533901.123          50.180          45.000
  24790748.517    24790748.517   130276266.2864  101513962.2134   24790748.057
  24790748.718          37.120          20.430
  24724062.924    24724067.690   129925826.5624  101240910.8924   24724062.589
  24724066.407          35.250          14.680
  21917273.911    21917275.288   115176053.7034   89747581.4674   21917273.339
  21917275.373          48.060          39.680
  20000966.506                   105105798.3194   81900623.1504   20000965.600
  20000965.710          49.180          46.250
  20919980.667    20919983.112   109935250.7254   85663843.7794   20919980.162
  20919983.233          50.430          44.500
  22438030.838    22438033.386   117912670.0854   91880014.2104   22438030.203
  22438032.948          45.680          35.500
  23642841.568    23642840.960   124243961.2754   96813474.9844   23642841.206
  23642841.040          43.430          40.810
  22489464.287    22489469.525   120008075.343    93339618.611    22489464.166
  22489470.223          45.930          41.500
  20103410.582    20103415.674   107615137.902    83700668.691    20103410.600
  20103415.880          53.500          50.430
  21360577.414    21360583.156   114384954.615    88966085.933    21360577.960
  21360583.094          49.750          46.430
  21260480.174    21260486.434   113569690.130    88331992.445    21260480.594
  21260486.514          49.250          47.310
  19543919.863    19543924.003   104363471.830    81171601.271    19543919.331
  19543923.968          43.560          46.430
  22197374.940    22197378.044   118324513.872    92030189.666    22197374.153
  22197378.486          47.620          43.870
  23254616.556    23254623.838   124440155.647    96786825.252    23254617.308
  23254623.480          41.310          39.750
 21 04 28 12 45 31.0000000  0 16G03G04G07G08G09G16G26G27G31R02R03R04
                                R12R13R14R21
  24640211.483    24640215.990   129485162.0054  100897514.9204   24640211.305
  24640215.619          37.560          20.620
  20533900.189    20533900.850   107906367.9074   84082880.0164   20533899.890
  20533900.881          50.310          45.000
  24790190.307    24790190.888   130273333.8174  101511677.1714   24790189.838
  24790190.740          37.000          20.430
  24723312.022    24723316.494   129921879.6114  101237835.3484   24723311.687
  24723315.326          35.180          14.680
  21916862.280    21916863.528   115173890.2284   89745895.6434   21916861.713
  21916863.670          48.060          39.680
  20001022.258                   105106091.3484   81900851.4844   20001021.355
  20001021.475          49.180          46.250
  20920360.956    20920363.370   109937249.1964   85665401.0304   20920360.451
  20920363.531          50.560          44.500
  22437387.532    22437389.986   117909289.8734   91877380.2804   22437386.893
  22437389.705          45.560          35.500
  23643398.643    23643397.945   124246888.8154   96815756.1824   23643398.281
  23643398.137          43.430          40.870
  22490296.322    22490301.792   120012516.492    93343072.837    22490296.483
  22490302.369          45.870          41.750
  20103724.987    20103730.114   107616821.560    83701978.200    20103725.125
  20103730.410          53.370          50.370
  21360137.416    21360143.354   114382599.625    88964254.268    21360138.100
  21360143.224          49.680          46.370
  21260987.699    21260993.981   113572401.304    88334101.132    21260988.043
  21260994.071          49.370          47.310
  19543890.811    19543895.327   104363318.422    81171481.955    19543890.619
  19543895.251          43.370          46.430
  22196835.743    22196839.186   118321640.648    92027954.935    22196834.978
  22196839.490          47.430          43.620
  23254986.480    23254993.936   124442135.920    96788365.481    23254987.249
  23254993.569          41.560          39.680
 21 04 28 12 45 32.0000000  0 16G03G04G07G08G09G16G26G27G31R02R03R04
                                R12R13R14R21
  24640830.136    24640835.149   129488413.7084  100900048.7164   24640829.963
  24640834.313          37.310          20.560
  20533900.158    20533900.739   107906367.3164   84082879.5564   20533899.858
  20533900.765          50.000          44.930
  24789632.029    24789633.165   130270401.3294  101509392.1104   24789631.560
  24789632.740          36.750          20.120
  24722560.602    24722565.350   129917932.7034  101234759.8354   24722560.263
  24722564.290          35.310          14.500
  21916450.756    21916452.004   115171727.2534   89744210.2084   21916450.190
  21916452.058          48.000          39.680
  20001078.172                   105106384.9754   81901080.2844   20001077.269
  20001077.353          49.180          46.250
  20920741.245    20920743.717   109939248.0374   85666958.5674   20920740.740
  20920743.896          50.250          44.430
  22436744.401    22436746.828   117905910.0224   91874746.6314   22436743.762
  22436746.542          45.560          35.500
  23643955.709    23643954.984   124249816.4684   96818037.4694   23643955.347
  23643955.261          43.310          40.870
  22491128.558    22491134.274   120016957.826    93346527.204    22491128.844
  22491134.561          45.810          41.120
  20104039.641    20104044.729   107618506.067    83703288.375    20104039.793
  20104045.082          53.250          50.430
  21359697.680    21359703.494   114380245.403    88962423.214    21359698.302
  21359703.534          49.680          46.500
  21261495.156    21261501.573   113575112.638    88336209.954    21261495.594
  21261501.636          49.370          47.310
  19543862.063    19543866.570   104363165.451    81171362.972    19543861.902
  19543866.548          43.120          46.250
  22196296.497    22196300.298   118318767.653    92025720.381    22196295.888
  22196300.503          47.310          43.810
  23255356.664    23255363.815   124444116.953    96789906.281    23255357.611
  23255363.708          41.750          39.930
 21 04 28 12 45 33.0000000  0 16G03G04G07G08G09G16G26G27G31R02R03R04
                                R12R13R14R21
  24641449.174    24641454.062   129491665.4834  100902582.5614   24641449.000
  24641453.064          37.250          20.370
  20533900.113    20533900.761   107906367.3744   84082879.6024   20533899.818
  20533900.774          50.000          44.930
  24789073.716    24789075.379   130267468.8604  101507107.0774   24789073.247
  24789074.686          36.680          20.060
  24721809.154    24721814.181   129913985.7654  101231684.3004   24721808.824
  24721813.241          35.250          14.430
  21916039.256    21916040.632   115169564.7804   89742525.1654   21916038.683
  21916040.543          47.930          39.680
  20001134.232                   105106679.2144   81901309.5614   20001133.329
  20001133.347          49.180          46.250
  20921121.740    20921124.136   109941247.2684   85668516.4084   20921121.235
  20921124.342          50.250          44.430
  22436101.319    22436103.711   117902530.5164   91872113.2504   22436100.680
  22436103.433          45.500          35.500
  23644512.734    23644512.206   124252744.2434   96820318.8514   23644512.368
  23644512.407          43.120          40.870
  22491961.049    22491966.627   120021399.348    93349981.725    22491961.263
  22491966.939          45.870          41.500
  20104354.416    20104359.710   107620191.449    83704599.226    20104354.573
  20104359.916          53.250          50.370
  21359258.187    21359263.965   114377891.953    88960592.749    21359258.692
  21359264.005          49.680          46.310
  21262002.730    21262009.151   113577824.165    88338318.916    21262003.195
  21262009.173          49.370          47.180
  19543833.364    19543837.732   104363012.911    81171244.329    19543833.329
  19543837.965          43.250          46.180
  22195757.398    22195761.194   118315894.859    92023485.989    22195756.807
  22195761.570          47.180          44.120
  23255727.589    23255734.146   124446098.716    96791447.650    23255727.938
  23255734.142          41.810          40.120
 21 04 28 12 45 34.0000000  0 16G03G04G07G08G09G16G26G27G31R02R03R04
                                R12R13R14R21
  24642067.819    24642072.867   129494917.3264  100905116.4534   24642067.645
  24642071.830          37.680          20.180
  20533900.225    20533900.913   107906368.0744   84082880.1484   20533899.930
  20533900.899          50.180          45.000
  24788515.478    24788517.571   130264536.3524  101504821.9964   24788515.009
  24788516.609          36.430          20.120
  24721058.204    24721063.381   129910038.8324  101228608.7754   24721057.869
  24721062.201          35.310          14.180
  21915627.817    21915629.400   115167402.8054   89740840.5104   21915627.245
  21915629.127          47.930          39.750
  20001190.414                   105106974.0614   81901539.3124   20001189.516
  20001189.457          49.250          46.310
  20921502.217    20921504.653   109943246.8824   85670074.5474   20921501.712
  20921504.850          50.310          44.430
  22435458.344    22435460.665   117899151.3644   91869480.1454   22435457.705
  22435460.410          45.430          35.500
  23645069.844    23645069.638   124255672.1444   96822600.3314   23645069.483
  23645069.580          43.180          40.870
  22492793.445    22492798.885   120025841.065    93353436.381    22492793.741
  22492799.243          45.930          41.120
  20104669.447    20104674.785   107621877.697    83705910.750    20104669.518
  20104674.937          53.310          50.430
  21358818.716    21358824.440   114375539.243    88958762.864    21358819.212
  21358824.570          49.680          46.310
  21262510.291    21262516.801   113580535.886    88340428.036    21262510.841
  21262516.716          49.310          47.180
  19543804.938    19543809.069   104362860.795    81171126.024    19543804.818
  19543809.481          43.370          46.310
  22195218.214    22195222.292   118313022.270    92021251.744    22195217.793
  22195222.654          46.930          43.870
  23256098.470    23256104.727   124448081.240    96792989.617    23256098.264
  23256104.625          42.000          39.620
 21 04 28 12 45 35.0000000  0 16G03G04G07G08G09G16G26G27G31R02R03R04
                                R12R13R14R21
  24642686.633    24642691.471   129498169.2314  100907650.4054   24642686.455
  24642690.644          37.680          20.250
  20533900.488    20533901.199   107906369.4214   84082881.1964   20533900.190
  20533901.155          50.120          45.000
  24787957.228    24787959.159   130261603.8424  101502536.9264   24787956.759
  24787958.650          36.500          20.370
  24720307.302    24720312.346   129906091.8744  101225533.2344   24720306.963
  24720311.156          35.120          14.370
  21915216.406    21915218.314   115165241.3354   89739156.2464   21915215.833
  21915217.809          48.000          39.750
  20001246.689                   105107269.5244   81901769.5434   20001245.786
  20001245.688          49.370          46.310
  20921882.788    20921885.300   109945246.8784   85671632.9864   20921882.283
  20921885.439          50.310          44.430
  22434815.325    22434817.793   117895772.5764   91866847.3264   22434814.691
  22434817.448          45.620          35.500
  23645626.874    23645626.830   124258600.1624   96824881.9024   23645626.513
  23645626.772          43.000          40.870
  22493625.994    22493631.291   120030282.964    93356891.200    22493626.312
  22493631.591          46.060          41.180
  20104984.701    20104989.990   107623564.799    83707222.941    20104984.674
  20104990.075          53.430          50.430
  21358379.513    21358385.090   114373187.265    88956933.548    21358379.898
  21358385.371          49.680          46.500
  21263017.909    21263024.389   113583247.773    88342537.276    21263018.446
  21263024.344          49.310          47.120
  19543776.579    19543780.778   104362709.107    81171008.034    19543776.485
  19543781.019          43.560          46.180
  22194678.994    22194683.327   118310149.911    92019017.692    22194678.865
  22194683.873          46.750          44.120
  23256468.966    23256475.040   124450064.571    96794532.194    23256469.055
  23256475.295          41.810          39.500
 21 04 28 12 45 36.0000000  0 16G03G04G07G08G09G16G26G27G31R02R03R04
                                R12R13R14R21
  24643305.649    24643310.165   129501421.1844  100910184.4024   24643305.480
  24643309.378          37.560          20.120
  20533900.873    20533901.593   107906371.4264   84082882.7584   20533900.574
  20533901.530          50.180          45.000
  24787399.067    24787401.123   130258671.3224  101500251.8464   24787398.598
  24787400.680          36.370          20.180
  24719556.266    24719561.359   129902144.8924  101222457.6474   24719555.931
  24719560.089          35.310          14.310
  21914805.128    21914807.140   115163080.3724   89737472.3794   21914804.556
  21914806.590          48.000          39.680
  20001303.117                   105107565.5894   81902000.2424   20001302.213
  20001302.030          49.430          46.310
  20922263.399    20922265.979   109947247.2494   85673191.7154   20922262.890
  20922266.099          50.250          44.430
  22434172.431    22434175.073   117892394.1224   91864214.7644   22434171.792
  22434174.541          45.620          35.500
  23646183.900    23646184.025   124261528.3014   96827163.5674   23646183.534
  23646183.980          43.060          40.870
  22494458.767    22494463.420   120034725.084    93360346.176    22494458.977
  22494464.086          46.060          41.180
  20105300.250    20105305.338   107625252.754    83708535.797    20105299.986
  20105305.396          53.430          50.310
  21357940.579    21357946.008   114370836.049    88955104.828    21357940.767
  21357946.307          49.680          46.620
  21263525.582    21263531.971   113585959.809    88344646.640    21263526.104
  21263531.984          49.370          47.180
  19543748.319    19543752.490   104362557.846    81170890.391    19543748.104
  19543752.674          43.870          46.370
  22194139.886    22194144.466   118307277.779    92016783.803    22194139.869
  22194145.163          46.500          44.000
  23256839.686    23256845.545   124452048.715    96796075.434    23256839.829
  23256846.126          42.060          39.620
 21 04 28 12 45 37.0000000  0 16G03G04G07G08G09G16G26G27G31R02R03R04
                                R12R13R14R21
  24643924.633    24643928.716   129504673.2014  100912718.4294   24643924.464
  24643928.246          37.810          20.180
  20533901.410    20533902.130   107906374.0684   84082884.8174   20533901.110
  20533902.035          50.120          45.000
  24786840.927    24786842.948   130255738.8134  101497966.7744   24786840.459
  24786842.658          36.560          20.310
  24718805.436    24718809.970   129898197.9304  101219382.0944   24718805.101
  24718808.991          35.120          14.500
  21914393.913    21914396.059   115160919.9104   89735788.9034   21914393.341
  21914395.460          47.930          39.750
  20001359.620                   105107862.2634   81902231.4164   20001358.717
  20001358.484          49.500          46.310
  20922644.117    20922646.661   109949248.0044   85674750.7434   20922643.608
  20922646.827          50.180          44.500
  22433529.644    22433532.156   117889016.0314   91861582.4864   22433529.005
  22433531.723          45.680          35.500
  23646741.082    23646741.319   124264456.5694   96829445.3324   23646740.720
  23646741.221          43.060          40.870
  22495291.433    22495295.888   120039167.443    93363801.337    22495291.643
  22495296.604          46.120          41.250
  20105615.964    20105620.851   107626941.605    83709849.340    20105615.490
  20105620.855          53.370          50.310
  21357501.684    21357507.078   114368485.580    88953276.678    21357501.783
  21357507.427          49.620          46.680
  21264033.388    21264039.639   113588672.027    88346756.138    21264033.857
  21264039.701          49.430          46.930
  19543720.058    19543724.145   104362407.005    81170773.070    19543719.825
  19543724.457          44.060          46.370
  22193600.958    22193605.792   118304405.851    92014550.082    22193601.061
  22193606.404          46.430          43.870
  23257210.884    23257216.404   124454033.645    96797619.251    23257210.737
  23257217.159          42.180          39.620
 21 04 28 12 45 38.0000000  0 16G03G04G07G08G09G16G26G27G31R02R03R04
                                R12R13R14R21
  24644543.367    24644547.293   129507925.3104  100915252.5404   24644543.203
  24644547.078          37.930          20.250
  20533902.022    20533902.733   107906377.3604   84082887.3824   20533901.727
  20533902.661          50.180          45.000
  24786282.878    24786284.738   130252806.2764  101495681.6824   24786282.409
  24786284.613          36.810          20.180
  24718054.149    24718059.019   129894250.9324  101216306.5164   24718053.811
  24718057.870          35.930          15.060
  21913982.859    21913985.073   115158759.9404   89734105.8094   21913982.287
  21913984.433          48.000          39.750
  20001416.199                   105108159.5494   81902463.0674   20001415.302
  20001415.055          49.430          46.370
  20923024.817    20923027.496   109951249.1404   85676310.0694   20923024.309
  20923027.626          50.180          44.500
  22432886.853    22432889.365   117885638.2954   91858950.4854   22432886.214
  22432888.963          45.680          35.500
  23647298.314    23647298.523   124267384.9434   96831727.1794   23647297.951
  23647298.483          43.180          40.930
  22496124.169    22496128.460   120043610.041    93367256.691    22496124.312
  22496129.045          46.180          41.250
  20105931.647    20105936.538   107628631.316    83711163.566    20105931.133
  20105936.463          53.250          50.310
  21357062.884    21357068.371   114366135.853    88951449.117    21357062.956
  21357068.698          49.560          46.810
  21264541.261    21264547.159   113591384.427    88348865.778    21264541.677
  21264547.401          49.560          47.180
  19543692.334    19543696.005   104362256.590    81170656.077    19543691.663
  19543696.313          44.060          46.250
  22193061.984    22193067.189   118301534.151    92012316.551    22193062.257
  22193067.797          46.310          44.060
  23257582.132    23257587.267   124456019.330    96799163.664    23257581.966
  23257588.349          42.250          39.810
 21 04 28 12 45 39.0000000  0 16G03G04G07G08G09G16G26G27G31R02R03R04
                                R12R13R14R21
  24645162.526    24645166.157   129511177.4504  100917786.6724   24645162.361
  24645165.911          37.870          20.120
  20533902.755    20533903.480   107906381.2994   84082890.4524   20533902.461
  20533903.408          50.120          45.000
  24785724.788    24785726.858   130249873.7234  101493396.5814   24785724.319
  24785726.545          36.870          20.180
  24717302.819    24717308.059   129890303.9514  101213230.9674   24717302.474
  24717306.812          35.930          15.750
  21913571.917    21913574.202   115156600.4814   89732423.1144   21913571.345
  21913573.500          48.000          39.750
  20001472.864                   105108457.4444   81902695.1924   20001471.966
  20001471.741          49.430          46.310
  20923405.643    20923408.411   109953250.6584   85677869.6934   20923405.138
  20923408.505          50.120          44.500
  22432244.191    22432246.596   117882260.9064   91856318.7544   22432243.552
  22432246.257          45.620          35.500
  23647855.786    23647856.121   124270313.4474   96834009.1264   23647855.420
  23647855.768          43.250          40.930
  22496956.879    22496961.170   120048052.874    93370712.225    22496957.036
  22496961.581          46.180          41.370
  20106247.353    20106252.217   107630321.865    83712478.431    20106246.946
  20106252.262          53.120          50.250
  21356624.079    21356629.911   114363786.923    88949622.168    21356624.290
  21356630.220          49.370          46.750
  21265049.090    21265054.894   113594097.005    88350975.560    21265049.537
  21265055.176          49.620          47.000
  19543664.489    19543667.788   104362106.593    81170539.411    19543663.653
  19543668.155          44.000          46.180
  22192523.064    22192528.556   118298662.672    92010083.177    22192523.573
  22192529.159          46.370          43.750
  23257953.952    23257958.421   124458005.786    96800708.682    23257953.335
  23257959.731          42.370          39.810
 21 04 28 12 45 40.0000000  0 16G03G04G07G08G09G16G26G27G31R02R03R04
                                R12R13R14R21
  24645781.314    24645785.392   129514429.6624  100920320.8554   24645781.149
  24645784.738          37.930          19.930
  20533903.556    20533904.334   107906385.8834   84082894.0244   20533903.261
  20533904.280          50.120          45.060
  24785166.917    24785169.068   130246941.1324  101491111.4384   24785166.452
  24785168.446          36.930          19.870
  24716551.622    24716556.956   129886356.9584  101210155.4064   24716551.278
  24716555.726          35.680          15.370
  21913161.163    21913163.273   115154441.5244   89730740.8114   21913160.591
  21913162.665          48.000          39.620
  20001529.640                   105108755.9544   81902927.7984   20001528.737
  20001528.553          49.370          46.310
  20923786.518    20923789.460   109955252.5604   85679429.6154   20923786.009
  20923789.451          50.120          44.500
  22431601.583    22431603.997   117878883.8704   91853687.3014   22431600.940
  22431603.626          45.680          35.430
  23648413.223    23648413.415   124273242.0714   96836291.1674   23648412.861
  23648413.080          43.250          40.930
  22497789.599    22497793.862   120052495.926    93374167.927    22497789.706
  22497794.108          46.250          41.120
  20106563.148    20106568.115   107632013.252    83713793.958    20106562.924
  20106568.236          53.060          50.370
  21356185.297    21356191.723   114361438.757    88947795.821    21356185.793
  21356191.830          49.250          46.930
  21265557.053    21265562.620   113596809.774    88353085.495    21265557.402
  21265562.991          49.620          47.000
  19543636.635    19543639.944   104361957.008    81170423.063    19543635.661
  19543640.154          44.000          46.310
  22191984.314    22191990.347   118295791.402    92007849.968    22191984.954
  22191990.597          46.370          44.120
  23258325.570    23258329.815   124459993.033    96802254.326    23258324.783
  23258331.224          42.620          39.680
 21 04 28 12 45 41.0000000  0 16G03G04G07G08G09G16G26G27G31R02R03R04
                                R12R13R14R21
  24646400.061    24646404.242   129517681.9434  100922855.0894   24646399.901
  24646403.714          38.000          19.930
  20533904.522    20533905.353   107906391.1194   84082898.1034   20533904.223
  20533905.273          50.060          45.060
  24784609.181    24784610.817   130244008.5664  101488826.3204   24784608.721
  24784610.321          37.120          20.000
  24715800.367    24715805.907   129882409.9684  101207079.8294   24715800.023
  24715804.646          35.750          15.310
  21912750.404    21912752.510   115152283.0574   89729058.8874   21912749.832
  21912751.915          48.060          39.620
  20001586.533                   105109055.0714   81903160.8764   20001585.630
  20001585.473          49.370          46.310
  20924167.492    20924170.559   109957254.8394   85680989.8304   20924166.983
  20924170.474          50.000          44.500
  22430958.989    22430961.448   117875507.1914   91851056.1224   22430958.350
  22430961.054          45.560          35.500
  23648970.700    23648970.767   124276170.8204   96838573.3084   23648970.338
  23648970.414          43.310          40.930
  22498622.358    22498626.483   120056939.196    93377623.799    22498622.451
  22498626.894          46.250          41.120
  20106879.180    20106884.218   107633705.481    83715110.139    20106879.046
  20106884.326          52.930          50.310
  21355746.895    21355753.504   114359091.319    88945970.041    21355747.391
  21355753.603          49.180          47.000
  21266065.030    21266070.489   113599522.725    88355195.565    21266065.284
  21266070.855          49.680          47.120
  19543608.920    19543612.117   104361807.844    81170307.042    19543607.744
  19543612.193          44.000          46.500
  22191445.707    22191452.075   118292920.369    92005616.938    22191446.445
  22191451.972          46.560          43.680
  23258697.127    23258701.358   124461981.077    96803800.573    23258696.304
  23258702.865          42.430          39.680
 21 04 28 12 45 42.0000000  0 16G03G04G07G08G09G16G26G27G31R02R03R04
                                R12R13R14R21
  24647018.902    24647022.913   129520934.2844  100925389.3844   24647018.746
  24647022.609          37.870          20.000
  20533905.573    20533906.391   107906397.0044   84082902.6894   20533905.274
  20533906.386          50.120          45.000
  24784051.735    24784052.768   130241075.9594  101486541.1704   24784051.275
  24784052.200          37.060          20.250
  24715049.322    24715054.478   129878462.9444  101204004.2164   24715048.983
  24715053.547          35.810          15.870
  21912339.726    21912341.796   115150125.0914   89727377.3554   21912339.154
  21912341.259          48.060          39.620
  20001643.528                   105109354.7944   81903394.4264   20001642.625
  20001642.512          49.250          46.310
  20924548.483    20924551.706   109959257.5014   85682550.3454   20924547.974
  20924551.572          50.000          44.430
  22430316.434    22430319.041   117872130.8574   91848425.2134   22430315.791
  22430318.544          45.500          35.430
  23649528.249    23649528.007   124279099.6854   96840855.5374   23649527.887
  23649527.770          43.430          40.930
  22499454.956    22499459.023   120061382.646    93381079.835    22499455.202
  22499459.760          46.250          41.120
  20107195.328    20107200.402   107635398.587    83716427.001    20107195.332
  20107200.599          52.930          50.310
  21355308.591    21355315.437   114356744.610    88944144.828    21355309.136
  21355315.468          49.120          46.930
  21266572.939    21266578.501   113602235.832    88357305.761    21266573.225
  21266578.738          49.750          46.870
  19543581.039    19543584.299   104361659.084    81170191.347    19543579.908
  19543584.276          43.870          46.250
  22190907.185    22190913.924   118290049.578    92003384.105    22190907.941
  22190913.356          46.620          44.000
  23259068.414    23259072.995   124463969.870    96805347.438    23259068.016
  23259074.510          42.500          39.680
 21 04 28 12 45 43.0000000  0 16G03G04G07G08G09G16G26G27G31R02R03R04
                                R12R13R14R21
  24647637.842    24647641.338   129524186.6754  100927923.7164   24647637.686
  24647641.468          37.930          20.000
  20533906.860    20533907.634   107906403.5294   84082907.7734   20533906.562
  20533907.629          50.120          45.000
  24783493.770    24783494.941   130238143.3654  101484256.0364   24783493.314
  24783494.141          37.060          20.430
  24714298.335    24714303.267   129874515.9744  101200928.6414   24714297.991
  24714302.454          36.120          16.000
  21911929.217    21911931.359   115147967.6434   89725696.2274   21911928.646
  21911930.702          48.060          39.620
  20001700.666                   105109655.1204   81903628.4474   20001699.764
  20001699.664          49.250          46.310
  20924929.635    20924932.872   109961260.5434   85684111.1564   20924929.130
  20924932.733          50.060          44.430
  22429673.916    22429676.764   117868754.8874   91845794.5874   22429673.277
  22429676.093          45.500          35.430
  23650085.731    23650085.239   124282028.6864   96843137.8734   23650085.365
  23650085.154          43.500          40.930
  22500287.666    22500291.621   120065826.278    93384535.991    22500288.006
  22500292.358          46.250          41.120
  20107511.704    20107516.873   107637092.571    83717744.541    20107511.798
  20107517.069          52.930          50.310
  21354870.322    21354877.513   114354398.668    88942320.209    21354870.948
  21354877.468          49.060          46.930
  21267081.000    21267086.272   113604949.092    88359416.071    21267081.170
  21267086.621          49.560          46.870
  19543553.258    19543556.566   104361510.753    81170075.987    19543552.144
  19543556.486          44.000          46.370
  22190368.761    22190375.536   118287179.020    92001151.443    22190369.535
  22190374.816          46.750          44.000
  23259440.100    23259444.492   124465959.418    96806894.861    23259439.894
  23259446.313          42.430          39.750
 21 04 28 12 45 44.0000000  0 16G03G04G07G08G09G16G26G27G31R02R03R04
                                R12R13R14R21
  24648256.844    24648260.336   129527439.1514  100930458.1094   24648256.692
  24648260.457          37.870          19.930
  20533908.341    20533908.917   107906410.7024   84082913.3614   20533908.046
  20533908.993          50.250          45.060
  24782936.034    24782936.802   130235210.7674  101481970.8934   24782935.578
  24782936.092          37.120          20.500
  24713547.237    24713552.021   129870568.9414  101197853.0424   24713546.889
  24713551.368          35.750          15.810
  21911518.785    21911520.837   115145810.6914   89724015.4854   21911518.213
  21911520.238          48.120          39.680
  20001757.912                   105109956.0564   81903862.9434   20001757.009
  20001756.933          49.180          46.310
  20925310.823    20925314.208   109963263.9734   85685672.2704   20925310.318
  20925313.975          50.060          44.500
  22429031.491    22429034.478   117865379.2674   91843164.2354   22429030.848
  22429033.727          45.560          35.370
  23650643.110    23650642.376   124284957.8014   96845420.2964   23650642.748
  23650642.563          43.430          40.930
  22501120.229    22501124.362   120070270.085    93387992.279    22501120.680
  22501125.154          46.180          41.430
  20107828.228    20107833.392   107638787.415    83719062.751    20107828.456
  20107833.674          52.930          50.310
  21354432.318    21354439.706   114352053.512    88940496.199    21354432.939
  21354439.621          49.180          46.870
  21267588.874    21267594.257   113607662.538    88361526.524    21267589.128
  21267594.539          49.560          47.000
  19543525.305    19543528.860   104361362.850    81169960.944    19543524.415
  19543528.775          43.870          46.370
  22189830.396    22189836.786   118284308.670    91998918.954    22189831.223
  22189836.263          46.870          43.930
  23259811.495    23259816.554   124467949.756    96808442.906    23259811.911
  23259818.115          42.370          39.250
 21 04 28 12 45 45.0000000  0 16G03G04G07G08G09G16G26G27G31R02R03R04
                                R12R13R14R21
  24648875.708    24648879.634   129530691.6754  100932992.5404   24648875.565
  24648879.415          37.620          20.250
  20533909.986    20533910.388   107906418.5284   84082919.4594   20533909.691
  20533910.482          50.250          45.000
  24782378.043    24782378.418   130232278.1454  101479685.7404   24782377.586
  24782378.033          37.000          20.310
  24712796.134    24712801.084   129866621.9504  101194777.4674   24712795.786
  24712800.275          36.060          15.680
  21911108.496    21911110.481   115143654.2424   89722335.1354   21911107.929
  21911109.872          48.180          39.680
  20001815.252                   105110257.5994   81904097.9104   20001814.354
  20001814.308          49.250          46.370
  20925692.127    20925695.494   109965267.7774   85687233.6744   20925691.622
  20925695.279          50.060          44.560
  22428389.192    22428392.187   117862003.9954   91840534.1544   22428388.553
  22428391.432          45.560          35.430
  23651200.466    23651199.893   124287887.0474   96847702.8244   23651200.100
  23651199.992          43.500          41.000
  22501952.822    22501957.287   120074714.079    93391448.710    22501953.453
  22501957.957          46.180          41.810
  20108144.998    20108150.090   107640483.101    83720381.616    20108145.266
  20108150.408          53.060          50.310
  21353994.667    21354001.974   114349709.114    88938672.786    21353995.079
  21354001.804          49.180          46.870
  21268096.832    21268102.247   113610376.169    88363637.121    21268097.113
  21268102.466          49.500          46.930
  19543497.693    19543501.069   104361215.368    81169846.237    19543496.870
  19543501.158          43.810          46.500
  22189292.317    22189298.134   118281438.537    91996686.630    22189292.952
  22189297.782          47.180          44.000
  23260182.984    23260188.678   124469940.896    96809991.559    23260183.870
  23260190.135          42.500          39.430
 21 04 28 12 45 46.0000000  0 16G03G04G07G08G09G16G26G27G31R02R03R04
                                R12R13R14R21
  24649494.478    24649498.752   129533944.2694  100935527.0174   24649494.331
  24649498.296          37.810          20.180
  20533911.677    20533912.021   107906426.9944   84082926.0554   20533911.382
  20533912.101          50.310          45.060
  24781820.064    24781820.118   130229345.5104  101477400.5784   24781819.608
  24781819.939          37.060          20.180
  24712045.326    24712050.263   129862674.9024  101191701.8554   24712044.982
  24712049.122          35.870          15.560
  21910698.318    21910700.116   115141498.2974   89720655.1774   21910697.746
  21910699.597          48.180          39.620
  20001872.766                   105110559.7484   81904333.3504   20001871.863
  20001871.804          49.250          46.310
  20926073.503    20926076.838   109967271.9554   85688795.3704   20926072.994
  20926076.664          50.120          44.560
  22427746.911    22427749.982   117858629.0824   91837904.3524   22427746.267
  22427749.200          45.560          35.430
  23651757.912    23651757.415   124290816.4044   96849985.4374   23651757.546
  23651757.442          43.430          41.000
  22502785.367    22502790.511   120079158.273    93394905.314    22502786.221
  22502790.775          46.120          41.500
  20108462.062    20108467.034   107642179.623    83721701.134    20108462.196
  20108467.334          53.120          50.370
  21353557.056    21353564.287   114347365.475    88936849.955    21353557.365
  21353564.135          49.250          46.750
  21268604.956    21268610.304   113613089.967    88365747.847    21268605.135
  21268610.509          49.620          46.930
  19543469.799    19543473.300   104361068.303    81169731.854    19543469.298
  19543473.600          43.810          46.500
  22188754.394    22188759.416   118278568.609    91994454.468    22188754.693
  22188759.335          47.500          44.060
  23260554.920    23260560.780   124471932.794    96811540.827    23260556.061
  23260562.295          42.750          39.560
 21 04 28 12 45 47.0000000  0 16G03G04G07G08G09G16G26G27G31R02R03R04
                                R12R13R14R21
  24650113.730    24650117.830   129537196.9274  100938061.5554   24650113.587
  24650117.200          37.870          20.250
  20533913.389    20533913.831   107906436.1184   84082933.1654   20533913.094
  20533913.831          50.120          45.000
  24781261.966    24781261.715   130226412.9014  101475115.4254   24781261.506
  24781261.876          37.000          20.310
  24711294.313    24711299.026   129858727.9024  101188626.2734   24711293.965
  24711298.015          35.870          15.620
  21910288.270    21910289.911   115139342.8484   89718975.6074   21910287.699
  21910289.415          48.180          39.680
  20001930.369                   105110862.4994   81904569.2614   20001929.466
  20001929.416          49.250          46.310
  20926454.995    20926458.263   109969276.5204   85690357.3694   20926454.490
  20926458.116          50.060          44.500
  22427104.759    22427107.763   117855254.5264   91835274.8294   22427104.119
  22427107.021          45.560          35.430
  23652315.394    23652315.192   124293745.8874   96852268.1494   23652315.027
  23652314.919          43.500          41.000
  22503618.037    22503623.252   120083602.679    93398362.073    22503619.034
  22503623.646          46.180          41.680
  20108779.315    20108784.188   107643876.995    83723021.311    20108779.275
  20108784.435          53.250          50.430
  21353119.539    21353126.721   114345022.589    88935027.702    21353119.834
  21353126.551          49.310          46.620
  21269113.071    21269118.387   113615803.924    88367858.708    21269113.169
  21269118.552          49.680          46.810
  19543442.156    19543445.674   104360921.676    81169617.808    19543441.901
  19543446.113          43.680          46.370
  22188216.476    22188220.675   118275698.903    91992222.473    22188216.462
  22188220.943          47.500          44.060
  23260926.892    23260933.216   124473925.452    96813090.650    23260928.363
  23260934.585          42.560          39.500
 21 04 28 12 45 48.0000000  0 16G03G04G07G08G09G16G26G27G31R02R03R04
                                R12R13R14R21
  24650732.862    24650737.356   129540449.6354  100940596.1294   24650732.724
  24650736.140          37.870          20.370
  20533915.249    20533915.794   107906445.8864   84082940.7784   20533914.951
  20533915.692          50.120          45.000
  24780703.787    24780703.357   130223480.2604  101472830.2514   24780703.321
  24780703.831          36.930          20.310
  24710543.362    24710547.601   129854780.9084  101185550.6964   24710543.005
  24710546.917          35.750          15.620
  21909878.218    21909879.707   115137187.9054   89717296.4304   21909877.646
  21909879.331          48.120          39.680
  20001988.075                   105111165.8644   81904805.6494   20001987.172
  20001987.145          49.310          46.310
  20926836.572    20926839.759   109971281.4724   85691919.6684   20926836.067
  20926839.648          50.120          44.500
  22426462.629    22426465.616   117851880.3324   91832645.5874   22426461.990
  22426464.927          45.560          35.430
  23652872.821    23652872.692   124296675.4964   96854550.9604   23652872.451
  23652872.423          43.310          41.000
  22504450.742    22504456.266   120088047.323    93401819.020    22504451.860
  22504456.553          46.120          41.560
  20109096.626    20109101.472   107645575.241    83724342.170    20109096.541
  20109101.691          53.310          50.310
  21352682.152    21352689.074   114342680.445    88933206.045    21352682.496
  21352689.056          49.310          46.620
  21269621.293    21269626.574   113618518.063    88369969.707    21269621.221
  21269626.650          49.810          46.870
  19543414.610    19543418.397   104360775.457    81169504.083    19543414.534
  19543418.769          43.810          46.430
  22187678.361    22187682.390   118272829.427    91989990.658    22187678.209
  22187682.564          47.310          44.370
  23261299.669    23261305.752   124475918.907    96814641.114    23261300.997
  23261307.044          42.620          39.370
 21 04 28 12 45 49.0000000  0 16G03G04G07G08G09G16G26G27G31R02R03R04
                                R12R13R14R21
  24651351.811    24651356.434   129543702.4294  100943130.7764   24651351.673
  24651355.088          38.000          20.370
  20533917.208    20533917.820   107906456.2934   84082948.8874   20533916.909
  20533917.673          50.180          45.060
  24780145.558    24780145.253   130220547.6104  101470545.0704   24780145.093
  24780145.808          37.060          20.310
  24709791.933    24709796.163   129850833.8444  101182475.0484   24709791.571
  24709795.755          36.310          15.810
  21909468.300    21909469.592   115135033.4684   89715617.6464   21909467.728
  21909469.346          48.120          39.680
  20002045.947                   105111469.8324   81905042.5074   20002045.049
  20002044.990          49.310          46.370
  20927218.207    20927221.216   109973286.7914   85693482.2554   20927217.702
  20927221.247          50.180          44.500
  22425820.701    22425823.535   117848506.4664   91830016.6004   22425820.062
  22425822.883          45.560          35.430
  23653430.294    23653430.424   124299605.2244   96856833.8644   23653429.923
  23653429.950          43.430          41.060
  22505283.578    22505289.013   120092492.181    93405276.136    22505284.713
  22505289.598          46.060          41.370
  20109413.964    20109419.020   107647274.356    83725663.707    20109413.982
  20109419.137          53.310          50.430
  21352244.908    21352251.754   114340339.061    88931384.963    21352245.274
  21352251.687          49.370          46.560
  21270129.471    21270134.729   113621232.394    88372080.850    21270129.390
  21270134.760          49.680          46.810
  19543387.181    19543391.035   104360629.665    81169390.699    19543387.244
  19543391.505          43.810          46.370
  22187140.187    22187144.288   118269960.182    91987759.021    22187140.009
  22187144.346          47.180          44.310
  23261672.615    23261678.167   124477913.187    96816192.217    23261673.832
  23261679.687          42.500          39.500
 21 04 28 12 45 50.0000000  0 16G03G04G07G08G09G16G26G27G31R02R03R04
                                R12R13R14R21
  24651971.081    24651975.400   129546955.2524  100945665.4394   24651970.938
  24651974.018          38.120          20.430
  20533919.332    20533919.994   107906467.3584   84082957.5094   20533919.033
  20533919.774          50.250          45.060
  24779587.048    24779587.370   130217614.9664  101468259.8954   24779586.579
  24779587.830          37.120          20.430
  24709040.682    24709045.382   129846886.8154  101179399.4394   24709040.325
  24709044.604          36.000          15.750
  21909058.328    21909059.553   115132879.5214   89713939.2464   21909057.753
  21909059.451          48.120          39.620
  20002103.984                   105111774.4044   81905279.8364   20002103.081
  20002102.947          49.370          46.370
  20927599.927    20927602.811   109975292.4984   85695045.1444   20927599.422
  20927602.918          50.180          44.500
  22425178.822    22425181.513   117845132.9724   91827387.9024   22425178.188
  22425180.923          45.560          35.500
  23653987.709    23653987.941   124302535.0724   96859116.8614   23653987.338
  23653987.489          43.370          41.060
  22506116.573    22506122.062   120096937.273    93408733.412    22506117.606
  22506122.675          46.120          41.500
  20109731.592    20109736.671   107648974.338    83726985.917    20109731.569
  20109736.751          53.310          50.430
  21351807.788    21351814.461   114337998.452    88929564.493    21351808.218
  21351814.434          49.430          46.500
  21270637.536    21270643.018   113623946.900    88374192.139    21270637.585
  21270642.853          49.500          46.750
  19543359.900    19543363.964   104360484.298    81169277.632    19543359.927
  19543364.345          43.810          46.430
  22186601.924    22186606.030   118267091.142    91985527.547    22186601.777
  22186606.214          47.060          44.370
  23262045.571    23262051.010   124479908.225    96817743.904    23262046.725
  23262052.392          42.370          39.060
 21 04 28 12 45 51.0000000  0 16G03G04G07G08G09G16G26G27G31R02R03R04
                                R12R13R14R21
  24652590.401    24652594.747   129550208.1654  100948200.1704   24652590.267
  24652593.021          38.250          20.370
  20533921.523    20533922.274   107906479.0684   84082966.6324   20533921.224
  20533922.010          50.180          45.060
  24779028.792    24779029.816   130214682.3074  101465974.7154   24779028.319
  24779029.762          37.250          20.430
  24708289.955    24708294.100   129842939.7494  101176323.8164   24708289.602
  24708293.496          36.370          16.000
  21908648.423    21908649.720   115130726.0854   89712261.2434   21908647.848
  21908649.658          48.120          39.620
  20002162.084                   105112079.5894   81905517.6414   20002161.186
  20002161.019          49.370          46.370
  20927981.759    20927984.464   109977298.5874   85696608.3304   20927981.254
  20927984.665          50.180          44.500
  22424536.943    22424539.527   117841759.8204   91824759.4724   22424536.304
  22424539.017          45.560          35.500
  23654545.351    23654545.450   124305465.0404   96861399.9504   23654544.977
  23654545.047          43.250          41.120
  22506949.744    22506955.305   120101382.592    93412190.891    22506950.612
  22506955.724          46.180          42.180
  20110049.314    20110054.514   107650675.173    83728308.785    20110049.314
  20110054.505          53.250          50.500
  21351370.786    21351377.252   114335658.596    88927744.601    21351371.345
  21351377.315          49.500          46.430
  21271145.508    21271151.187   113626661.551    88376303.537    21271145.808
  21271150.999          49.430          46.870
  19543332.779    19543336.925   104360339.364    81169164.897    19543332.762
  19543337.260          43.810          46.500
  22186063.555    22186067.834   118264222.314    91983296.245    22186063.582
  22186068.166          47.000          44.680
  23262419.108    23262424.140   124481904.005    96819296.183    23262419.873
  23262425.227          42.500          39.370
 21 04 28 12 45 52.0000000  0 16G03G04G07G08G09G16G26G27G31R02R03R04
                                R12R13R14R21
  24653209.662    24653213.360   129553461.1254  100950734.9464   24653209.528
  24653212.014          38.310          20.370
  20533923.821    20533924.702   107906491.4244   84082976.2604   20533923.527
  20533924.366          50.250          45.060
  24778470.886    24778471.548   130211749.6434  101463689.5244   24778470.413
  24778471.650          37.370          20.310
  24707538.396    24707542.880   129838992.6644  101173248.1734   24707538.039
  24707542.393          36.370          16.310
  21908238.689    21908239.994   115128573.1534   89710583.6344   21908238.113
  21908239.949          48.180          39.620
  20002220.314                   105112385.3844   81905755.9234   20002219.411
  20002219.209          49.370          46.370
  20928363.573    20928366.305   109979305.0514   85698171.8084   20928363.068
  20928366.479          50.180          44.500
  22423895.207    22423897.724   117838387.0394   91822131.3324   22423894.568
  22423897.192          45.620          35.560
  23655102.985    23655102.976   124308395.1354   96863683.1394   23655102.614
  23655102.631          43.250          41.120
  22507782.874    22507788.198   120105828.147    93415648.541    22507783.639
  22507788.779          46.250          41.810
  20110367.157    20110372.531   107652376.853    83729632.314    20110367.175
  20110372.406          53.180          50.430
  21350934.105    21350940.116   114333319.459    88925925.276    21350934.650
  21350940.370          49.620          46.370
  21271653.609    21271659.235   113629376.360    88378415.047    21271654.124
  21271659.208          49.430          46.810
  19543305.740    19543309.737   104360194.851    81169052.495    19543305.704
  19543310.269          43.680          46.500
  22185525.404    22185529.710   118261353.726    91981065.122    22185525.386
  22185530.265          47.250          44.680
  23262792.587    23262797.565   124483900.534    96820849.035    23262793.088
  23262798.335          42.370          39.430
 21 04 28 12 45 53.0000000  0 16G03G04G07G08G09G16G26G27G31R02R03R04
                                R12R13R14R21
  24653828.897    24653832.112   129556714.1464  100953269.7664   24653828.754
  24653831.079          38.560          20.430
  20533926.357    20533927.264   107906504.4264   84082986.3914   20533926.058
  20533926.844          50.250          45.060
  24777913.020    24777913.569   130208816.9474  101461404.3074   24777912.542
  24777913.614          37.500          20.620
  24706787.360    24706792.247   129835045.5974  101170172.5304   24706786.998
  24706791.317          36.370          16.750
  21907829.066    21907830.353   115126420.7224   89708906.4154   21907828.490
  21907830.344          48.120          39.620
  20002278.646                   105112691.7794   81905994.6724   20002277.743
  20002277.519          49.310          46.370
  20928745.561    20928748.239   109981311.9064   85699735.5924   20928745.056
  20928748.373          50.180          44.560
  22423253.444    22423256.028   117835014.5984   91819503.4574   22423252.805
  22423255.456          45.560          35.560
  23655660.503    23655660.636   124311325.3544   96865966.4254   23655660.128
  23655660.225          43.310          41.060
  22508616.211    22508621.619   120110273.900    93419106.355    22508616.787
  22508621.869          46.370          41.870
  20110685.143    20110690.615   107654079.372    83730956.494    20110685.228
  20110690.517          53.180          50.310
  21350497.532    21350503.363   114330981.068    88924106.528    21350498.055
  21350503.564          49.750          46.310
  21272161.760    21272167.372   113632091.348    88380526.711    21272162.476
  21272167.488          49.750          46.810
  19543278.897    19543282.934   104360050.766    81168940.433    19543278.718
  19543283.345          43.680          46.500
  22184987.204    22184992.025   118258485.384    91978834.183    22184987.267
  22184992.329          47.370          44.560
  23263165.690    23263170.964   124485897.869    96822402.508    23263166.410
  23263171.500          42.560          39.500
 21 04 28 12 45 54.0000000  0 16G03G04G07G08G09G16G26G27G31R02R03R04
                                R12R13R14R21
  24654448.195    24654450.349   129559967.2404  100955804.6444   24654448.052
  24654450.224          38.500          20.250
  20533928.932    20533929.858   107906518.0794   84082997.0294   20533928.634
  20533929.446          50.180          45.060
  24777355.279    24777355.614   130205884.2514  101459119.0904   24777354.797
  24777355.587          37.750          20.560
  24706036.306    24706040.970   129831098.5194  101167096.8884   24706035.944
  24706040.178          36.560          16.560
  21907419.541    21907420.829   115124268.7974   89707229.5904   21907418.965
  21907420.833          48.120          39.620
  20002337.028                   105112998.7914   81906233.9024   20002336.125
  20002335.945          49.310          46.370
  20929127.532    20929130.187   109983319.1374   85701299.6674   20929127.023
  20929130.335          50.180          44.560
  22422611.757    22422614.404   117831642.5154   91816875.8584   22422611.118
  22422613.787          45.560          35.620
  23656217.958    23656218.256   124314255.6914   96868249.8024   23656217.582
  23656217.841          43.370          41.060
  22509449.739    22509455.142   120114719.836    93422564.290    22509449.967
  22509455.057          46.430          41.810
  20111003.352    20111008.799   107655782.754    83732281.348    20111003.410
  20111008.785          53.060          50.370
  21350061.093    21350066.633   114328643.459    88922288.381    21350061.643
  21350066.978          49.750          46.370
  21272670.001    21272675.625   113634806.544    88382638.518    21272670.837
  21272675.840          49.930          46.870
  19543252.187    19543256.270   104359907.116    81168828.705    19543251.821
  19543256.458          43.620          46.370
  22184449.147    22184453.986   118255617.284    91976603.435    22184449.250
  22184454.339          47.620          44.680
  23263539.026    23263544.890   124487896.012    96823956.607    23263539.965
  23263545.024          42.500          39.370
 21 04 28 12 45 55.0000000  0 16G03G04G07G08G09G16G26G27G31R02R03R04
                                R12R13R14R21
  24655067.215    24655069.303   129563220.3764  100958339.5554   24655067.076
  24655069.208          38.500          20.250
  20533931.660    20533932.550   107906532.3804   84083008.1734   20533931.361
  20533932.170          50.250          45.060
  24776797.359    24776797.260   130202951.5604  101456833.8744   24776796.872
  24776797.542          37.750          20.560
  24705285.217    24705289.487   129827151.4494  101164021.2504   24705284.855
  24705289.089          36.560          16.750
  21907010.075    21907011.586   115122117.3724   89705553.1564   21907009.499
  21907011.420          48.060          39.680
  20002395.543                   105113306.4044   81906473.6004   20002394.640
  20002394.483          49.370          46.370
  20929509.632    20929512.238   109985326.7444   85702864.0364   20929509.127
  20929512.363          50.180          44.560
  22421970.106    22421972.771   117828270.7964   91814248.5464   22421969.472
  22421972.181          45.500          35.680
  23656775.631    23656775.595   124317186.1494   96870533.2754   23656775.256
  23656775.470          43.180          41.060
  22510283.155    22510288.488   120119165.942    93426022.364    22510283.200
  22510288.250          46.430          41.930
  20111321.656    20111327.048   107657486.996    83733606.866    20111321.737
  20111327.169          53.120          50.430
  21349624.841    21349630.221   114326306.629    88920470.852    21349625.373
  21349630.507          49.810          46.180
  21273178.540    21273183.839   113637521.936    88384750.494    21273179.189
  21273184.206          50.120          46.870
  19543225.398    19543229.619   104359763.886    81168717.307    19543225.005
  19543229.628          43.370          46.370
  22183911.206    22183915.938   118252749.375    91974372.845    22183911.260
  22183916.425          47.750          44.620
  23263912.353    23263918.718   124489894.914    96825511.321    23263913.587
  23263918.548          42.560          39.370
 21 04 28 12 45 56.0000000  0 16G03G04G07G08G09G16G26G27G31R02R03R04
                                R12R13R14R21
  24655686.409    24655688.278   129566473.5884  100960874.5224   24655686.271
  24655688.247          38.430          20.310
  20533934.500    20533935.354   107906547.3264   84083019.8184   20533934.201
  20533935.022          50.120          45.120
  24776239.216    24776239.081   130200018.8614  101454548.6504   24776238.734
  24776239.457          37.370          20.430
  24704534.208    24704538.442   129823204.3404  101160945.5854   24704533.846
  24704537.977          36.370          16.810
  21906600.855    21906602.347   115119966.4484   89703877.1124   21906600.278
  21906602.110          48.060          39.680
  20002454.220                   105113614.6254   81906713.7724   20002453.317
  20002453.133          49.250          46.370
  20929891.799    20929894.294   109987334.7344   85704428.7024   20929891.290
  20929894.464          50.120          44.560
  22421328.576    22421331.169   117824899.4244   91811621.5044   22421327.937
  22421330.646          45.430          35.620
  23657333.310    23657333.117   124320116.7284   96872816.8424   23657332.935
  23657333.130          43.120          41.060
  22511116.617    22511121.622   120123612.219    93429480.588    22511116.460
  22511121.573          46.500          41.810
  20111640.156    20111645.495   107659192.093    83734933.060    20111640.232
  20111645.696          53.120          50.430
  21349188.652    21349194.023   114323970.541    88918653.883    21349189.220
  21349194.201          49.810          46.500
  21273687.048    21273692.030   113640237.486    88386862.595    21273687.612
  21273692.616          50.250          46.870
  19543198.685    19543203.134   104359621.094    81168606.248    19543198.282
  19543202.932          43.500          46.370
  22183373.310    22183377.908   118249881.668    91972142.407    22183373.261
  22183378.471          47.750          44.560
  23264286.154    23264292.876   124491894.592    96827066.635    23264287.361
  23264292.286          42.750          39.430
 21 04 28 12 45 57.0000000  0 16G03G04G07G08G09G16G26G27G31R02R03R04
                                R12R13R14R21
  24656305.416    24656307.361   129569726.8394  100963409.5264   24656305.278
  24656307.213          38.500          19.930
  20533937.411    20533938.220   107906562.9214   84083031.9714   20533937.111
  20533937.987          50.120          45.120
  24775681.242    24775681.045   130197086.1514  101452263.4194   24775680.751
  24775681.322          37.430          20.370
  24703783.087    24703787.429   129819257.2734  101157869.9444   24703782.730
  24703786.848          36.430          17.180
  21906191.661    21906193.131   115117816.0284   89702201.4604   21906191.084
  21906192.894          48.000          39.680
  20002512.910                   105113923.4564   81906954.4204   20002512.007
  20002511.899          49.180          46.370
  20930273.984    20930276.399   109989343.0954   85705993.6584   20930273.479
  20930276.631          50.180          44.500
  22420686.987    22420689.679   117821528.4094   91808994.7404   22420686.349
  22420689.169          45.430          35.620
  23657890.970    23657890.411   124323047.4284   96875100.5034   23657890.595
  23657890.800          43.000          41.060
  22511950.145    22511955.025   120128058.715    93432938.966    22511949.770
  22511954.806          46.620          42.000
  20111958.750    20111964.142   107660898.044    83736259.904    20111958.934
  20111964.366          53.180          50.430
  21348752.695    21348757.937   114321635.205    88916837.507    21348753.192
  21348758.071          49.810          46.430
  21274195.522    21274200.274   113642953.201    88388974.814    21274195.991
  21274201.026          50.310          47.000
  19543171.846    19543176.621   104359478.721    81168495.511    19543171.555
  19543176.255          43.560          46.500
  22182835.442    22182840.172   118247014.172    91969912.134    22182835.329
  22182840.445          47.620          44.680
  23264660.013    23264666.905   124493895.043    96828622.542    23264661.184
  23264666.203          42.810          39.310
 21 04 28 12 45 58.0000000  0 16G03G04G07G08G09G16G26G27G31R02R03R04
                                R12R13R14R21
  24656924.387    24656926.278   129572980.1564  100965944.5714   24656924.244
  24656926.300          38.370          20.060
  20533940.509    20533941.247   107906579.1634   84083044.6274   20533940.211
  20533941.091          50.120          45.120
  24775123.143    24775123.237   130194153.4284  101449978.1794   24775122.647
  24775123.205          37.750          20.680
  24703032.458    24703036.187   129815310.1944  101154794.2974   24703032.096
  24703035.758          36.370          17.180
  21905782.552    21905784.072   115115666.1104   89700526.2004   21905781.976
  21905783.768          47.930          39.680
  20002571.716                   105114232.8984   81907195.5424   20002570.818
  20002570.781          49.120          46.370
  20930656.335    20930658.628   109991351.8344   85707558.9104   20930655.826
  20930658.878          50.120          44.560
  22420045.564    22420048.368   117818157.7364   91806368.2434   22420044.926
  22420047.755          45.560          35.680
  23658448.644    23658448.049   124325978.2554   96877384.2634   23658448.269
  23658448.496          43.060          41.000
  22512783.807    22512788.317   120132505.430    93436397.509    22512783.092
  22512788.200          46.620          42.120
  20112277.582    20112282.943   107662604.844    83737587.418    20112277.747
  20112283.188          53.310          50.430
  21348316.887    21348322.168   114319300.623    88915021.720    21348317.227
  21348322.128          49.870          46.500
  21274703.994    21274708.671   113645669.059    88391087.147    21274704.347
  21274709.476          50.250          46.810
  19543145.155    19543150.033   104359336.765    81168385.094    19543144.972
  19543149.648          43.680          46.430
  22182297.577    22182302.456   118244146.908    91967682.056    22182297.461
  22182302.540          47.430          44.620
  23265034.243    23265041.059   124495896.270    96830179.047    23265035.124
  23265040.375          42.870          39.750
 21 04 28 12 45 59.0000000  0 16G03G04G07G08G09G16G26G27G31R02R03R04
                                R12R13R14R21
  24657543.389    24657545.218   129576233.5684  100968479.7024   24657543.242
  24657545.410          38.620          19.810
  20533943.743    20533944.386   107906596.0554   84083057.7894   20533943.448
  20533944.310          50.250          45.120
  24774565.107    24774564.772   130191220.7084  101447692.9444   24774564.607
  24774565.080          37.680          20.620
  24702281.132    24702285.639   129811363.0814  101151718.6284   24702280.766
  24702284.642          36.680          17.120
  21905373.519    21905375.204   115113516.6914   89698851.3294   21905372.943
  21905374.744          48.000          39.680
  20002630.710                   105114542.9514   81907437.1424   20002629.812
  20002629.784          49.250          46.370
  20931038.672    20931041.055   109993360.9674   85709124.4664   20931038.163
  20931041.198          50.180          44.500
  22419404.128    22419407.017   117814787.4434   91803742.0414   22419403.494
  22419406.422          45.620          35.750
  23659006.327    23659005.907   124328909.2014   96879668.1164   23659005.952
  23659006.206          42.870          41.000
  22513617.336    22513621.805   120136952.362    93439856.244    22513616.545
  22513621.622          46.560          42.060
  20112596.534    20112602.015   107664312.521    83738915.612    20112596.730
  20112602.194          53.250          50.310
  21347881.136    21347886.341   114316966.820    88913206.540    21347881.427
  21347886.368          49.870          46.430
  21275212.538    21275217.296   113648385.090    88393199.612    21275212.739
  21275217.926          50.060          47.000
  19543118.594    19543123.337   104359195.228    81168275.013    19543118.477
  19543123.190          43.680          46.500
  22181759.703    22181764.506   118241279.887    91965452.147    22181759.515
  22181764.649          47.370          44.560
  23265408.356    23265415.039   124497898.274    96831736.156    23265409.202
  23265414.659          42.930          39.560
 21 04 28 12 46 00.0000000  0 16G03G04G07G08G09G16G26G27G31R02R03R04
                                R12R13R14R21
  24658162.454    24658164.273   129579487.0144  100971014.8494   24658162.311
  24658164.542          38.430          19.750
  20533947.101    20533947.677   107906613.5924   84083071.4554   20533946.802
  20533947.646          50.250          45.120
  24774007.066    24774006.869   130188287.9844  101445407.7124   24774006.567
  24774006.932          37.680          20.810
  24701530.132    24701534.786   129807415.9854  101148642.9774   24701529.765
  24701533.521          36.560          17.250
  21904964.562    21904966.252   115111367.7824   89697176.8544   21904963.981
  21904965.805          47.930          39.680
  20002689.825                   105114853.6034   81907679.2094   20002688.927
  20002688.899          49.250          46.370
  20931420.973    20931423.499   109995370.4794   85710690.3214   20931420.464
  20931423.593          50.180          44.560
  22418762.933    22418765.871   117811417.4904   91801116.1054   22418762.299
  22418765.160          45.620          35.750
  23659563.822    23659563.737   124331840.2704   96881952.0644   23659563.442
  23659563.938          42.810          40.930
  22514450.636    22514455.458   120141399.515    93443315.124    22514449.930
  22514454.966          46.560          42.250
  20112915.566    20112921.043   107666021.062    83740244.477    20112915.843
  20112921.360          53.180          50.370
  21347445.461    21347450.497   114314633.779    88911391.953    21347445.618
  21347450.667          49.750          46.430
  21275720.948    21275725.849   113651101.301    88395312.220    21275721.163
  21275726.367          49.930          46.930
  19543092.059    19543096.709   104359054.116    81168165.257    19543092.059
  19543096.776          43.810          46.370
  22181221.744    22181226.758   118238413.091    91963222.417    22181221.624
  22181226.807          47.250          44.680
  23265783.119    23265789.300   124499901.060    96833293.872    23265783.436
  23265788.934          43.000          39.750
 21 04 28 12 46 01.0000000  0 16G03G04G07G08G09G16G26G27G31R02R03R04
                                R12R13R14R21
  24658781.649    24658783.678   129582740.5464  100973550.0624   24658781.505
  24658783.723          38.430          19.870
  20533950.548    20533951.107   107906631.7774   84083085.6264   20533950.249
  20533951.111          50.250          45.120
  24773449.160    24773448.856   130185355.2434  101443122.4644   24773448.660
  24773448.815          38.000          20.810
  24700779.091    24700783.522   129803468.9004  101145567.3314   24700778.716
  24700782.386          36.500          17.060
  21904555.606    21904557.537   115109219.3754   89695502.7704   21904555.030
  21904556.969          47.810          39.680
  20002749.060                   105115164.8664   81907921.7524   20002748.163
  20002748.130          49.250          46.370
  20931803.378    20931805.980   109997380.3584   85712256.4594   20931802.868
  20931806.051          50.120          44.500
  22418121.774    22418124.725   117808047.8894   91798490.4434   22418121.140
  22418123.974          45.560          35.810
  23660121.451    23660121.818   124334771.4534   96884236.1004   23660121.077
  23660121.697          42.680          40.930
  22515284.088    22515288.813   120145846.880    93446774.187    22515283.427
  22515288.531          46.500          42.000
  20113234.844    20113240.460   107667730.462    83741574.006    20113235.135
  20113240.684          53.250          50.370
  21347009.863    21347014.943   114312301.484    88909577.949    21347009.935
  21347015.167          49.620          46.560
  21276229.448    21276234.344   113653817.713    88397424.984    21276229.604
  21276234.814          49.870          46.810
  19543065.869    19543070.420   104358913.427    81168055.832    19543065.676
  19543070.429          43.810          46.500
  22180683.764    22180688.812   118235546.512    91960992.862    22180683.764
  22180689.054          47.310          44.620
  23266157.644    23266163.722   124501904.638    96834852.206    23266157.742
  23266163.325          43.310          39.370
 21 04 28 12 46 02.0000000  0 16G03G04G07G08G09G16G26G27G31R02R03R04
                                R12R13R14R21
  24659400.901    24659402.846   129585994.1204  100976085.3094   24659400.754
  24659402.864          38.370          19.750
  20533954.161    20533954.765   107906650.6124   84083100.3024   20533953.863
  20533954.702          50.250          45.120
  24772891.218    24772890.538   130182422.4904  101440837.2034   24772890.713
  24772890.761          37.750          20.680
  24700027.984    24700032.495   129799521.8124  101142491.6704   24700027.609
  24700031.297          36.750          17.180
  21904146.783    21904148.885   115107071.4714   89693829.0784   21904146.207
  21904148.241          47.750          39.680
  20002808.462                   105115476.7384   81908164.7694   20002807.559
  20002807.478          49.310          46.370
  20932185.867    20932188.509   109999390.6254   85713822.9004   20932185.358
  20932188.590          50.120          44.560
  22417480.664    22417483.736   117804678.6474   91795865.0594   22417480.025
  22417482.842          45.560          35.750
  23660679.260    23660679.483   124337702.7634   96886520.2374   23660678.884
  23660679.487          42.560          40.870
  22516117.532    22516122.439   120150294.461    93450233.403    22516116.915
  22516121.961          46.430          42.120
  20113554.409    20113560.015   107669440.697    83742904.186    20113554.623
  20113560.190          53.250          50.310
  21346574.273    21346579.666   114309969.947    88907764.538    21346574.385
  21346579.760          49.430          46.430
  21276737.974    21276742.973   113656534.305    88399537.884    21276738.171
  21276743.362          50.060          47.120
  19543039.803    19543043.984   104358773.151    81167946.731    19543039.423
  19543044.172          43.930          46.500
  22180145.778    22180151.180   118232680.134    91958763.459    22180146.002
  22180151.337          47.250          44.680
  23266532.728    23266538.646   124503908.987    96836411.149    23266532.268
  23266537.930          43.680          39.250
 21 04 28 12 46 03.0000000  0 16G03G04G07G08G09G16G26G27G31R02R03R04
                                R12R13R14R21
  24660020.181    24660022.148   129589247.7514  100978620.6054   24660020.028
  24660022.036          38.500          19.500
  20533957.922    20533958.445   107906670.0914   84083115.4804   20533957.623
  20533958.414          50.250          45.060
  24772333.052    24772332.497   130179489.7424  101438551.9444   24772332.547
  24772332.716          38.000          20.620
  24699276.707    24699281.236   129795574.7204  101139416.0144   24699276.331
  24699280.221          36.870          17.560
  21903738.050    21903740.250   115104924.0734   89692155.7814   21903737.474
  21903739.597          47.680          39.680
  20002867.956                   105115789.2204   81908408.2614   20002867.054
  20002866.941          49.370          46.370
  20932568.378    20932571.226   110001401.2734   85715389.6404   20932567.869
  20932571.199          50.120          44.500
  22416839.541    22416842.657   117801309.7604   91793239.9544   22416838.902
  22416841.772          45.500          35.750
  23661237.112    23661237.429   124340634.1914   96888804.4634   23661236.741
  23661237.304          42.620          40.810
  22516951.038    22516955.851   120154742.230    93453692.783    22516950.447
  22516955.520          46.250          42.060
  20113874.188    20113879.714   107671151.781    83744235.027    20113874.250
  20113879.812          53.430          50.370
  21346138.889    21346144.439   114307639.166    88905951.711    21346138.988
  21346144.573          49.310          46.430
  21277246.666    21277251.410   113659251.041    88401650.896    21277246.738
  21277251.929          50.250          46.930
  19543013.644    19543017.731   104358633.304    81167837.965    19543013.233
  19543017.928          43.870          46.500
  22179608.070    22179613.534   118229813.978    91956534.217    22179608.289
  22179613.656          47.310          44.680
  23266907.499    23266913.703   124505914.092    96837970.667    23266906.842
  23266912.567          43.500          39.310
 21 04 28 12 46 04.0000000  0 16G03G04G07G08G09G16G26G27G31R02R03R04
                                R12R13R14R21
  24660639.510    24660641.467   129592501.4484  100981155.9564   24660639.357
  24660641.226          38.310          19.930
  20533961.767    20533962.308   107906690.2204   84083131.1664   20533961.469
  20533962.246          50.250          45.120
  24771775.034    24771774.430   130176556.9844  101436266.6824   24771774.529
  24771774.617          38.120          20.500
  24698525.452    24698529.520   129791627.6094  101136340.3454   24698525.071
  24698529.123          36.930          17.680
  21903329.397    21903331.646   115102777.1734   89690482.8744   21903328.821
  21903331.056          47.810          39.680
  20002927.572                   105116102.3034   81908652.2224   20002926.669
  20002926.512          49.310          46.370
  20932951.046    20932954.010   110003412.2994   85716956.6734   20932950.537
  20932953.881          50.180          44.500
  22416198.516    22416201.690   117797941.2374   91790615.1324   22416197.882
  22416200.760          45.370          35.810
  23661795.037    23661795.452   124343565.7514   96891088.7944   23661794.661
  23661795.148          42.680          40.810
  22517784.414    22517789.639   120159190.227    93457152.333    22517784.021
  22517789.124          46.310          41.870
  20114194.186    20114199.552   107672863.723    83745566.537    20114194.088
  20114199.587          53.560          50.310
  21345703.653    21345709.368   114305309.135    88904139.465    21345703.733
  21345709.484          49.250          46.680
  21277755.434    21277759.972   113661967.922    88403764.027    21277755.367
  21277760.540          50.370          46.870
  19542987.731    19542991.536   104358493.890    81167729.522    19542987.181
  19542991.733          43.870          46.500
  22179070.335    22179075.826   118226948.070    91954305.187    22179070.729
  22179076.019          47.370          44.750
  23267282.731    23267288.627   124507919.983    96839530.824    23267281.600
  23267287.370          43.560          39.430
 21 04 28 12 46 05.0000000  0 16G03G04G07G08G09G16G26G27G31R02R03R04
                                R12R13R14R21
  24661258.252    24661260.738   129595755.1984  100983691.3404   24661258.096
  24661260.354          38.000          19.810
  20533965.725    20533966.297   107906710.9974   84083147.3554   20533965.426
  20533966.203          50.250          45.120
  24771216.827    24771216.358   130173624.2134  101433981.3994   24771216.323
  24771216.496          38.180          20.620
  24697774.179    24697777.872   129787680.5004  101133264.6984   24697773.790
  24697777.970          36.750          17.870
  21902920.941    21902923.230   115100630.7914   89688810.3684   21902920.365
  21902922.613          47.810          39.680
  20002987.268                   105116415.9974   81908896.6584   20002986.366
  20002986.199          49.310          46.370
  20933333.795    20933336.790   110005423.7084   85718524.0044   20933333.290
  20933336.634          50.250          44.500
  22415557.576    22415560.772   117794573.0714   91787990.5884   22415556.937
  22415559.825          45.430          35.810
  23662352.885    23662353.345   124346497.4164   96893373.2044   23662352.510
  23662353.001          42.620          40.810
  22518617.942    22518623.020   120163638.434    93460612.054    22518617.616
  22518622.635          46.120          42.060
  20114514.327    20114519.563   107674576.522    83746898.713    20114514.091
  20114519.518          53.560          50.370
  21345268.532    21345274.368   114302979.872    88902327.815    21345268.676
  21345274.552          49.310          46.500
  21278264.313    21278268.740   113664684.990    88405877.303    21278264.014
  21278269.156          50.370          47.000
  19542961.917    19542965.525   104358354.890    81167621.412    19542961.237
  19542965.596          43.680          46.560
  22178532.712    22178538.226   118224082.400    91952076.323    22178533.253
  22178538.445          47.430          44.560
  23267657.757    23267663.831   124509926.657    96841091.561    23267656.474
  23267662.409          43.430          39.120
 21 04 28 12 46 06.0000000  0 16G03G04G07G08G09G16G26G27G31R02R03R04
                                R12R13R14R21
  24661877.312    24661880.026   129599009.0074  100986226.7744   24661877.160
  24661879.615          38.180          19.500
  20533969.821    20533970.402   107906732.4134   84083164.0434   20533969.522
  20533970.281          50.180          45.120
  24770658.953    24770658.693   130170691.4454  101431696.1324   24770658.447
  24770658.362          38.250          21.060
  24697023.013    24697026.796   129783733.3784  101130189.0284   24697022.624
  24697026.827          36.680          17.620
  21902512.647    21902514.806   115098484.9014   89687138.2474   21902512.075
  21902514.269          47.870          39.680
  20003047.031                   105116730.2954   81909141.5654   20003046.128
  20003046.003          49.310          46.370
  20933716.718    20933719.659   110007435.4994   85720091.6334   20933716.208
  20933719.463          50.180          44.500
  22414916.573    22414919.797   117791205.2524   91785366.3154   22414915.939
  22414918.952          45.310          35.810
  23662910.876    23662911.292   124349429.2074   96895657.7124   23662910.505
  23662910.899          42.750          40.810
  22519451.346    22519456.754   120168086.846    93464071.923    22519451.207
  22519456.204          46.120          42.180
  20114834.554    20114839.678   107676290.174    83748231.558    20114834.277
  20114839.628          53.430          50.430
  21344833.551    21344839.597   114300651.367    88900516.755    21344833.815
  21344839.762          49.310          46.560
  21278773.121    21278777.490   113667402.249    88407990.722    21278772.746
  21278777.794          50.310          47.000
  19542936.084    19542939.428   104358216.311    81167513.642    19542935.234
  19542939.594          43.560          46.500
  22177995.156    22178000.697   118221216.924    91949847.621    22177995.778
  22178000.772          47.560          44.500
  23268032.689    23268038.808   124511934.110    96842652.922    23268031.491
  23268037.426          43.310          39.620
 21 04 28 12 46 07.0000000  0 16G03G04G07G08G09G16G26G27G31R02R03R04
                                R12R13R14R21
  24662496.494    24662499.333   129602262.8834  100988762.2624   24662496.347
  24662498.823          38.060          19.560
  20533974.042    20533974.610   107906754.4964   84083181.2504   20533973.743
  20533974.485          50.250          45.180
  24770101.001    24770100.469   130167758.6604  101429410.8484   24770100.497
  24770100.245          38.310          20.870
  24696272.062    24696275.925   129779786.2734  101127113.3484   24696271.674
  24696275.747          36.810          17.560
  21902104.539    21902106.516   115096339.5144   89685466.5164   21902103.968
  21902106.024          47.930          39.680
  20003106.916                   105117045.2004   81909386.9464   20003106.013
  20003105.927          49.250          46.430
  20934099.748    20934102.569   110009447.6544   85721659.5464   20934099.239
  20934102.368          50.250          44.500
  22414275.616    22414278.848   117787837.7864   91782742.3164   22414274.976
  22414278.155          45.250          35.870
  23663468.939    23663469.283   124352361.1264   96897942.3234   23663468.568
  23663468.822          42.810          40.810
  22520284.909    22520290.421   120172535.447    93467531.933    22520284.856
  22520289.844          46.120          41.680
  20115154.847    20115159.904   107678004.687    83749565.064    20115154.606
  20115159.922          53.250          50.370
  21344398.802    21344404.740   114298323.608    88898706.279    21344399.102
  21344405.094          49.310          46.500
  21279281.737    21279286.124   113670119.676    88410104.269    21279281.482
  21279286.477          50.120          46.870
  19542910.077    19542913.600   104358078.171    81167406.193    19542909.322
  19542913.761          43.560          46.370
  22177457.846    22177463.011   118218351.656    91947619.082    22177458.271
  22177463.243          47.870          44.430
  23268407.527    23268413.535   124513942.325    96844214.856    23268406.580
  23268412.671          43.310          40.060
 21 04 28 12 46 08.0000000  0 16G03G04G07G08G09G16G26G27G31R02R03R04
                                R12R13R14R21
  24663115.554    24663118.849   129605516.8244  100991297.7894   24663115.402
  24663118.058          37.750          19.680
  20533978.339    20533978.965   107906777.2164   84083198.9534   20533978.040
  20533978.804          50.250          45.180
  24769543.122    24769542.227   130164825.8824  101427125.5644   24769542.617
  24769542.124          38.500          21.000
  24695521.326    24695524.988   129775839.1514  101124037.6704   24695520.942
  24695524.648          36.620          17.930
  21901696.442    21901698.346   115094194.6404   89683795.1864   21901695.869
  21901697.876          48.000          39.750
  20003166.965                   105117360.7144   81909632.8004   20003166.062
  20003165.963          49.250          46.430
  20934482.819    20934485.559   110011460.2034   85723227.7664   20934482.309
  20934485.349          50.310          44.560
  22413634.787    22413638.091   117784470.6894   91780118.6054   22413634.153
  22413637.421          45.180          35.870
  23664026.846    23664027.226   124355293.1534   96900227.0164   23664026.475
  23664026.769          42.870          40.870
  22521118.402    22521123.940   120176984.208    93470992.079    22521118.581
  22521123.569          46.250          42.250
  20115475.306    20115480.376   107679720.049    83750899.228    20115475.069
  20115480.327          53.120          50.370
  21343964.236    21343970.081   114295996.627    88896896.404    21343964.594
  21343970.510          49.310          46.500
  21279790.393    21279795.048   113672837.267    88412217.958    21279790.259
  21279795.249          50.120          46.810
  19542884.204    19542887.549   104357940.463    81167299.080    19542883.503
  19542887.946          43.810          46.620
  22176920.567    22176925.387   118215486.613    91945390.718    22176920.893
  22176925.709          48.120          44.310
  23268782.531    23268788.690   124515951.319    96845777.428    23268781.869
  23268788.301          43.250          39.810
 21 04 28 12 46 09.0000000  0 16G03G04G07G08G09G16G26G27G31R02R03R04
                                R12R13R14R21
  24663734.655    24663738.057   129608770.8264  100993833.3674   24663734.495
  24663737.261          37.500          19.810
  20533982.722    20533983.392   107906800.5824   84083217.1604   20533982.423
  20533983.258          50.250          45.180
  24768985.099    24768984.012   130161893.0804  101424840.2634   24768984.590
  24768984.008          38.310          21.060
  24694770.228    24694773.800   129771892.0024  101120961.9674   24694769.839
  24694773.469          36.810          17.810
  21901288.491    21901290.171   115092050.2654   89682124.2454   21901287.924
  21901289.810          48.000          39.810
  20003227.135                   105117676.8284   81909879.1224   20003226.232
  20003226.120          49.310          46.430
  20934865.929    20934868.576   110013473.1284   85724796.2794   20934865.424
  20934868.397          50.310          44.560
  22412994.115    22412997.352   117781103.9444   91777495.1684   22412993.481
  22412996.758          45.180          35.870
  23664584.869    23664585.280   124358225.3074   96902511.8084   23664584.497
  23664584.743          42.930          40.870
  22521952.190    22521957.526   120181433.141    93474452.358    22521952.328
  22521957.205          46.310          42.060
  20115795.823    20115800.911   107681436.246    83752234.050    20115795.684
  20115800.924          53.000          50.370
  21343529.868    21343535.887   114293670.399    88895087.115    21343530.296
  21343536.114          49.370          46.370
  21280298.991    21280304.053   113675555.024    88414331.765    21280299.031
  21280304.062          50.060          47.000
  19542858.510    19542861.846   104357803.170    81167192.300    19542857.777
  19542862.271          43.810          46.370
  22176383.413    22176387.921   118212621.808    91943162.527    22176383.525
  22176388.225          48.250          44.310
  23269157.624    23269164.316   124517961.092    96847340.573    23269157.307
  23269163.734          43.000          39.430
 21 04 28 12 46 10.0000000  0 16G03G04G07G08G09G16G26G27G31R02R03R04
                                R12R13R14R21
  24664353.630    24664356.948   129612024.8774  100996368.9904   24664353.474
  24664356.572          37.430          20.000
  20533987.238    20533987.918   107906824.6004   84083235.8764   20533986.939
  20533987.823          50.180          45.180
  24768426.826    24768425.869   130158960.2644  101422554.9484   24768426.321
  24768425.896          38.430          21.000
  24694019.004    24694022.563   129767944.8364  101117886.2554   24694018.620
  24694022.313          36.930          17.810
  21900880.630    21900882.123   115089906.3944   89680453.6974   21900880.062
  21900881.845          48.060          39.810
  20003287.399                   105117993.5544   81910125.9224   20003286.496
  20003286.393          49.370          46.430
  20935249.152    20935251.628   110015486.4234   85726365.0794   20935248.642
  20935251.517          50.310          44.560
  22412353.596    22412356.632   117777737.5484   91774872.0044   22412352.957
  22412356.149          45.250          35.870
  23665142.981    23665143.177   124361157.5844   96904796.6984   23665142.605
  23665142.748          43.120          40.810
  22522785.928    22522791.426   120185882.272    93477912.802    22522786.192
  22522790.979          46.430          42.180
  20116116.456    20116121.602   107683153.315    83753569.549    20116116.438
  20116121.678          53.000          50.370
  21343095.650    21343101.688   114291344.934    88893278.416    21343096.115
  21343101.858          49.500          46.500
  21280807.709    21280813.102   113678272.959    88416445.719    21280807.835
  21280812.905          50.180          46.870
  19542832.866    19542836.237   104357666.311    81167085.859    19542832.119
  19542836.662          43.750          46.310
  22175846.260    22175850.253   118209757.238    91940934.530    22175846.183
  22175850.763          48.120          44.120
  23269533.267    23269539.820   124519971.604    96848904.308    23269532.990
  23269539.458          42.870          39.750
 21 04 28 12 46 11.0000000  0 16G03G04G07G08G09G16G26G27G31R02R03R04
                                R12R13R14R21
  24664972.444    24664975.771   129615278.9964  100998904.6594   24664972.289
  24664975.780          37.370          20.180
  20533991.933    20533992.626   107906849.2644   84083255.0944   20533991.634
  20533992.523          50.180          45.180
  24767868.522    24767867.757   130156027.4574  101420269.6414   24767868.012
  24767867.815          38.120          21.060
  24693267.991    24693271.594   129763997.7074  101114810.5734   24693267.598
  24693271.169          36.930          17.930
  21900472.795    21900474.185   115087763.0264   89678783.5404   21900472.228
  21900473.971          48.120          39.810
  20003347.811                   105118310.8924   81910373.1994   20003346.908
  20003346.778          49.370          46.430
  20935632.374    20935634.807   110017500.1134   85727934.1884   20935631.865
  20935634.708          50.310          44.500
  22411713.004    22411716.027   117774371.5174   91772249.1254   22411712.371
  22411715.611          45.370          35.870
  23665700.963    23665700.981   124364089.9804   96907081.6814   23665700.588
  23665700.766          42.930          40.870
  22523619.806    22523624.981   120190331.619    93481373.383    22523620.096
  22523624.753          46.620          41.930
  20116437.165    20116442.397   107684871.246    83754905.719    20116437.357
  20116442.575          53.060          50.250
  21342661.644    21342667.650   114289020.245    88891470.324    21342662.086
  21342667.788          49.620          46.310
  21281316.486    21281321.973   113680991.090    88418559.817    21281316.705
  21281321.749          50.120          46.810
  19542807.203    19542810.645   104357529.881    81166979.745    19542806.657
  19542811.115          43.810          46.620
  22175309.186    22175312.741   118206892.884    91938706.699    22175308.869
  22175313.367          47.870          44.120
  23269908.826    23269915.369   124521982.911    96850468.630    23269909.013
  23269915.467          42.810          39.930
 21 04 28 12 46 12.0000000  0 16G03G04G07G08G09G16G26G27G31R02R03R04
                                R12R13R14R21
  24665591.102    24665595.426   129618533.1864  101001440.3854   24665590.947
  24665595.041          36.810          20.120
  20533996.700    20533997.437   107906874.5784   84083274.8194   20533996.401
  20533997.343          50.120          45.180
  24767310.190    24767309.761   130153094.6324  101417984.3294   24767309.676
  24767309.761          38.180          21.060
  24692517.004    24692520.295   129760050.5664  101111734.8774   24692516.607
  24692520.085          36.430          17.680
  21900065.095    21900066.391   115085620.1664   89677113.7794   21900064.528
  21900066.195          48.000          39.810
  20003408.334                   105118628.8304   81910620.9424   20003407.431
  20003407.279          49.310          46.430
  20936015.574    20936018.078   110019514.1634   85729503.5784   20936015.061
  20936017.966          50.180          44.500
  22411072.512    22411075.485   117771005.8444   91769626.5234   22411071.877
  22411075.141          45.370          35.810
  23666259.071    23666258.910   124367022.5004   96909366.7594   23666258.696
  23666258.811          42.870          40.810
  22524453.830    22524458.702   120194781.170    93484834.154    22524454.072
  22524458.590          46.750          41.930
  20116758.161    20116763.441   107686590.009    83756242.534    20116758.469
  20116763.660          53.060          50.250
  21342227.735    21342233.746   114286696.290    88889662.799    21342228.151
  21342233.808          49.810          46.370
  21281825.236    21281830.924   113683709.399    88420674.055    21281825.571
  21281830.633          50.180          46.870
  19542781.545    19542785.265   104357393.873    81166873.955    19542781.134
  19542785.582          43.620          46.500
  22174771.997    22174775.494   118204028.739    91936479.036    22174771.554
  22174775.981          47.680          44.180
  23270284.858    23270291.370   124523995.002    96852033.597    23270285.193
  23270291.625          42.810          39.870
 21 04 28 12 46 13.0000000  0 16G03G04G07G08G09G16G26G27G31R02R03R04
                                R12R13R14R21
  24666210.292    24666215.023   129621787.4144  101003976.1474   24666210.137
  24666214.290          37.060          20.000
  20534001.570    20534002.334   107906900.5344   84083295.0444   20534001.271
  20534002.285          50.000          45.180
  24766751.810    24766752.114   130150161.8034  101415699.0034   24766751.296
  24766751.684          38.250          21.180
  24691765.691    24691769.259   129756103.4614  101108659.2174   24691765.302
  24691768.990          36.620          17.370
  21899657.484    21899658.584   115083477.7984   89675444.4024   21899656.917
  21899658.521          48.000          39.810
  20003468.996                   105118947.3734   81910869.1574   20003468.093
  20003467.892          49.310          46.430
  20936398.904    20936401.345   110021528.6064   85731073.2734   20936398.390
  20936401.301          50.120          44.500
  22410432.215    22410434.943   117767640.5304   91767004.2014   22410431.582
  22410434.746          45.370          35.810
  23666816.950    23666816.830   124369955.1474   96911651.9384   23666816.576
  23666816.888          42.870          40.870
  22525287.913    22525292.239   120199230.944    93488295.090    22525288.038
  22525292.539          46.870          41.930
  20117079.362    20117084.629   107688309.606    83757580.000    20117079.738
  20117084.906          53.060          50.310
  21341793.836    21341799.851   114284373.081    88887855.861    21341794.413
  21341799.967          49.870          46.430
  21282334.107    21282339.808   113686427.859    88422788.418    21282334.451
  21282339.562          50.180          46.810
  19542756.043    19542760.157   104357258.283    81166768.506    19542755.699
  19542760.210          43.620          46.620
  22174234.615    22174238.304   118201164.821    91934251.539    22174234.307
  22174238.743          47.620          44.180
  23270661.431    23270667.769   124526007.873    96853599.144    23270661.391
  23270667.831          42.810          40.120
 21 04 28 12 46 14.0000000  0 16G03G04G07G08G09G16G26G27G31R02R03R04
                                R12R13R14R21
  24666829.433    24666834.043   129625041.7104  101006511.9634   24666829.287
  24666833.498          36.810          20.000
  20534006.631    20534007.391   107906927.1424   84083315.7774   20534006.332
  20534007.356          49.930          45.120
  24766193.729    24766193.755   130147228.9624  101413413.6734   24766193.215
  24766193.581          38.000          21.250
  24691014.476    24691018.272   129752156.3174  101105583.5124   24691014.079
  24691017.839          37.000          17.560
  21899249.990    21899251.076   115081335.9324   89673775.4164   21899249.423
  21899250.946          47.930          39.810
  20003529.788                   105119266.5234   81911117.8464   20003528.890
  20003528.621          49.310          46.430
  20936782.239    20936784.707   110023543.4234   85732643.2584   20936781.724
  20936784.698          50.060          44.430
  22409792.009    22409794.544   117764275.5664   91764382.1524   22409791.375
  22409794.405          45.430          35.810
  23667375.108    23667374.771   124372887.9094   96913937.2064   23667374.732
  23667374.977          42.620          40.870
  22526122.090    22526126.174   120203680.948    93491756.200    22526122.027
  22526126.559          47.000          41.810
  20117400.612    20117405.986   107690030.058    83758918.132    20117401.127
  20117406.304          53.060          50.370
  21341360.258    21341366.166   114282050.621    88886049.505    21341360.759
  21341366.300          49.930          46.500
  21282843.036    21282848.790   113689146.494    88424902.908    21282843.326
  21282848.464          50.120          46.810
  19542730.626    19542734.726   104357123.131    81166663.384    19542730.314
  19542734.870          43.560          46.620
  22173697.256    22173701.214   118198301.100    91932024.200    22173697.059
  22173701.522          47.560          44.180
  23271037.736    23271044.418   124528021.513    96855165.328    23271037.767
  23271044.266          42.810          40.180
 21 04 28 12 46 15.0000000  0 16G03G04G07G08G09G16G26G27G31R02R03R04
                                R12R13R14R21
  24667448.740    24667453.206   129628296.0444  101009047.8054   24667448.593
  24667452.750          37.000          20.180
  20534011.841    20534012.614   107906954.4004   84083337.0174   20534011.542
  20534012.538          50.000          45.120
  24765635.514    24765636.050   130144296.1224  101411128.3444   24765635.005
  24765635.451          38.310          21.310
  24690263.047    24690267.241   129748209.1724  101102507.8204   24690262.645
  24690266.718          36.810          17.680
  21898842.482    21898843.658   115079194.5924   89672106.8394   21898841.915
  21898843.469          48.000          39.870
  20003590.700                   105119586.2844   81911367.0114   20003589.797
  20003589.466          49.310          46.430
  20937165.640    20937168.112   110025558.6194   85734213.5404   20937165.126
  20937168.170          50.000          44.430
  22409151.869    22409154.265   117760910.9654   91761760.3844   22409151.235
  22409154.136          45.500          35.870
  23667933.188    23667933.112   124375820.8024   96916222.5754   23667932.813
  23667933.081          42.680          40.810
  22526956.244    22526959.823   120208131.156    93495217.472    22526956.087
  22526960.628          47.180          42.000
  20117722.171    20117727.456   107691751.392    83760256.945    20117722.676
  20117727.912          53.120          50.310
  21340926.945    21340932.722   114279728.942    88884243.756    21340927.240
  21340932.700          50.060          46.370
  21283351.987    21283357.755   113691865.287    88427017.525    21283352.282
  21283357.455          49.930          46.750
  19542705.420    19542709.529   104356988.403    81166558.585    19542705.026
  19542709.663          43.500          46.750
  22173159.977    22173164.064   118195437.605    91929797.032    22173159.838
  22173164.275          47.500          44.120
  23271414.153    23271420.719   124530035.916    96856732.079    23271414.215
  23271420.759          42.810          39.750
 21 04 28 12 46 16.0000000  0 16G03G04G07G08G09G16G26G27G31R02R03R04
                                R12R13R14R21
  24668067.957    24668072.620   129631550.4714  101011583.7274   24668067.810
  24668071.994          37.120          19.810
  20534017.113    20534017.909   107906982.2994   84083358.7564   20534016.814
  20534017.850          49.930          45.060
  24765077.465    24765078.175   130141363.2784  101408843.0054   24765076.955
  24765077.330          38.180          21.310
  24689512.109    24689516.097   129744262.0114  101099432.1114   24689511.707
  24689515.584          36.810          18.000
  21898435.113    21898436.328   115077053.7524   89670438.6534   21898434.546
  21898436.087          48.060          39.870
  20003651.725                   105119906.6444   81911616.6424   20003650.822
  20003650.428          49.310          46.370
  20937549.135    20937551.693   110027574.1904   85735784.1134   20937548.621
  20937551.719          50.000          44.430
  22408511.685    22408514.010   117757546.7164   91759138.8914   22408511.055
  22408513.934          45.560          35.930
  23668491.301    23668491.318   124378753.8054   96918508.0334   23668490.925
  23668491.206          42.500          40.810
  22527790.523    22527793.593   120212581.565    93498678.910    22527790.211
  22527794.697          47.180          41.810
  20118043.989    20118049.162   107693473.608    83761596.449    20118044.419
  20118049.641          53.310          50.500
  21340493.573    21340499.306   114277408.041    88882438.606    21340493.828
  21340499.306          50.060          46.500
  21283860.880    21283866.634   113694584.259    88429132.280    21283861.273
  21283866.482          49.750          46.870
  19542680.504    19542684.394   104356854.093    81166454.123    19542679.869
  19542684.537          43.560          46.500
  22172622.640    22172626.973   118192574.339    91927570.053    22172622.702
  22172627.045          47.500          44.180
  23271790.627    23271796.948   124532051.071    96858299.432    23271790.779
  23271797.359          42.680          40.310
 21 04 28 12 46 17.0000000  0 16G03G04G07G08G09G16G26G27G31R02R03R04
                                R12R13R14R21
  24668687.325    24668692.253   129634804.9434  101014119.6804   24668687.179
  24668691.336          37.180          20.000
  20534022.640    20534023.360   107907010.8534   84083381.0074   20534022.341
  20534023.288          50.000          45.120
  24764519.460    24764520.497   130138430.4084  101406557.6434   24764518.954
  24764519.178          38.060          21.060
  24688761.029    24688764.959   129740314.8334  101096356.4044   24688760.627
  24688764.454          36.870          17.930
  21898027.860    21898029.142   115074913.4124   89668770.8564   21898027.292
  21898028.794          48.120          39.810
  20003712.794                   105120227.6134   81911866.7494   20003711.891
  20003711.510          49.310          46.370
  20937932.720    20937935.322   110029590.1444   85737354.9864   20937932.206
  20937935.340          50.060          44.430
  22407871.559    22407873.825   117754182.8224   91756517.6744   22407870.929
  22407873.807          45.620          35.930
  23669049.417    23669049.577   124381686.9344   96920793.5864   23669049.042
  23669049.359          42.430          40.680
  22528624.638    22528627.738   120217032.181    93502140.485    22528624.325
  22528628.722          47.310          42.180
  20118365.991    20118371.155   107695196.677    83762936.612    20118366.286
  20118371.526          53.500          50.430
  21340060.304    21340066.042   114275087.884    88880634.040    21340060.532
  21340066.006          49.930          46.560
  21284369.773    21284375.635   113697303.410    88431247.176    21284370.229
  21284375.447          49.500          46.870
  19542655.418    19542659.089   104356720.210    81166349.991    19542654.828
  19542659.554          43.560          46.560
  22172085.321    22172089.994   118189711.320    91925343.252    22172085.585
  22172089.896          47.370          43.810
  23272167.277    23272173.217   124534067.034    96859867.397    23272167.612
  23272174.156          42.560          39.680
 21 04 28 12 46 18.0000000  0 16G03G04G07G08G09G16G26G27G31R02R03R04
                                R12R13R14R21
  24669306.466    24669311.604   129638059.4594  101016655.6644   24669306.323
  24669310.638          37.370          20.120
  20534028.221    20534028.931   107907040.0504   84083403.7584   20534027.921
  20534028.846          50.000          45.060
  24763961.141    24763962.170   130135497.5364  101404272.2904   24763960.637
  24763961.048          37.870          21.120
  24688009.935    24688013.454   129736367.6444  101093280.6664   24688009.533
  24688013.297          36.680          18.120
  21897620.660    21897622.131   115072773.5774   89667103.4524   21897620.093
  21897621.599          48.120          39.870
  20003774.001                   105120549.1844   81912117.3234   20003773.098
  20003772.695          49.250          46.370
  20938316.233    20938318.978   110031606.4714   85738926.1504   20938315.719
  20938319.032          50.000          44.430
  22407231.522    22407233.914   117750819.2974   91753896.7454   22407230.892
  22407233.753          45.750          36.000
  23669607.444    23669607.538   124384620.1804   96923079.2324   23669607.069
  23669607.533          42.500          40.680
  22529458.917    22529461.996   120221482.981    93505602.228    22529458.394
  22529462.706          47.370          42.060
  20118688.207    20118693.295   107696920.572    83764277.419    20118688.323
  20118693.590          53.500          50.500
  21339627.169    21339633.023   114272768.478    88878830.053    21339627.344
  21339632.987          49.750          46.560
  21284878.644    21284884.496   113700022.735    88433362.210    21284879.252
  21284884.537          49.370          46.810
  19542630.475    19542634.160   104356586.748    81166246.194    19542629.836
  19542634.607          43.750          46.500
  22171547.966    22171553.207   118186848.533    91923116.654    22171548.539
  22171552.854          47.120          44.120
  23272543.944    23272550.018   124536083.797    96861436.009    23272544.494
  23272551.011          42.180          39.810
 21 04 28 12 46 19.0000000  0 16G03G04G07G08G09G16G26G27G31R02R03R04
                                R12R13R14R21
  24669925.893    24669930.848   129641314.0434  101019191.7014   24669925.750
  24669929.895          37.500          19.810
  20534033.922    20534034.592   107907069.9004   84083427.0184   20534033.623
  20534034.525          50.000          45.060
  24763403.124    24763404.281   130132564.6554  101401986.9394   24763402.614
  24763402.900          38.180          21.120
  24687258.693    24687262.270   129732420.4814  101090204.9554   24687258.291
  24687262.199          36.680          17.870
  21897213.573    21897215.102   115070634.2504   89665436.4424   21897213.005
  21897214.502          48.120          39.870
  20003835.276                   105120871.3704   81912368.3764   20003834.373
  20003834.006          49.250          46.310
  20938699.925    20938702.742   110033623.1814   85740497.6124   20938699.411
  20938702.796          50.000          44.370
  22406591.490    22406594.029   117747456.1184   91751276.0874   22406590.860
  22406593.757          45.810          36.060
  23670165.610    23670165.860   124387553.5524   96925364.9754   23670165.235
  23670165.730          42.250          40.680
  22530293.121    22530296.083   120225933.971    93509064.094    22530292.544
  22530296.848          47.370          41.810
  20119010.531    20119015.569   107698645.294    83765618.862    20119010.490
  20119015.820          53.430          50.430
  21339194.222    21339199.929   114270449.823    88877026.652    21339194.262
  21339200.054          49.620          46.620
  21285387.402    21285393.412   113702742.223    88435477.361    21285388.332
  21285393.667          49.370          46.810
  19542605.569    19542609.431   104356453.723    81166142.733    19542604.862
  19542609.754          43.750          46.560
  22171010.629    22171016.330   118183985.971    91920890.206    22171011.478
  22171015.928          46.870          44.060
  23272920.947    23272926.685   124538101.338    96863005.200    23272921.568
  23272927.875          42.120          39.870
 21 04 28 12 46 20.0000000  0 16G03G04G07G08G09G16G26G27G31R02R03R04
                                R12R13R14R21
  24670545.642    24670549.868   129644568.6864  101021727.7844   24670545.504
  24670549.296          37.680          20.000
  20534039.695    20534040.387   107907100.3964   84083450.7814   20534039.395
  20534040.338          50.180          45.060
  24762845.105    24762846.165   130129631.7814  101399701.5824   24762844.596
  24762844.800          38.310          21.000
  24686507.541    24686511.445   129728473.3504  101087129.2644   24686507.144
  24686511.172          37.060          17.930
  21896806.548    21896808.242   115068495.4234   89663769.8244   21896805.980
  21896807.504          48.250          39.870
  20003896.649                   105121194.1554   81912619.8984   20003895.746
  20003895.428          49.430          46.310
  20939083.707    20939086.532   110035640.2704   85742069.3694   20939083.192
  20939086.631          50.120          44.310
  22405951.636    22405954.055   117744093.3014   91748655.7114   22405951.006
  22405953.831          46.000          36.000
  23670723.695    23670724.191   124390487.0474   96927650.8134   23670723.320
  23670723.941          42.250          40.620
  22531127.284    22531130.430   120230385.143    93512526.123    22531126.721
  22531131.078          47.370          41.930
  20119332.970    20119338.112   107700370.853    83766960.965    20119332.858
  20119338.197          53.310          50.560
  21338761.535    21338767.160   114268131.932    88875223.850    21338761.378
  21338767.241          49.430          46.750
  21285896.380    21285902.533   113705461.868    88437592.649    21285897.391
  21285902.859          49.370          46.810
  19542580.863    19542584.686   104356321.117    81166039.585    19542580.054
  19542584.950          43.810          46.680
  22170473.319    22170479.293   118181123.603    91918663.924    22170474.387
  22170479.012          46.680          43.930
  23273297.708    23273303.665   124540119.618    96864574.974    23273298.731
  23273304.980          42.180          40.000
 21 04 28 12 46 21.0000000  0 16G03G04G07G08G09G16G26G27G31R02R03R04
                                R12R13R14R21
  24671165.181    24671169.089   129647823.3984  101024263.9154   24671165.043
  24671168.620          37.810          19.810
  20534045.597    20534046.335   107907131.5414   84083475.0504   20534045.293
  20534046.263          50.180          45.060
  24762286.805    24762287.721   130126698.8964  101397416.2124   24762286.296
  24762286.729          38.180          21.000
  24685756.170    24685760.288   129724526.1914  101084053.5694   24685755.768
  24685760.096          37.000          17.870
  21896399.527    21896401.396   115066357.1124   89662103.6074   21896398.960
  21896400.613          48.180          39.870
  20003958.143                   105121517.5544   81912871.8964   20003957.240
  20003956.975          49.430          46.370
  20939467.555    20939470.475   110037657.7354   85743641.4194   20939467.041
  20939470.542          50.120          44.370
  22405311.769    22405314.296   117740730.8414   91746035.6124   22405311.139
  22405313.978          46.000          36.060
  23671281.843    23671282.147   124393420.6594   96929936.7414   23671281.468
  23671282.183          42.120          40.560
  22531961.403    22531964.767   120234836.521    93515988.306    22531960.898
  22531965.362          47.370          41.810
  20119655.603    20119660.721   107702097.293    83768303.750    20119655.343
  20119660.780          53.250          50.500
  21338328.811    21338334.423   114265814.802    88873421.638    21338328.677
  21338334.554          49.310          46.560
  21286405.461    21286411.685   113708181.698    88439708.068    21286406.566
  21286412.115          49.560          46.930
  19542555.978    19542560.297   104356188.943    81165936.786    19542555.419
  19542560.168          43.870          46.500
  22169936.272    22169941.974   118178261.438    91916437.798    22169937.305
  22169942.171          46.560          44.250
  23273674.844    23273680.883   124542138.657    96866145.344    23273675.801
  23273682.251          42.310          39.750
 21 04 28 12 46 22.0000000  0 16G03G04G07G08G09G16G26G27G31R02R03R04
                                R12R13R14R21
  24671784.841    24671788.476   129651078.1384  101026800.0784   24671784.703
  24671787.962          37.870          20.060
  20534051.594    20534052.434   107907163.3334   84083499.8214   20534051.295
  20534052.318          50.180          45.060
  24761728.519    24761729.484   130123765.9834  101395130.8274   24761728.014
  24761728.616          38.430          20.930
  24685005.421    24685009.288   129720579.0274  101080977.8584   24685005.015
  24685008.970          37.310          17.870
  21895992.605    21895994.563   115064219.2904   89660437.7704   21895992.033
  21895993.812          48.120          39.930
  20004019.753                   105121841.5514   81913124.3604   20004018.849
  20004018.639          49.500          46.310
  20939851.534    20939854.390   110039675.5754   85745213.7624   20939851.019
  20939854.520          50.120          44.370
  22404672.005    22404674.478   117737368.7384   91743415.7924   22404671.375
  22404674.187          46.000          36.120
  23671840.049    23671840.442   124396354.3954   96932222.7674   23671839.674
  23671840.451          42.120          40.560
  22532795.548    22532799.078   120239288.106    93519450.654    22532795.021
  22532799.575          47.250          41.750
  20119978.261    20119983.506   107703824.629    83769647.234    20119978.033
  20119983.448          53.120          50.500
  21337896.173    21337901.741   114263498.439    88871620.031    21337896.039
  21337902.035          49.120          46.810
  21286914.689    21286920.927   113710901.715    88441823.638    21286915.713
  21286921.384          49.680          46.870
  19542531.478    19542535.708   104356057.193    81165834.320    19542530.794
  19542535.551          43.870          46.430
  22169399.226    22169404.856   118175399.480    91914211.826    22169400.349
  22169405.348          46.500          44.120
  23274052.302    23274058.220   124544158.487    96867716.316    23274053.206
  23274059.495          42.620          39.810
 21 04 28 12 46 23.0000000  0 16G03G04G07G08G09G16G26G27G31R02R03R04
                                R12R13R14R21
  24672404.218    24672407.567   129654332.9654  101029336.3064   24672404.076
  24672407.514          37.500          20.120
  20534057.742    20534058.614   107907195.7754   84083525.1014   20534057.443
  20534058.497          50.180          45.060
  24761170.500    24761171.296   130120833.0814  101392845.4544   24761169.996
  24761170.563          38.310          21.370
  24684254.143    24684257.881   129716631.8514  101077902.1374   24684253.741
  24684257.868          37.060          18.250
  21895585.821    21895587.967   115062081.9854   89658772.3364   21895585.255
  21895587.114          48.060          39.930
  20004081.524                   105122166.1634   81913377.3054   20004080.620
  20004080.419          49.430          46.310
  20940235.574    20940238.400   110041693.8034   85746786.4064   20940235.056
  20940238.570          50.060          44.370
  22404032.291    22404034.781   117734006.9954   91740796.2514   22404031.665
  22404034.486          46.000          36.120
  23672398.300    23672398.742   124399288.2464   96934508.8814   23672397.929
  23672398.733          42.180          40.560
  22533629.631    22533633.483   120243739.919    93522913.169    22533629.242
  22533633.720          47.120          41.870
  20120300.996    20120306.370   107705552.831    83770991.394    20120300.866
  20120306.299          53.120          50.560
  21337463.494    21337469.249   114261182.848    88869819.013    21337463.535
  21337469.616          49.120          46.750
  21287424.222    21287430.213   113713621.922    88443939.345    21287424.897
  21287430.598          49.930          47.060
  19542506.782    19542510.868   104355925.865    81165732.170    19542506.218
  19542510.975          43.810          46.560
  22168862.372    22168867.939   118172537.764    91911986.058    22168863.392
  22168868.458          46.680          44.120
  23274430.463    23274435.978   124546179.103    96869287.893    23274430.727
  23274437.025          43.060          39.560
 21 04 28 12 46 24.0000000  0 16G03G04G07G08G09G16G26G27G31R02R03R04
                                R12R13R14R21
  24673023.842    24673026.824   129657587.8414  101031872.5714   24673023.700
  24673026.923          37.810          20.180
  20534063.984    20534064.856   107907228.8634   84083550.8844   20534063.686
  20534064.802          50.120          45.120
  24760612.442    24760612.777   130117900.1504  101390560.0524   24760611.928
  24760612.478          38.310          21.500
  24683503.147    24683507.127   129712684.7014  101074826.4354   24683502.746
  24683506.778          37.060          18.560
  21895179.029    21895181.287   115059945.1784   89657107.2924   21895178.462
  21895180.496          48.060          40.000
  20004143.447                   105122491.3694   81913630.7104   20004142.549
  20004142.301          49.430          46.370
  20940619.669    20940622.557   110043712.4124   85748359.3464   20940619.154
  20940622.696          50.060          44.430
  22403392.661    22403395.214   117730645.6154   91738176.9944   22403392.035
  22403394.838          45.930          36.180
  23672956.739    23672957.270   124402222.2344   96936795.1034   23672956.368
  23672957.056          42.310          40.620
  22534463.718    22534467.870   120248191.962    93526375.855    22534463.508
  22534467.892          47.180          41.560
  20120623.847    20120629.338   107707281.871    83772336.197    20120623.843
  20120629.297          53.060          50.560
  21337031.151    21337036.821   114258868.000    88868018.576    21337031.218
  21337037.309          49.000          46.870
  21287933.696    21287939.487   113716342.296    88446055.193    21287934.157
  21287939.889          50.060          47.060
  19542482.308    19542486.243   104355794.967    81165630.358    19542481.727
  19542486.457          43.930          46.430
  22168325.697    22168331.054   118169676.304    91909760.469    22168326.493
  22168331.698          46.870          44.120
  23274808.812    23274813.844   124548200.497    96870860.106    23274808.441
  23274814.693          43.310          40.060
 21 04 28 12 46 25.0000000  0 16G03G04G07G08G09G16G26G27G31R02R03R04
                                R12R13R14R21
  24673643.305    24673645.952   129660842.7714  101034408.8754   24673643.162
  24673646.301          37.750          20.120
  20534070.410    20534071.232   107907262.6014   84083577.1724   20534070.111
  20534071.224          50.180          45.180
  24760054.531    24760054.893   130114967.2204  101388274.6544   24760054.017
  24760054.369          38.310          21.310
  24682751.978    24682756.668   129708737.5364  101071750.7184   24682751.572
  24682755.671          37.430          18.750
  21894772.434    21894774.754   115057808.8824   89655442.6454   21894771.861
  21894773.989          48.060          40.060
  20004205.446                   105122817.1904   81913884.5964   20004204.543
  20004204.301          49.430          46.370
  20941003.933    20941006.799   110045731.3864   85749932.5724   20941003.419
  20941006.888          50.120          44.370
  22402753.049    22402755.704   117727284.5854   91735558.0114   22402752.423
  22402755.267          45.930          36.180
  23673515.128    23673515.705   124405156.3334   96939081.4124   23673514.757
  23673515.382          42.430          40.620
  22535297.909    22535302.529   120252644.222    93529838.739    22535297.783
  22535302.127          47.060          41.810
  20120946.918    20120952.426   107709011.732    83773681.646    20120946.993
  20120952.466          53.180          50.500
  21336598.705    21336604.684   114256553.907    88866218.731    21336599.107
  21336605.162          49.060          46.810
  21288443.359    21288448.823   113719062.823    88448171.153    21288443.448
  21288449.216          50.180          47.060
  19542458.023    19542462.105   104355664.484    81165528.867    19542457.388
  19542461.988          43.750          46.500
  22167789.165    22167794.370   118166815.066    91907535.063    22167789.724
  22167794.911          47.000          44.120
  23275186.977    23275192.152   124550222.654    96872432.870    23275186.427
  23275192.545          43.430          39.500
 21 04 28 12 46 26.0000000  0 16G03G04G07G08G09G16G26G27G31R02R03R04
                                R12R13R14R21
  24674262.535    24674265.325   129664097.7724  101036945.2434   24674262.389
  24674265.764          37.620          20.310
  20534076.997    20534077.748   107907296.9874   84083603.9674   20534076.698
  20534077.761          50.120          45.180
  24759496.441    24759496.866   130112034.3074  101385989.2684   24759495.927
  24759496.284          38.310          21.370
  24682000.821    24682005.395   129704790.3534  101068674.9924   24682000.415
  24682004.461          37.250          18.680
  21894365.976    21894368.364   115055673.0894   89653778.3904   21894365.409
  21894367.581          47.930          40.120
  20004267.534                   105123143.6144   81914138.9524   20004266.636
  20004266.420          49.370          46.430
  20941388.291    20941391.095   110047750.7474   85751506.0994   20941387.778
  20941391.153          50.120          44.500
  22402113.575    22402116.379   117723923.9294   91732939.3184   22402112.946
  22402115.766          45.870          36.310
  23674073.611    23674074.138   124408090.5414   96941367.8064   23674073.241
  23674073.718          42.430          40.680
  22536132.134    22536136.862   120257096.697    93533301.765    22536132.126
  22536136.407          46.870          41.620
  20121270.229    20121275.706   107710742.440    83775027.748    20121270.319
  20121275.787          53.310          50.430
  21336166.635    21336172.573   114254240.590    88864419.481    21336167.099
  21336173.177          49.180          46.750
  21288952.962    21288958.185   113721783.501    88450287.235    21288952.766
  21288958.587          50.180          47.060
  19542433.671    19542437.878   104355534.431    81165427.714    19542433.062
  19542437.569          43.680          46.680
  22167252.709    22167257.722   118163954.052    91905309.826    22167253.026
  22167258.249          47.060          44.120
  23275565.432    23275570.433   124552245.585    96874006.277    23275564.512
  23275570.603          43.620          39.500
 21 04 28 12 46 27.0000000  0 16G03G04G07G08G09G16G26G27G31R02R03R04
                                R12R13R14R21
  24674881.904    24674884.484   129667352.8384  101039481.6554   24674881.752
  24674885.204          37.500          20.180
  20534083.696    20534084.379   107907332.0194   84083631.2644   20534083.396
  20534084.428          50.180          45.180
  24758938.544    24758939.285   130109101.3484  101383703.8534   24758938.030
  24758938.203          38.430          21.430
  24681249.816    24681254.028   129700843.1844  101065599.2824   24681249.406
  24681253.272          37.120          18.620
  21893959.604    21893961.987   115053537.8084   89652114.5354   21893959.037
  21893961.263          48.000          40.120
  20004329.779                   105123470.6454   81914393.7814   20004328.876
  20004328.661          49.310          46.430
  20941772.721    20941775.462   110049770.4754   85753079.9134   20941772.207
  20941775.494          50.250          44.500
  22401474.174    22401477.013   117720563.6194   91730320.8944   22401473.544
  22401476.329          45.870          36.310
  23674632.144    23674632.506   124411024.8784   96943654.3014   23674631.778
  23674632.085          42.620          40.750
  22536966.584    22536971.344   120261549.365    93536764.942    22536966.383
  22536970.820          46.750          41.620
  20121593.787    20121599.116   107712474.015    83776374.531    20121593.809
  20121599.219          53.370          50.430
  21335734.742    21335740.703   114251928.036    88862620.832    21335735.221
  21335741.357          49.370          46.680
  21289462.557    21289467.597   113724504.346    88452403.437    21289462.164
  21289467.977          50.250          47.060
  19542409.380    19542413.342   104355404.802    81165326.891    19542408.737
  19542413.306          43.680          46.620
  22166716.351    22166721.337   118161093.245    91903084.750    22166716.369
  22166721.615          47.250          43.930
  23275943.754    23275949.148   124554269.306    96875580.256    23275942.730
  23275948.858          43.430          39.310
 21 04 28 12 46 28.0000000  0 16G03G04G07G08G09G16G26G27G31R02R03R04
                                R12R13R14R21
  24675501.077    24675503.777   129670607.9314  101042018.0984   24675500.925
  24675504.663          37.560          20.120
  20534090.537    20534091.118   107907367.6974   84083659.0654   20534090.238
  20534091.221          50.180          45.180
  24758380.194    24758381.187   130106168.3994  101381418.4324   24758379.681
  24758380.136          38.430          21.430
  24680498.771    24680503.046   129696896.0024  101062523.5554   24680498.360
  24680502.156          37.060          18.620
  21893553.380    21893555.566   115051403.0214   89650451.0654   21893552.812
  21893555.043          48.060          40.120
  20004392.029                   105123798.2784   81914649.0794   20004391.125
  20004391.013          49.370          46.500
  20942157.174    20942159.928   110051790.5894   85754654.0274   20942156.659
  20942159.901          50.250          44.500
  22400834.714    22400837.665   117717203.6744   91727702.7554   22400834.084
  22400836.954          45.750          36.310
  23675190.690    23675190.926   124413959.3494   96945940.9014   23675190.324
  23675190.479          42.680          40.750
  22537800.837    22537805.337   120266002.215    93540228.275    22537800.702
  22537805.225          46.560          41.930
  20121917.532    20121922.701   107714206.456    83777721.984    20121917.483
  20121922.857          53.370          50.430
  21335303.187    21335309.049   114249616.238    88860822.768    21335303.499
  21335309.671          49.620          46.680
  21289972.148    21289976.932   113727225.386    88454519.802    21289971.665
  21289977.326          50.180          46.870
  19542384.836    19542389.043   104355275.597    81165226.402    19542384.469
  19542389.141          43.680          46.560
  22166180.065    22166184.747   118158232.648    91900859.852    22166179.868
  22166185.064          47.370          44.060
  23276322.072    23276327.882   124556293.791    96877154.868    23276321.248
  23276327.166          43.250          39.560
 21 04 28 12 46 29.0000000  0 16G03G04G07G08G09G16G26G27G31R02R03R04
                                R12R13R14R21
  24676120.387    24676123.280   129673863.1204  101044554.6004   24676120.235
  24676124.103          37.500          20.000
  20534097.464    20534098.058   107907404.0274   84083687.3744   20534097.159
  20534098.129          50.310          45.180
  24757822.105    24757823.173   130103235.4544  101379133.0214   24757821.591
  24757822.096          38.560          21.560
  24679747.673    24679751.961   129692948.8294  101059447.8404   24679747.262
  24679751.027          37.430          18.620
  21893147.173    21893149.427   115049268.7374   89648787.9844   21893146.606
  21893148.912          47.870          40.120
  20004454.408                   105124126.5104   81914904.8454   20004453.505
  20004453.473          49.370          46.430
  20942541.737    20942544.357   110053811.0714   85756228.4284   20942541.224
  20942544.384          50.180          44.500
  22400195.402    22400198.419   117713844.0664   91725084.8794   22400194.771
  22400197.646          45.750          36.310
  23675749.110    23675749.182   124416893.9224   96948227.5814   23675748.745
  23675748.904          42.810          40.750
  22538635.125    22538639.845   120270455.236    93543691.730    22538635.058
  22538639.760          46.560          41.430
  20122241.417    20122246.491   107715939.735    83779070.085    20122241.269
  20122246.603          53.310          50.310
  21334871.715    21334877.475   114247305.204    88859025.296    21334871.907
  21334878.079          49.750          46.680
  21290481.707    21290486.282   113729946.625    88456636.318    21290481.216
  21290486.715          50.250          46.930
  19542360.600    19542365.017   104355146.821    81165126.238    19542360.260
  19542365.031          43.620          46.680
  22165643.850    22165648.067   118155372.275    91898635.113    22165643.367
  22165648.403          47.560          44.250
  23276700.644    23276706.740   124558319.062    96878730.082    23276699.838
  23276705.729          43.060          39.430
 21 04 28 12 46 30.0000000  0 16G03G04G07G08G09G16G26G27G31R02R03R04
                                R12R13R14R21
  24676739.944    24676743.177   129677118.3214  101047091.1064   24676739.797
  24676743.463          37.680          19.810
  20534104.555    20534105.074   107907441.0044   84083716.1894   20534104.257
  20534105.168          50.310          45.180
  24757263.984    24757265.396   130100302.4854  101376847.5934   24757263.470
  24757263.997          38.500          21.430
  24678996.659    24679000.961   129689001.6404  101056372.1034   24678996.245
  24678999.892          37.120          18.680
  21892741.118    21892743.362   115047134.9644   89647125.3044   21892740.555
  21892742.884          47.930          40.180
  20004516.948                   105124455.3574   81915161.0894   20004516.050
  20004516.053          49.310          46.430
  20942926.315    20942928.828   110055831.9384   85757803.1304   20942925.801
  20942928.944          50.180          44.500
  22399556.008    22399559.174   117710484.8384   91722467.2984   22399555.382
  22399558.405          45.680          36.310
  23676307.612    23676307.535   124419828.6244   96950514.3624   23676307.246
  23676307.339          42.870          40.750
  22539469.476    22539474.424   120274908.431    93547155.322    22539469.449
  22539474.276          46.370          41.620
  20122565.426    20122570.505   107717673.854    83780418.843    20122565.216
  20122570.558          53.120          50.310
  21334440.414    21334446.097   114244994.933    88857228.414    21334440.525
  21334446.620          49.810          46.870
  21290991.239    21290995.868   113732668.036    88458752.974    21290990.793
  21290996.150          50.310          47.060
  19542336.636    19542340.951   104355018.447    81165026.407    19542336.256
  19542340.996          43.560          46.750
  22165107.443    22165111.879   118152512.131    91896410.560    22165106.911
  22165111.736          47.620          44.120
  23277078.884    23277085.419   124560345.096    96880305.878    23277078.549
  23277084.293          42.750          39.810
 21 04 28 12 46 31.0000000  0 16G03G04G07G08G09G16G26G27G31R02R03R04
                                R12R13R14R21
  24677359.590    24677363.395   129680373.6134  101049627.6984   24677359.434
  24677362.980          37.750          19.810
  20534111.715    20534112.295   107907478.6294   84083745.5074   20534111.415
  20534112.331          50.310          45.180
  24756706.010    24756707.445   130097369.4984  101374562.1474   24756705.496
  24756705.943          38.560          21.430
  24678245.423    24678249.890   129685054.4584  101053296.3844   24678245.007
  24678248.821          37.620          18.620
  21892335.283    21892337.277   115045001.7004   89645463.0214   21892334.720
  21892336.951          48.060          40.180
  20004579.663                   105124784.8054   81915417.8014   20004578.760
  20004578.754          49.370          46.430
  20943310.995    20943313.374   110057853.1904   85759378.1324   20943310.481
  20943313.570          50.120          44.500
  22398916.777    22398920.045   117707125.9634   91719849.9944   22398916.151
  22398919.236          45.810          36.250
  23676866.184    23676865.643   124422763.4424   96952801.2344   23676865.818
  23676865.809          42.930          40.750
  22540303.715    22540308.815   120279361.790    93550619.051    22540303.961
  22540308.927          46.310          41.620
  20122889.582    20122894.648   107719408.826    83781768.270    20122889.305
  20122894.626          53.060          50.370
  21334009.179    21334015.047   114242685.409    88855432.124    21334009.314
  21334015.355          49.750          46.750
  21291500.566    21291505.346   113735389.582    88460869.737    21291500.365
  21291505.588          50.180          47.000
  19542312.436    19542316.764   104354890.516    81164926.900    19542312.342
  19542317.037          43.620          46.500
  22164571.197    22164575.445   118149652.199    91894186.168    22164570.433
  22164575.070          47.680          43.810
  23277457.456    23277464.313   124562371.883    96881882.268    23277457.448
  23277463.115          42.430          39.750
 21 04 28 12 46 32.0000000  0 16G03G04G07G08G09G16G26G27G31R02R03R04
                                R12R13R14R21
  24677979.062    24677983.117   129683628.9814  101052164.3464   24677978.906
  24677982.429          37.810          19.620
  20534118.990    20534119.598   107907516.9094   84083775.3354   20534118.691
  20534119.616          50.310          45.180
  24756148.126    24756149.150   130094436.5164  101372276.7094   24756147.612
  24756147.835          38.370          21.620
  24677494.119    24677498.666   129681107.3004  101050220.6834   24677493.694
  24677497.718          37.370          18.560
  21891929.461    21891931.419   115042868.9504   89643801.1394   21891928.897
  21891931.124          48.120          40.180
  20004642.574                   105125114.8604   81915674.9874   20004641.671
  20004641.563          49.430          46.500
  20943695.680    20943698.050   110059874.8064   85760953.4174   20943695.166
  20943698.269          50.120          44.500
  22398277.630    22398280.912   117703767.4414   91717232.9664   22398277.004
  22398280.129          45.750          36.250
  23677424.668    23677424.211   124425698.3774   96955088.1954   23677424.305
  23677424.296          42.810          40.750
  22541138.107    22541143.323   120283815.338    93554082.911    22541138.500
  22541143.591          46.310          42.120
  20123213.780    20123218.886   107721144.692    83783118.386    20123213.570
  20123218.908          53.060          50.310
  21333578.115    21333584.080   114240376.644    88853636.419    21333578.195
  21333584.241          49.750          46.810
  21292009.898    21292014.990   113738111.303    88462986.623    21292009.907
  21292015.125          50.060          47.000
  19542288.589    19542293.073   104354763.015    81164827.731    19542288.522
  19542293.185          43.620          46.620
  22164034.652    22164038.954   118146792.471    91891961.935    22164034.035
  22164038.498          47.620          43.930
  23277836.020    23277843.154   124564399.428    96883459.258    23277836.337
  23277842.040          42.500          39.870
 21 04 28 12 46 33.0000000  0 16G03G04G07G08G09G16G26G27G31R02R03R04
                                R12R13R14R21
  24678598.865    24678602.849   129686884.3614  101054701.0084   24678598.712
  24678601.905          37.680          19.620
  20534126.363    20534127.025   107907555.8294   84083805.6634   20534126.065
  20534127.021          50.120          45.180
  24755590.233    24755591.046   130091503.5264  101369991.2714   24755589.719
  24755589.696          38.120          21.620
  24676743.082    24676747.742   129677160.1314  101047144.9674   24676742.659
  24676746.597          37.180          18.870
  21891523.826    21891525.570   115040736.7004   89642139.6464   21891523.268
  21891525.377          48.060          40.180
  20004705.534                   105125445.5204   81915932.6444   20004704.636
  20004704.483          49.310          46.430
  20944080.423    20944082.815   110061896.8044   85762529.0014   20944079.909
  20944083.038          50.000          44.500
  22397638.568    22397641.658   117700409.2904   91714616.2254   22397637.942
  22397641.085          45.680          36.250
  23677983.290    23677982.757   124428633.4384   96957375.2554   23677982.927
  23677982.802          43.000          40.750
  22541972.655    22541977.732   120288269.083    93557546.942    22541973.165
  22541978.242          46.370          41.500
  20123538.160    20123543.328   107722881.426    83784469.175    20123538.017
  20123543.337          53.180          50.310
  21333147.176    21333153.074   114238068.635    88851841.301    21333147.211
  21333153.306          49.870          46.750
  21292519.234    21292524.604   113740833.209    88465103.665    21292519.488
  21292524.711          49.930          46.750
  19542265.019    19542269.203   104354635.925    81164728.889    19542264.665
  19542269.356          43.560          46.430
  22163498.205    22163502.645   118143932.967    91889737.876    22163497.650
  22163501.988          47.680          43.930
  23278214.793    23278222.414   124566427.774    96885036.850    23278215.437
  23278221.158          42.560          39.810
 21 04 28 12 46 34.0000000  0 16G03G04G07G08G09G16G26G27G31R02R03R04
                                R12R13R14R21
  24679218.448    24679222.302   129690139.8324  101057237.7394   24679218.296
  24679221.480          37.870          19.500
  20534133.925    20534134.649   107907595.4014   84083836.4984   20534133.626
  20534134.551          50.060          45.180
  24755032.219    24755032.934   130088570.5304  101367705.8144   24755031.705
  24755031.624          38.180          21.560
  24675992.154    24675996.732   129673212.9344  101044069.2404   24675991.725
  24675995.516          37.500          18.750
  21891118.286    21891119.989   115038604.9574   89640478.5494   21891117.728
  21891119.726          48.180          40.250
  20004768.606                   105125776.7974   81916190.7814   20004767.703
  20004767.524          49.310          46.430
  20944465.215    20944467.679   110063919.1784   85764104.8764   20944464.701
  20944467.893          49.930          44.430
  22396999.622    22397002.582   117697051.4984   91711999.7644   22396998.996
  22397002.103          45.750          36.180
  23678541.813    23678541.097   124431568.6264   96959662.4134   23678541.451
  23678541.334          43.000          40.750
  22542807.283    22542812.584   120292723.058    93561011.142    22542807.846
  22542812.955          46.430          41.870
  20123862.737    20123867.942   107724618.985    83785820.612    20123862.661
  20123867.919          53.370          50.310
  21332716.285    21332722.403   114235761.387    88850046.775    21332716.402
  21332722.493          49.810          46.750
  21293028.770    21293034.261   113743555.302    88467220.841    21293029.030
  21293034.293          49.870          46.930
  19542241.476    19542245.410   104354509.264    81164630.365    19542240.944
  19542245.620          43.560          46.370
  22162961.664    22162966.078   118141073.704    91887514.013    22162961.306
  22162965.505          47.680          44.000
  23278593.620    23278601.518   124568456.908    96886615.065    23278594.648
  23278600.383          42.500          40.000
 21 04 28 12 46 35.0000000  0 16G03G04G07G08G09G16G26G27G31R02R03R04
                                R12R13R14R21
  24679838.068    24679841.684   129693395.3324  101059774.4894   24679837.916
  24679841.023          37.810          19.560
  20534141.527    20534142.349   107907635.6224   84083867.8394   20534141.223
  20534142.206          50.060          45.180
  24754474.214    24754475.001   130085637.5354  101365420.3664   24754473.691
  24754473.530          37.870          21.180
  24675241.328    24675245.581   129669265.7224  101040993.4964   24675240.900
  24675244.365          37.430          18.680
  21890712.853    21890714.520   115036473.7214   89638817.8444   21890712.295
  21890714.176          48.250          40.250
  20004831.759                   105126108.6734   81916449.3864   20004830.856
  20004830.677          49.310          46.500
  20944850.114    20944852.627   110065941.9334   85765681.0494   20944849.605
  20944852.815          49.930          44.430
  22396360.757    22396363.529   117693694.0544   91709383.5754   22396360.131
  22396363.189          45.810          36.250
  23679100.466    23679099.907   124434503.9294   96961949.6624   23679100.104
  23679099.889          43.060          40.750
  22543642.144    22543647.261   120297177.269    93564475.519    22543642.645
  22543647.758          46.500          41.810
  20124187.471    20124192.604   107726357.355    83787172.681    20124187.422
  20124192.649          53.370          50.250
  21332285.431    21332291.692   114233454.920    88848252.852    21332285.767
  21332291.795          49.810          46.680
  21293538.151    21293543.892   113746277.535    88469338.132    21293538.651
  21293543.896          49.870          46.930
  19542218.036    19542221.617   104354383.024    81164532.181    19542217.212
  19542221.925          43.500          46.560
  22162425.351    22162429.635   118138214.687    91885290.328    22162425.015
  22162429.138          47.870          43.680
  23278972.773    23278980.676   124570486.783    96888193.863    23278973.770
  23278979.683          42.680          40.000
 21 04 28 12 46 36.0000000  0 16G03G04G07G08G09G16G26G27G31R02R03R04
                                R12R13R14R21
  24680457.343    24680461.063   129696650.8864  101062311.2864   24680457.191
  24680460.553          37.750          19.620
  20534149.312    20534150.139   107907676.4884   84083899.6834   20534149.013
  20534149.973          50.000          45.180
  24753916.022    24753917.211   130082704.5124  101363134.8934   24753915.499
  24753915.458          37.870          21.250
  24674489.989    24674494.281   129665318.5524  101037917.7734   24674489.560
  24674493.203          37.310          18.430
  21890307.469    21890309.056   115034342.9854   89637157.5314   21890306.911
  21890308.716          48.310          40.310
  20004895.050                   105126441.1574   81916708.4644   20004894.147
  20004893.955          49.370          46.430
  20945235.085    20945237.598   110067965.0614   85767257.5124   20945234.571
  20945237.799          49.930          44.430
  22395721.995    22395724.673   117690336.9814   91706767.6754   22395721.369
  22395724.351          45.870          36.180
  23679659.142    23679658.552   124437439.3604   96964237.0114   23679658.785
  23679658.466          43.060          40.750
  22544477.197    22544482.359   120301631.710    93567940.090    22544477.510
  22544482.525          46.680          41.930
  20124512.464    20124517.378   107728096.552    83788525.389    20124512.352
  20124517.525          53.430          50.310
  21331854.868    21331861.106   114231149.237    88846459.543    21331855.244
  21331861.258          49.620          46.810
  21294047.607    21294053.532   113748999.924    88471455.555    21294048.287
  21294053.487          49.870          46.870
  19542194.680    19542198.167   104354257.202    81164434.316    19542193.495
  19542198.306          43.680          46.500
  22161889.141    22161893.313   118135355.909    91883066.838    22161888.765
  22161892.825          48.000          44.000
  23279352.571    23279360.120   124572517.437    96889773.257    23279353.152
  23279359.266          42.680          40.060
 21 04 28 12 46 37.0000000  0 16G03G04G07G08G09G16G26G27G31R02R03R04
                                R12R13R14R21
  24681077.038    24681080.373   129699906.5294  101064848.1544   24681076.882
  24681080.065          38.000          19.430
  20534157.204    20534158.071   107907718.0064   84083932.0364   20534156.905
  20534157.875          50.060          45.180
  24753357.646    24753359.081   130079771.4944  101360849.4424   24753357.119
  24753357.453          37.620          21.430
  24673739.172    24673742.914   129661371.3844  101034842.0794   24673738.739
  24673742.073          37.180          18.560
  21889902.237    21889903.650   115032212.7674   89635497.6214   21889901.679
  21889903.364          48.370          40.310
  20004958.467                   105126774.2504   81916968.0174   20004957.569
  20004957.344          49.370          46.430
  20945620.119    20945622.730   110069988.5744   85768834.2754   20945619.605
  20945622.868          50.060          44.430
  22395083.344    22395085.897   117686980.2654   91704152.0534   22395082.718
  22395085.580          46.000          36.250
  23680217.826    23680216.909   124440374.9074   96966524.4494   23680217.469
  23680217.066          42.930          40.680
  22545312.255    22545317.162   120306086.395    93571404.834    22545312.415
  22545317.368          46.810          42.000
  20124837.529    20124842.429   107729836.635    83789878.787    20124837.435
  20124842.550          53.370          50.250
  21331424.344    21331430.779   114228844.310    88844666.821    21331424.944
  21331430.896          49.560          46.750
  21294557.234    21294563.279   113751722.506    88473573.114    21294558.025
  21294563.100          50.060          46.930
  19542171.361    19542174.674   104354131.800    81164336.783    19542170.037
  19542174.785          43.500          46.500
  22161353.006    22161357.067   118132497.345    91880843.509    22161352.537
  22161356.499          48.060          43.560
  23279732.618    23279739.770   124574548.874    96891353.266    23279732.694
  23279738.916          42.680          39.930
 21 04 28 12 46 38.0000000  0 16G03G04G07G08G09G16G26G27G31R02R03R04
                                R12R13R14R21
  24681696.603    24681699.519   129703162.2104  101067385.0574   24681696.444
  24681699.519          37.810          19.310
  20534165.191    20534166.062   107907760.1734   84083964.8924   20534164.892
  20534165.906          50.000          45.180
  24752799.113    24752800.553   130076838.4604  101358563.9584   24752798.577
  24752799.413          37.620          21.250
  24672987.608    24672991.833   129657424.2104  101031766.3524   24672987.179
  24672991.002          37.500          18.810
  21889497.041    21889498.454   115030083.0334   89633838.0874   21889496.483
  21889498.105          48.370          40.310
  20005022.044                   105127107.9454   81917228.0384   20005021.146
  20005020.846          49.370          46.430
  20946005.219    20946007.902   110072012.4584   85770411.3264   20946004.705
  20946008.010          50.000          44.430
  22394444.739    22394447.264   117683623.9084   91701536.7094   22394444.117
  22394446.858          45.930          36.250
  23680776.605    23680775.759   124443310.5724   96968811.9794   23680776.248
  23680775.688          42.870          40.680
  22546147.464    22546151.781   120310541.295    93574869.749    22546147.397
  22546152.220          46.870          41.870
  20125162.714    20125167.628   107731577.626    83791232.893    20125162.679
  20125167.789          53.250          50.310
  21330994.022    21331000.507   114226540.122    88842874.669    21330994.666
  21331000.614          49.500          46.680
  21295066.985    21295072.896   113754445.245    88475690.801    21295067.754
  21295072.753          50.250          46.810
  19542147.880    19542151.511   104354006.809    81164239.567    19542146.628
  19542151.349          43.680          46.750
  22160816.899    22160820.767   118129638.980    91878620.348    22160816.372
  22160820.186          48.060          43.750
  23280112.201    23280119.469   124576581.096    96892933.891    23280112.375
  23280118.655          42.680          39.810
 21 04 28 12 46 39.0000000  0 16G03G04G07G08G09G16G26G27G31R02R03R04
                                R12R13R14R21
  24682316.093    24682319.120   129706417.9474  101069921.9894   24682315.928
  24682318.995          37.500          19.120
  20534173.239    20534174.133   107907802.9904   84083998.2554   20534172.941
  20534174.053          50.000          45.120
  24752240.759    24752242.401   130073905.4324  101356278.4764   24752240.219
  24752241.314          37.250          21.250
  24672236.501    24672240.780   129653477.0234  101028690.6114   24672236.068
  24672239.877          37.560          18.810
  21889091.867    21889093.320   115027953.8264   89632178.9634   21889091.309
  21889092.944          48.500          40.310
  20005085.716                   105127442.2434   81917488.5314   20005084.813
  20005084.468          49.430          46.430
  20946390.450    20946393.186   110074036.7234   85771988.6754   20946389.936
  20946393.222          50.060          44.370
  22393806.092    22393808.573   117680267.9194   91698921.6534   22393805.472
  22393808.212          45.870          36.250
  23681335.209    23681334.386   124446246.3674   96971099.6084   23681334.852
  23681334.323          42.930          40.680
  22546982.669    22546986.758   120314996.410    93578334.836    22546982.428
  22546987.058          47.060          42.120
  20125488.061    20125493.028   107733319.471    83792587.662    20125488.105
  20125493.166          53.180          50.310
  21330563.803    21330570.332   114224236.675    88841083.100    21330564.523
  21330570.435          49.500          46.620
  21295576.688    21295582.491   113757168.169    88477808.637    21295577.537
  21295582.496          50.560          46.750
  19542124.484    19542127.851   104353882.231    81164142.679    19542123.322
  19542128.034          43.750          46.500
  22160280.769    22160284.459   118126780.833    91876397.338    22160280.184
  22160284.034          48.000          43.870
  23280492.164    23280498.868   124578614.077    96894515.089    23280492.114
  23280498.501          42.500          39.810
 21 04 28 12 46 40.0000000  0 16G03G04G07G08G09G16G26G27G31R02R03R04
                                R12R13R14R21
  24682935.422    24682938.641   129709673.7394  101072458.9674   24682935.262
  24682938.520          37.310          18.810
  20534181.521    20534182.393   107907846.4474   84084032.1174   20534181.222
  20534182.321          49.930          45.060
  24751682.299    24751684.114   130070972.3814  101353992.9834   24751681.754
  24751683.175          36.810          21.120
  24671485.393    24671489.659   129649529.8404  101025614.8804   24671484.961
  24671488.761          37.500          18.810
  21888686.806    21888688.321   115025825.1254   89630520.2354   21888686.248
  21888687.883          48.430          40.370
  20005149.383                   105127777.1524   81917749.4994   20005148.485
  20005148.197          49.370          46.370
  20946775.796    20946778.528   110076061.3574   85773566.3104   20946775.282
  20946778.501          50.000          44.370
  22393167.549    22393169.968   117676912.2774   91696306.8684   22393166.928
  22393169.646          45.810          36.250
  23681893.929    23681893.008   124449182.2784   96973387.3284   23681893.567
  23681892.994          42.930          40.680
  22547817.843    22547821.807   120319451.709    93581800.068    22547817.494
  22547822.026          47.180          42.060
  20125813.581    20125818.539   107735062.132    83793943.059    20125813.657
  20125818.727          53.180          50.250
  21330134.022    21330140.345   114221934.010    88839292.136    21330134.536
  21330140.358          49.620          46.680
  21296086.681    21296092.104   113759891.273    88479926.604    21296087.396
  21296092.180          50.680          46.870
  19542101.250    19542104.755   104353758.082    81164046.114    19542100.159
  19542104.796          43.560          46.500
  22159744.389    22159748.208   118123922.927    91874174.508    22159744.045
  22159748.007          47.750          43.930
  23280872.251    23280878.943   124580647.812    96896096.874    23280872.202
  23280878.638          42.310          40.180
 21 04 28 12 46 41.0000000  0 16G03G04G07G08G09G16G26G27G31R02R03R04
                                R12R13R14R21
  24683554.822    24683558.260   129712929.5824  101074995.9874   24683554.662
  24683558.091          37.370          18.810
  20534189.825    20534190.719   107907890.5614   84084066.4904   20534189.526
  20534190.714          50.060          45.120
  24751124.088    24751125.867   130068039.3644  101351707.5204   24751123.543
  24751125.112          37.310          20.930
  24670734.380    24670738.628   129645582.6464  101022539.1474   24670733.947
  24670737.680          37.870          18.560
  21888281.730    21888283.389   115023696.9194   89628861.8924   21888281.172
  21888282.919          48.370          40.370
  20005213.189                   105128112.6614   81918010.9344   20005212.286
  20005212.048          49.370          46.370
  20947161.219    20947163.883   110078086.3744   85775144.2444   20947160.705
  20947163.852          50.060          44.370
  22392529.032    22392531.451   117673557.0014   91693692.3694   22392528.407
  22392531.143          45.750          36.180
  23682452.743    23682451.719   124452118.3294   96975675.1584   23682452.382
  23682451.692          42.930          40.620
  22548653.076    22548656.865   120323907.172    93585265.431    22548652.530
  22548656.945          47.370          42.120
  20126139.308    20126144.208   107736805.617    83795299.104    20126139.370
  20126144.413          53.250          50.310
  21329704.250    21329710.529   114219632.129    88837501.785    21329704.733
  21329710.462          49.680          46.620
  21296596.741    21296601.775   113762614.564    88482044.724    21296597.273
  21296601.932          50.870          46.810
  19542077.890    19542081.588   104353634.338    81163949.872    19542076.982
  19542081.574          43.750          46.430
  22159208.040    22159211.801   118121065.256    91871951.876    22159207.947
  22159211.981          47.500          44.060
  23281252.004    23281258.941   124582682.319    96897679.270    23281252.411
  23281258.767          42.370          40.000
 21 04 28 12 46 42.0000000  0 16G03G04G07G08G09G16G26G27G31R02R03R04
                                R12R13R14R21
  24684173.977    24684178.139   129716185.4934  101077533.0564   24684173.816
  24684177.629          37.120          18.750
  20534198.352    20534199.210   107907935.3194   84084101.3664   20534198.057
  20534199.237          50.000          45.060
  24750565.971    24750567.809   130065106.3024  101349422.0214   24750565.422
  24750567.071          37.310          20.870
  24669982.902    24669987.525   129641635.4454  101019463.4164   24669982.459
  24669986.595          37.750          18.810
  21887876.749    21887878.501   115021569.2234   89627203.9474   21887876.191
  21887878.045          48.430          40.310
  20005277.056                   105128448.7764   81918272.8414   20005276.159
  20005276.010          49.310          46.370
  20947546.606    20947549.364   110080111.7654   85776722.4704   20947546.092
  20947549.275          50.060          44.310
  22391890.588    22391892.993   117670202.0864   91691078.1494   22391889.962
  22391892.716          45.750          36.180
  23683011.383    23683010.605   124455054.4724   96977963.0604   23683011.021
  23683010.417          43.000          40.560
  22549488.352    22549492.061   120328362.790    93588730.905    22549487.556
  22549491.980          47.370          41.750
  20126465.123    20126470.068   107738549.953    83796655.813    20126465.218
  20126470.292          53.310          50.250
  21329274.598    21329280.738   114217331.011    88835712.028    21329275.112
  21329280.645          49.620          46.620
  21297106.859    21297111.504   113765337.997    88484162.950    21297107.127
  21297111.715          50.810          46.870
  19542054.781    19542058.376   104353511.017    81163853.958    19542053.811
  19542058.447          43.680          46.370
  22158671.660    22158675.623   118118207.794    91869729.407    22158671.879
  22158675.962          47.250          43.870
  23281632.078    23281638.962   124584717.629    96899262.289    23281632.620
  23281638.975          42.310          40.180
 21 04 28 12 46 43.0000000  0 16G03G04G07G08G09G16G26G27G31R02R03R04
                                R12R13R14R21
  24684793.238    24684797.825   129719441.4484  101080070.1694   24684793.082
  24684797.213          36.930          18.930
  20534207.009    20534207.912   107907980.7254   84084136.7474   20534206.714
  20534207.876          50.060          45.120
  24750007.805    24750009.218   130062173.2394  101347136.5114   24750007.260
  24750009.044          37.310          20.930
  24669231.776    24669236.543   129637688.2694  101016387.6974   24669231.334
  24669235.496          37.500          18.930
  21887471.897    21887473.743   115019442.0434   89625546.4044   21887471.343
  21887473.269          48.310          40.430
  20005341.108                   105128785.4964   81918535.2224   20005340.210
  20005340.084          49.250          46.430
  20947932.019    20947934.827   110082137.5294   85778300.9864   20947931.505
  20947934.769          50.000          44.370
  22391252.067    22391254.799   117666847.5324   91688464.2124   22391251.446
  22391254.356          45.750          36.180
  23683570.090    23683569.272   124457990.7444   96980251.0624   23683569.728
  23683569.169          43.120          40.560
  22550323.705    22550327.217   120332818.549    93592196.488    22550322.703
  22550326.989          47.500          42.060
  20126791.266    20126796.032   107740295.154    83798013.188    20126791.167
  20126796.358          53.250          50.250
  21328845.085    21328851.083   114215030.647    88833922.850    21328845.577
  21328850.975          49.560          46.500
  21297617.031    21297621.354   113768061.582    88486281.290    21297616.973
  21297621.520          50.750          46.750
  19542031.739    19542035.342   104353388.130    81163758.372    19542030.849
  19542035.432          43.750          46.430
  22158135.213    22158139.404   118115350.537    91867507.097    22158135.906
  22158139.896          47.180          44.000
  23282012.837    23282019.519   124586753.741    96900845.937    23282013.177
  23282019.578          42.500          40.000
 21 04 28 12 46 44.0000000  0 16G03G04G07G08G09G16G26G27G31R02R03R04
                                R12R13R14R21
  24685412.799    24685417.642   129722697.4784  101082607.3264   24685412.643
  24685416.827          36.750          19.000
  20534215.827    20534216.757   107908026.7764   84084172.6314   20534215.528
  20534216.641          50.180          45.120
  24749449.483    24749451.312   130059240.1934  101344851.0194   24749448.938
  24749450.941          37.310          20.870
  24668480.924    24668485.247   129633741.0744  101013311.9584   24668480.481
  24668484.389          37.620          19.000
  21887067.152    21887069.137   115017315.3644   89623889.2524   21887066.594
  21887068.587          48.430          40.430
  20005405.258                   105129122.8194   81918798.0714   20005404.360
  20005404.274          49.370          46.430
  20948317.589    20948320.424   110084163.6734   85779879.7994   20948317.075
  20948320.339          50.120          44.370
  22390613.792    22390616.653   117663493.3324   91685850.5534   22390613.171
  22390616.090          45.930          36.250
  23684128.953    23684128.282   124460927.1374   96982539.1574   23684128.588
  23684127.938          43.250          40.620
  22551158.910    22551161.922   120337274.469    93595662.207    22551157.850
  22551161.984          47.620          42.000
  20127117.345    20127122.362   107742041.218    83799371.237    20127117.323
  20127122.541          53.250          50.370
  21328415.743    21328421.511   114212731.052    88832134.287    21328416.047
  21328421.507          49.430          46.430
  21298127.028    21298131.200   113770785.345    88488399.766    21298126.831
  21298131.441          50.430          46.750
  19542008.741    19542012.474   104353265.667    81163663.115    19542007.954
  19542012.470          43.680          46.250
  22157598.851    22157603.403   118112493.498    91865284.959    22157599.907
  22157603.958          47.250          43.810
  23282393.922    23282399.603   124588790.596    96902430.162    23282393.882
  23282400.372          42.870          39.870
 21 04 28 12 46 45.0000000  0 16G03G04G07G08G09G16G26G27G31R02R03R04
                                R12R13R14R21
  24686032.177    24686037.243   129725953.5404  101085144.5184   24686032.021
  24686036.483          36.870          19.180
  20534224.752    20534225.651   107908073.4784   84084209.0224   20534224.458
  20534225.526          50.180          45.120
  24748891.273    24748893.379   130056307.1314  101342565.5194   24748890.728
  24748892.793          37.310          20.870
  24667729.490    24667734.185   129629793.8934  101010236.2504   24667729.043
  24667733.215          37.680          19.000
  21886662.466    21886664.491   115015189.1964   89622232.4984   21886661.908
  21886664.004          48.560          40.430
  20005469.573                   105129460.7504   81919061.3944   20005468.675
  20005468.585          49.370          46.430
  20948703.177    20948706.039   110086190.1974   85781458.9094   20948702.668
  20948705.981          50.060          44.370
  22389975.633    22389978.606   117660139.4944   91683237.1744   22389975.012
  22389977.882          45.930          36.310
  23684687.732    23684687.347   124463863.6504   96984827.3494   23684687.366
  23684686.739          43.310          40.680
  22551994.102    22551996.840   120341730.580    93599128.064    22551993.051
  22551997.135          47.620          42.000
  20127443.676    20127448.736   107743788.123    83800729.940    20127443.662
  20127448.880          53.250          50.310
  21327986.557    21327992.026   114210432.213    88830346.297    21327986.713
  21327992.191          49.370          46.500
  21298636.869    21298641.063   113773509.300    88490518.389    21298636.672
  21298641.358          50.250          46.750
  19541985.851    19541989.786   104353143.630    81163568.199    19541985.126
  19541989.673          43.750          46.430
  22157062.686    22157067.185   118109636.694    91863063.004    22157063.978
  22157068.110          47.500          43.750
  23282775.128    23282780.326   124590828.214    96904014.962    23282774.690
  23282781.104          43.060          39.810
 21 04 28 12 46 46.0000000  0 16G03G04G07G08G09G16G26G27G31R02R03R04
                                R12R13R14R21
  24686651.698    24686657.417   129729209.6814  101087681.7724   24686651.546
  24686656.134          36.930          19.060
  20534233.772    20534234.693   107908120.8394   84084245.9284   20534233.473
  20534234.541          50.250          45.250
  24748333.264    24748335.517   130053374.0214  101340279.9814   24748332.719
  24748334.667          36.870          20.930
  24666978.342    24666983.086   129625846.6994  101007160.5194   24666977.895
  24666982.138          37.870          19.060
  21886257.968    21886259.984   115013063.5334   89620576.1374   21886257.414
  21886259.528          48.560          40.560
  20005533.996                   105129799.2834   81919325.1864   20005533.093
  20005533.007          49.430          46.500
  20949088.810    20949091.711   110088217.0884   85783038.3044   20949088.296
  20949091.689          50.060          44.430
  22389337.488    22389340.596   117656786.0234   91680624.0804   22389336.867
  22389339.741          46.060          36.370
  23685246.475    23685246.300   124466800.2894   96987115.6394   23685246.108
  23685245.553          43.310          40.810
  22552829.329    22552832.251   120346186.911    93602594.099    22552828.198
  22552832.336          47.560          42.060
  20127770.184    20127775.178   107745535.888    83802089.310    20127770.064
  20127775.411          53.250          50.310
  21327557.281    21327562.755   114208134.107    88828558.886    21327557.419
  21327562.996          49.310          46.500
  21299146.768    21299151.182   113776233.428    88492637.165    21299146.616
  21299151.361          50.120          46.870
  19541962.844    19541966.725   104353022.021    81163473.620    19541962.411
  19541966.958          43.680          46.310
  22156526.726    22156531.368   118106780.125    91860841.228    22156528.143
  22156532.213          47.620          44.000
  23283156.535    23283161.446   124592866.599    96905600.383    23283155.650
  23283162.176          43.000          40.060
 21 04 28 12 46 47.0000000  0 16G03G04G07G08G09G16G26G27G31R02R03R04
                                R12R13R14R21
  24687271.255    24687276.803   129732465.8544  101090219.0464   24687271.103
  24687275.802          37.250          19.180
  20534242.925    20534243.819   107908168.8354   84084283.3274   20534242.627
  20534243.676          50.310          45.250
  24747775.071    24747777.472   130050440.9574  101337994.4854   24747774.526
  24747776.533          36.870          21.060
  24666227.033    24666231.711   129621899.5354  101004084.8104   24666226.587
  24666231.062          37.930          19.430
  21885853.576    21885855.611   115010938.3744   89618920.1704   21885853.023
  21885855.137          48.680          40.560
  20005598.589                   105130138.4224   81919589.4504   20005597.691
  20005597.546          49.560          46.500
  20949474.532    20949477.416   110090244.3684   85784618.0014   20949474.018
  20949477.470          50.120          44.430
  22388699.441    22388702.517   117653432.9134   91678011.2694   22388698.815
  22388701.663          46.060          36.370
  23685805.217    23685805.328   124469737.0404   96989404.0174   23685804.851
  23685804.390          43.250          40.750
  22553664.517    22553667.260   120350643.472    93606060.313    22553663.354
  22553667.398          47.680          42.120
  20128096.859    20128101.849   107747284.520    83803449.360    20128096.684
  20128102.085          53.180          50.250
  21327128.104    21327133.644   114205836.760    88826772.064    21327128.255
  21327133.939          49.250          46.430
  21299656.659    21299661.327   113778957.735    88494756.061    21299656.583
  21299661.470          50.060          46.750
  19541940.227    19541944.157   104352900.837    81163379.362    19541939.717
  19541944.282          43.560          46.430
  22155990.918    22155995.462   118103923.780    91858619.620    22155992.327
  22155996.352          47.870          43.810
  23283537.821    23283542.201   124594905.776    96907186.403    23283536.788
  23283543.359          42.750          40.060
 21 04 28 12 46 48.0000000  0 16G03G04G07G08G09G16G26G27G31R02R03R04
                                R12R13R14R21
  24687891.097    24687896.347   129735722.0994  101092756.3784   24687890.954
  24687895.470          37.180          19.180
  20534252.303    20534253.071   107908217.4884   84084321.2384   20534252.003
  20534252.937          50.250          45.180
  24747216.833    24747219.382   130047507.8604  101335708.9624   24747216.283
  24747218.430          37.310          20.870
  24665475.926    24665480.384   129617952.3434  101001009.0794   24665475.479
  24665479.937          37.930          19.560
  21885449.373    21885451.340   115008813.7164   89617264.5944   21885448.823
  21885450.844          48.810          40.560
  20005663.293                   105130478.1634   81919854.1844   20005662.390
  20005662.197          49.560          46.500
  20949860.236    20949863.299   110092272.0144   85786197.9854   20949859.723
  20949863.322          50.000          44.370
  22388061.421    22388064.493   117650080.1654   91675398.7394   22388060.800
  22388063.647          46.180          36.370
  23686364.005    23686364.483   124472673.9244   96991692.4964   23686363.639
  23686363.266          43.000          40.750
  22554499.619    22554502.487   120355100.253    93609526.692    22554498.541
  22554502.733          47.560          42.000
  20128423.681    20128428.697   107749034.005    83804810.070    20128423.506
  20128428.898          53.180          50.370
  21326699.029    21326704.869   114203540.206    88824985.855    21326699.244
  21326704.972          49.250          46.500
  21300166.567    21300171.387   113781682.220    88496875.102    21300166.638
  21300171.503          50.060          46.750
  19541917.556    19541921.638   104352780.079    81163285.444    19541917.247
  19541921.656          43.680          46.120
  22155455.339    22155459.703   118101067.636    91856398.177    22155456.546
  22155460.575          48.060          44.000
  23283918.938    23283923.201   124596945.685    96908773.000    23283918.075
  23283924.498          42.680          39.870
 21 04 28 12 46 49.0000000  0 16G03G04G07G08G09G16G26G27G31R02R03R04
                                R12R13R14R21
  24688511.142    24688515.975   129738978.3874  101095293.7364   24688511.003
  24688515.188          37.250          19.000
  20534261.720    20534262.475   107908266.7864   84084359.6514   20534261.421
  20534262.318          50.310          45.180
  24746658.766    24746661.623   130044574.7614  101333423.4314   24746658.216
  24746660.313          37.000          20.930
  24664724.922    24664729.800   129614005.1824  100997933.3694   24664724.475
  24664728.834          38.000          19.500
  21885045.277    21885047.101   115006689.5864   89615609.4274   21885044.723
  21885046.649          48.680          40.560
  20005728.082                   105130818.5104   81920119.3904   20005727.184
  20005726.969          49.430          46.500
  20950246.133    20950249.174   110094300.0474   85787778.2704   20950245.619
  20950249.245          50.000          44.430
  22387423.509    22387426.531   117646727.7784   91672786.4884   22387422.883
  22387425.717          46.120          36.370
  23686922.801    23686923.628   124475610.9064   96993981.0544   23686922.430
  23686922.152          42.810          40.750
  22555334.748    22555337.746   120359557.278    93612993.261    22555333.720
  22555338.046          47.560          42.310
  20128750.587    20128755.787   107750784.330    83806171.430    20128750.458
  20128755.850          53.180          50.250
  21326269.896    21326276.040   114201244.429    88823200.251    21326270.393
  21326276.098          49.120          46.430
  21300676.407    21300681.608   113784406.878    88498994.278    21300676.805
  21300681.617          50.180          46.750
  19541894.912    19541898.989   104352659.754    81163191.856    19541894.674
  19541899.150          43.620          46.560
  22154919.782    22154923.967   118098211.705    91854176.903    22154920.778
  22154924.790          48.180          43.930
  23284299.951    23284304.630   124598986.375    96910360.204    23284299.393
  23284305.914          42.560          39.750
 21 04 28 12 46 50.0000000  0 16G03G04G07G08G09G16G26G27G31R02R03R04
                                R12R13R14R21
  24689131.356    24689135.232   129742234.7544  101097831.1694   24689131.213
  24689134.875          37.310          19.180
  20534271.249    20534271.946   107908316.7334   84084398.5704   20534270.950
  20534271.816          50.310          45.180
  24746100.538    24746103.108   130041641.6364  101331137.8804   24746099.988
  24746102.236          37.180          20.930
  24663973.788    24663979.032   129610057.9794  100994857.6284   24663973.340
  24663977.745          37.560          19.680
  21884641.266    21884642.911   115004565.9554   89613954.6504   21884640.712
  21884642.553          48.750          40.560
  20005793.015                   105131159.4594   81920385.0634   20005792.112
  20005791.856          49.500          46.500
  20950632.137    20950635.151   110096328.4474   85789358.8424   20950631.628
  20950635.235          50.060          44.370
  22386785.538    22386788.592   117643375.7474   91670174.5154   22386784.912
  22386787.858          45.870          36.370
  23687481.718    23687482.536   124478548.0284   96996269.7214   23687481.347
  23687481.083          42.680          40.680
  22556169.864    22556172.942   120364014.529    93616460.010    22556168.947
  22556173.278          47.370          42.060
  20129077.664    20129082.931   107752535.496    83807533.449    20129077.544
  20129082.989          53.060          50.250
  21325841.014    21325847.351   114198949.392    88821415.226    21325841.671
  21325847.445          49.060          46.370
  21301186.405    21301191.864   113787131.679    88501113.578    21301186.942
  21301191.717          50.180          46.620
  19541872.392    19541876.569   104352539.844    81163098.591    19541872.214
  19541876.676          43.500          46.370
  22154384.331    22154388.468   118095356.004    91851955.798    22154385.073
  22154389.036          48.250          43.870
  23284680.889    23284686.422   124601027.855    96911948.017    23284680.768
  23284687.410          42.750          39.680
 21 04 28 12 46 51.0000000  0 16G03G04G07G08G09G16G26G27G31R02R03R04
                                R12R13R14R21
  24689751.225    24689754.574   129745491.1544  101100368.6174   24689751.087
  24689754.592          37.560          18.680
  20534280.849    20534281.582   107908367.3294   84084437.9964   20534280.550
  20534281.448          50.250          45.120
  24745542.233    24745544.755   130038708.5254  101328852.3344   24745541.683
  24745544.178          37.310          20.750
  24663222.617    24663227.898   129606110.7764  100991781.8834   24663222.161
  24663226.628          37.810          19.500
  21884237.286    21884238.909   115002442.8214   89612300.2604   21884236.732
  21884238.551          48.810          40.560
  20005858.028                   105131501.0154   81920651.2114   20005857.125
  20005856.847          49.500          46.430
  20951018.284    20951021.168   110098357.2254   85790939.7074   20951017.775
  20951021.297          50.120          44.370
  22386147.549    22386150.638   117640024.0814   91667562.8274   22386146.928
  22386150.066          45.750          36.310
  23688040.697    23688041.444   124481485.2764   96998558.4844   23688040.332
  23688040.044          42.500          40.680
  22557005.029    22557008.367   120368471.982    93619926.916    22557004.210
  22557008.680          47.250          42.120
  20129404.925    20129410.174   107754287.508    83808896.123    20129404.817
  20129410.272          53.060          50.250
  21325412.511    21325418.897   114196655.127    88819630.798    21325413.129
  21325419.014          49.000          46.430
  21301696.411    21301702.000   113789856.630    88503232.979    21301697.176
  21301701.866          50.180          46.680
  19541850.083    19541853.870   104352420.361    81163005.663    19541849.820
  19541854.309          43.500          46.370
  22153848.984    22153852.794   118092500.539    91849734.876    22153849.396
  22153853.317          48.250          44.120
  23285062.452    23285068.500   124603070.119    96913536.449    23285062.274
  23285069.184          42.810          39.810
 21 04 28 12 46 52.0000000  0 16G03G04G07G08G09G16G26G27G31R02R03R04
                                R12R13R14R21
  24690371.095    24690374.225   129748747.6174  101102906.1164   24690370.952
  24690374.319          37.560          18.750
  20534290.561    20534291.344   107908418.5684   84084477.9214   20534290.263
  20534291.192          50.180          45.120
  24744983.839    24744986.482   130035775.3904  101326566.7834   24744983.289
  24744986.061          37.310          20.560
  24662471.582    24662476.733   129602163.6004  100988706.1594   24662471.126
  24662475.512          38.180          19.370
  21883833.423    21883834.925   115000320.2004   89610646.2704   21883832.869
  21883834.647          48.810          40.560
  20005923.143                   105131843.1794   81920917.8334   20005922.245
  20005921.963          49.500          46.430
  20951404.587    20951407.350   110100386.3844   85792520.8694   20951404.078
  20951407.435          50.180          44.370
  22385509.663    22385512.833   117636672.7794   91664951.4224   22385509.042
  22385512.337          45.750          36.310
  23688599.534    23688600.325   124484422.6314   97000847.3294   23688599.163
  23688599.024          42.430          40.620
  22557840.122    22557843.442   120372929.616    93623393.967    22557839.456
  22557844.082          47.120          41.930
  20129732.354    20129737.532   107756040.383    83810259.473    20129732.265
  20129737.702          53.000          50.370
  21324984.094    21324990.588   114194361.636    88817846.964    21324984.743
  21324990.690          49.000          46.310
  21302206.521    21302212.150   113792581.755    88505352.520    21302207.379
  21302211.949          50.250          46.750
  19541827.658    19541831.499   104352301.305    81162913.056    19541827.560
  19541831.982          43.620          46.310
  22153313.584    22153317.349   118089645.295    91847514.138    22153313.811
  22153317.764          48.180          44.000
  23285443.998    23285450.264   124605113.131    96915125.459    23285443.895
  23285450.930          42.680          39.560
 21 04 28 12 46 53.0000000  0 16G03G04G07G08G09G16G26G27G31R02R03R04
                                R12R13R14R21
  24690990.884    24690993.791   129752004.1164  101105443.6454   24690990.737
  24690993.956          37.250          18.620
  20534300.350    20534301.244   107908470.4624   84084518.3584   20534300.051
  20534301.069          50.180          45.120
  24744426.054    24744428.401   130032842.2554  101324281.2174   24744425.504
  24744427.945          37.430          20.620
  24661720.573    24661725.174   129598216.4194  100985630.4404   24661720.117
  24661724.360          38.120          19.310
  21883429.702    21883431.200   114998198.0844   89608992.6744   21883429.148
  21883430.846          48.810          40.500
  20005988.313                   105132185.9534   81921184.9284   20005987.410
  20005987.190          49.430          46.370
  20951790.864    20951793.533   110102415.9124   85794102.3194   20951790.355
  20951793.641          50.180          44.310
  22384871.933    22384875.144   117633321.8384   91662340.2994   22384871.312
  22384874.670          45.680          36.310
  23689158.415    23689159.323   124487360.1154   97003136.2734   23689158.050
  23689158.035          42.310          40.620
  22558675.229    22558678.795   120377387.431    93626861.152    22558674.719
  22558679.448          47.000          41.870
  20130059.955    20130065.137   107757794.124    83811623.493    20130059.896
  20130065.311          53.000          50.250
  21324555.972    21324562.363   114192068.922    88816063.743    21324556.675
  21324562.578          49.000          46.370
  21302716.728    21302722.278   113795307.079    88507472.220    21302717.596
  21302722.126          50.250          46.560
  19541805.788    19541809.396   104352182.660    81162820.791    19541805.345
  19541809.771          43.560          46.430
  22152778.205    22152781.989   118086790.273    91845293.569    22152778.196
  22152782.221          48.250          44.120
  23285825.620    23285832.270   124607156.915    96916715.067    23285825.758
  23285832.803          42.560          39.810
 21 04 28 12 46 54.0000000  0 16G03G04G07G08G09G16G26G27G31R02R03R04
                                R12R13R14R21
  24691610.607    24691613.258   129755260.6974  101107981.2404   24691610.455
  24691613.678          37.180          18.620
  20534310.290    20534311.238   107908523.0024   84084559.2984   20534309.992
  20534311.068          50.120          45.120
  24743868.053    24743869.600   130029909.1164  101321995.6564   24743867.503
  24743869.868          37.560          20.430
  24660969.497    24660974.120   129594269.2354  100982554.7134   24660969.046
  24660973.270          38.000          19.560
  21883026.000    21883027.497   114996076.4804   89607339.4764   21883025.446
  21883027.135          48.750          40.560
  20006053.693                   105132529.3404   81921452.5024   20006052.794
  20006052.539          49.500          46.370
  20952177.221    20952179.859   110104445.8324   85795684.0744   20952176.712
  20952179.921          50.250          44.370
  22384234.302    22384237.499   117629971.2544   91659729.4584   22384233.685
  22384237.083          45.680          36.310
  23689717.422    23689718.275   124490297.7224   97005425.3154   23689717.051
  23689717.064          42.250          40.560
  22559510.479    22559514.161   120381845.406    93630328.461    22559510.059
  22559514.895          46.810          41.680
  20130387.706    20130392.710   107759548.705    83812988.163    20130387.680
  20130393.081          53.000          50.180
  21324128.011    21324134.442   114189776.969    88814281.118    21324128.718
  21324134.688          49.060          46.560
  21303226.990    21303232.311   113798032.586    88509592.057    21303227.830
  21303232.289          50.250          46.680
  19541783.778    19541787.113   104352064.462    81162728.850    19541783.125
  19541787.614          43.810          46.430
  22152242.858    22152246.632   118083935.463    91843073.160    22152242.585
  22152246.690          48.250          44.180
  23286207.559    23286214.241   124609201.470    96918305.271    23286207.827
  23286214.702          42.370          39.500
 21 04 28 12 46 55.0000000  0 16G03G04G07G08G09G16G26G27G31R02R03R04
                                R12R13R14R21
  24692230.132    24692233.034   129758517.3294  101110518.8774   24692229.972
  24692233.360          36.810          18.870
  20534320.361    20534321.349   107908576.1944   84084600.7464   20534320.065
  20534321.187          50.060          45.120
  24743310.142    24743311.448   130026975.9494  101319710.0764   24743309.592
  24743311.725          37.680          20.560
  24660218.407    24660223.107   129590322.0694  100979479.0024   24660217.960
  24660222.181          38.000          19.620
  21882622.288    21882623.857   114993955.3914   89605686.6814   21882621.734
  21882623.513          48.680          40.560
  20006119.130                   105132873.3224   81921720.5394   20006118.227
  20006118.003          49.560          46.370
  20952563.623    20952566.288   110106476.1034   85797266.1054   20952563.114
  20952566.270          50.180          44.310
  22383596.837    22383599.909   117626621.0354   91657118.8994   22383596.225
  22383599.555          45.810          36.310
  23690276.174    23690277.295   124493235.4374   97007714.4404   23690275.802
  23690276.111          42.180          40.560
  22560345.689    22560349.604   120386303.553    93633795.912    22560345.371
  22560350.283          46.680          41.810
  20130715.624    20130720.726   107761304.129    83814353.494    20130715.606
  20130721.048          53.120          50.310
  21323700.488    21323706.445   114187485.762    88812499.060    21323700.935
  21323706.780          49.120          46.370
  21303737.291    21303742.501   113800758.246    88511712.012    21303738.025
  21303742.585          50.370          46.560
  19541761.863    19541765.203   104351946.682    81162637.244    19541761.000
  19541765.583          43.810          46.370
  22151707.627    22151711.535   118081080.881    91840852.925    22151707.064
  22151711.214          48.310          44.120
  23286589.699    23286596.444   124611246.825    96919896.103    23286589.986
  23286596.833          42.120          39.620
 21 04 28 12 46 56.0000000  0 16G03G04G07G08G09G16G26G27G31R02R03R04
                                R12R13R14R21
  24692849.439    24692852.734   129761773.9924  101113056.5484   24692849.282
  24692853.091          36.560          19.000
  20534330.560    20534331.525   107908630.0314   84084642.6974   20534330.261
  20534331.436          50.060          45.120
  24742752.026    24742753.193   130024042.7984  101317424.5054   24742751.476
  24742753.608          37.870          20.680
  24659467.295    24659471.816   129586374.8774  100976403.2684   24659466.844
  24659471.087          38.000          19.930
  21882218.715    21882220.481   114991834.8084   89604034.2784   21882218.161
  21882219.998          48.620          40.560
  20006184.658                   105133217.9104   81921989.0494   20006183.755
  20006183.579          49.500          46.370
  20952950.021    20952952.676   110108506.7644   85798848.4374   20952949.511
  20952952.690          50.120          44.370
  22382959.497    22382962.403   117623271.1834   91654508.6264   22382958.885
  22382962.094          46.000          36.310
  23690835.328    23690836.244   124496173.2794   97010003.6634   23690834.953
  23690835.189          42.180          40.500
  22561180.845    22561185.358   120390761.883    93637263.495    22561180.715
  22561185.810          46.370          41.930
  20131043.797    20131048.866   107763060.403    83815719.487    20131043.734
  20131049.122          53.250          50.250
  21323273.064    21323278.676   114185195.323    88810717.607    21323273.377
  21323279.079          49.250          46.430
  21304247.687    21304252.645   113803484.059    88513832.093    21304248.232
  21304252.771          50.370          46.500
  19541739.957    19541743.184   104351829.328    81162545.968    19541739.098
  19541743.605          43.680          46.500
  22151172.316    22151176.350   118078226.539    91838632.889    22151171.623
  22151175.885          48.310          44.250
  23286971.912    23286978.803   124613292.940    96921487.524    23286972.340
  23286979.175          42.000          39.620
 21 04 28 12 46 57.0000000  0 16G03G04G07G08G09G16G26G27G31R02R03R04
                                R12R13R14R21
  24693469.236    24693472.179   129765030.7374  101115594.2624   24693469.077
  24693472.903          36.310          18.810
  20534340.926    20534341.882   107908684.5174   84084685.1534   20534340.626
  20534341.806          50.060          45.120
  24742193.860    24742194.906   130021109.6104  101315138.9064   24742193.306
  24742195.545          37.930          20.620
  24658716.295    24658720.690   129582427.7244  100973327.5654   24658715.853
  24658720.015          38.000          19.750
  21881815.241    21881817.127   114989714.7204   89602382.2624   21881814.686
  21881816.573          48.560          40.500
  20006250.368                   105133563.0974   81922258.0264   20006249.465
  20006249.268          49.430          46.370
  20953336.512    20953339.145   110110537.7974   85800431.0584   20953336.003
  20953339.185          50.060          44.370
  22382322.228    22382324.991   117619921.6794   91651898.6244   22382321.619
  22382324.700          46.180          36.310
  23691394.294    23691395.282   124499111.2404   97012292.9804   23691393.923
  23691394.303          42.120          40.500
  22562016.135    22562021.065   120395220.425    93640731.239    22562016.068
  22562021.306          46.310          41.930
  20131372.148    20131377.173   107764817.543    83817086.149    20131372.009
  20131377.357          53.370          50.310
  21322845.792    21322851.176   114182905.665    88808936.757    21322845.939
  21322851.502          49.370          46.430
  21304758.078    21304762.773   113806210.047    88515952.303    21304758.480
  21304763.059          50.500          46.500
  19541718.238    19541721.511   104351712.403    81162455.023    19541717.071
  19541721.832          43.750          46.500
  22150636.929    22150641.293   118075372.422    91836413.019    22150636.248
  22150640.479          48.250          44.060
  23287354.141    23287361.306   124615339.806    96923079.529    23287354.834
  23287361.704          41.870          39.370
 21 04 28 12 46 58.0000000  0 16G03G04G07G08G09G16G26G27G31R02R03R04
                                R12R13R14R21
  24694088.422    24694091.641   129768287.5284  101118132.0014   24694088.266
  24694092.656          36.120          18.680
  20534351.443    20534352.413   107908739.6584   84084728.1204   20534351.148
  20534352.292          50.000          45.120
  24741635.591    24741636.972   130018176.4484  101312853.3314   24741635.033
  24741637.464          38.060          20.810
  24657965.242    24657969.686   129578480.5624  100970251.8534   24657964.799
  24657968.877          37.810          19.680
  21881411.860    21881413.876   114987595.1464   89600730.6464   21881411.306
  21881413.242          48.560          40.560
  20006316.168                   105133908.8924   81922527.4764   20006315.265
  20006315.067          49.370          46.430
  20953723.052    20953725.726   110112569.2064   85802013.9734   20953722.543
  20953725.748          50.000          44.370
  22381685.062    22381687.579   117616572.5514   91649288.9154   22381684.454
  22381687.377          46.250          36.370
  23691953.314    23691954.319   124502049.3364   97014582.4004   23691952.939
  23691953.434          42.180          40.500
  22562851.470    22562856.918   120399679.185    93644199.161    22562851.483
  22562856.797          46.060          41.930
  20131700.727    20131705.676   107766575.529    83818453.473    20131700.423
  20131705.775          53.430          50.250
  21322418.492    21322423.899   114180616.770    88807156.506    21322418.640
  21322424.118          49.430          46.310
  21305268.509    21305273.074   113808936.204    88518072.646    21305268.737
  21305273.423          50.500          46.560
  19541696.304    19541699.890   104351595.894    81162364.409    19541695.285
  19541700.002          43.620          46.430
  22150101.514    22150105.878   118072518.529    91834193.323    22150100.986
  22150105.047          48.180          44.120
  23287736.537    23287743.902   124617387.451    96924672.138    23287737.524
  23287744.323          41.810          39.560
 21 04 28 12 46 59.0000000  0 16G03G04G07G08G09G16G26G27G31R02R03R04
                                R12R13R14R21
  24694707.719    24694711.408   129771544.3744  101120669.8044   24694707.560
  24694712.428          36.060          18.870
  20534362.031    20534363.011   107908795.4404   84084771.5874   20534361.733
  20534362.903          50.180          45.120
  24741077.497    24741078.547   130015243.2654  101310567.7354   24741076.934
  24741079.334          38.250          20.680
  24657214.103    24657218.489   129574533.3834  100967176.1254   24657213.661
  24657217.693          38.310          19.810
  21881008.533    21881010.626   114985476.0894   89599079.4344   21881007.979
  21881010.004          48.560          40.500
  20006382.102                   105134255.2904   81922797.3964   20006381.204
  20006380.983          49.560          46.430
  20954109.637    20954112.320   110114600.9854   85803597.1774   20954109.128
  20954112.387          50.120          44.370
  22381048.034    22381050.413   117613223.7844   91646679.4864   22381047.431
  22381050.131          46.430          36.370
  23692512.513    23692513.313   124504987.5314   97016871.9004   23692512.137
  23692512.583          42.250          40.500
  22563686.858    22563692.329   120404138.172    93647667.266    22563686.970
  22563692.383          46.000          41.680
  20132029.346    20132034.319   107768334.360    83819821.452    20132028.994
  20132034.327          53.310          50.250
  21321991.206    21321996.608   114178328.619    88805376.835    21321991.465
  21321996.863          49.560          46.500
  21305778.931    21305783.465   113811662.531    88520193.121    21305779.061
  21305783.765          50.560          46.680
  19541674.769    19541678.136   104351479.821    81162274.126    19541673.566
  19541678.248          43.560          46.430
  22149565.984    22149570.397   118069664.849    91831973.799    22149565.706
  22149569.655          48.120          44.180
  23288119.679    23288127.081   124619435.868    96926265.351    23288120.389
  23288126.986          41.870          39.620
 21 04 28 12 47 00.0000000  0 16G03G04G07G08G09G16G26G27G31R02R03R04
                                R12R13R14R21
  24695327.339    24695331.707   129774801.2834  101123207.6604   24695327.183
  24695332.150          36.060          18.870
  20534372.781    20534373.809   107908851.8794   84084815.5644   20534372.486
  20534373.648          50.180          45.120
  24740519.448    24740520.279   130012310.0694  101308282.1284   24740518.885
  24740521.231          38.180          20.680
  24656462.790    24656467.485   129570586.2274  100964100.4254   24656462.348
  24656466.532          38.120          19.680
  21880605.385    21880607.487   114983357.5314   89597428.6114   21880604.827
  21880606.865          48.620          40.500
  20006448.161                   105134602.2914   81923067.7884   20006447.263
  20006447.025          49.500          46.430
  20954496.334    20954499.048   110116633.1474   85805180.6804   20954495.820
  20954499.097          50.120          44.370
  22380411.074    22380413.323   117609875.3754   91644070.3364   22380410.466
  22380412.952          46.560          36.370
  23693071.626    23693072.498   124507925.8544   97019161.5004   23693071.251
  23693071.764          42.250          40.500
  22564522.331    22564528.040   120408597.379    93651135.524    22564522.587
  22564528.066          45.870          41.930
  20132358.064    20132362.992   107770094.057    83821190.103    20132357.725
  20132363.028          53.250          50.310
  21321564.014    21321569.532   114176041.229    88803597.749    21321564.394
  21321569.752          49.750          46.500
  21306289.385    21306293.959   113814389.044    88522313.740    21306289.349
  21306294.182          50.430          46.560
  19541652.966    19541656.435   104351364.175    81162184.181    19541651.933
  19541656.627          43.560          46.370
  22149030.525    22149035.028   118066811.402    91829754.445    22149030.435
  22149034.384          48.000          44.310
  23288502.655    23288510.151   124621485.064    96927859.160    23288503.487
  23288509.851          42.060          39.620
 21 04 28 12 47 01.0000000  0 16G03G04G07G08G09G16G26G27G31R02R03R04
                                R12R13R14R21
  24695946.900    24695952.011   129778058.2224  101125745.5284   24695946.748
  24695951.895          36.180          18.750
  20534383.692    20534384.613   107908908.9584   84084860.0424   20534383.397
  20534384.510          50.180          45.120
  24739961.344    24739962.256   130009376.8924  101305996.5304   24739960.777
  24739963.141          38.000          20.680
  24655711.423    24655716.395   129566639.0244  100961024.6884   24655710.985
  24655715.344          38.370          19.810
  21880202.380    21880204.294   114981239.4914   89595778.1914   21880201.826
  21880203.824          48.680          40.500
  20006514.256                   105134949.8974   81923338.6504   20006513.358
  20006513.165          49.500          46.430
  20954883.138    20954885.884   110118665.6834   85806764.4744   20954882.630
  20954885.880          50.120          44.370
  22379774.114    22379776.220   117606527.3284   91641461.4694   22379773.511
  22379775.839          46.680          36.370
  23693630.798    23693631.880   124510864.3024   97021451.1964   23693630.427
  23693630.968          42.310          40.500
  22565357.828    22565363.642   120413056.778    93654603.947    22565358.279
  22565363.727          45.750          42.060
  20132686.854    20132691.991   107771854.595    83822559.405    20132686.635
  20132691.893          53.310          50.250
  21321137.265    21321142.605   114173754.599    88801819.269    21321137.466
  21321142.815          49.930          46.430
  21306799.834    21306804.355   113817115.733    88524434.489    21306799.691
  21306804.605          50.250          46.560
  19541631.153    19541634.537   104351248.945    81162094.558    19541630.303
  19541634.998          43.620          46.370
  22148495.070    22148499.372   118063958.162    91827535.253    22148495.155
  22148499.055          47.870          44.250
  23288885.909    23288893.284   124623534.996    96929453.550    23288886.696
  23288892.891          42.060          39.430
 21 04 28 12 47 02.0000000  0 16G03G04G07G08G09G16G26G27G31R02R03R04
                                R12R13R14R21
  24696566.765    24696571.697   129781315.2374  101128283.4644   24696566.613
  24696571.715          36.180          18.750
  20534394.684    20534395.622   107908966.6934   84084905.0314   20534394.388
  20534395.497          50.180          45.120
  24739403.246    24739403.992   130006443.6934  101303710.9174   24739402.682
  24739405.029          38.120          20.810
  24654960.074    24654965.458   129562691.8834  100957948.9964   24654959.641
  24654964.183          38.000          19.870
  21879799.415    21879801.342   114979121.9594   89594128.1674   21879798.857
  21879800.877          48.750          40.500
  20006580.539                   105135298.1064   81923609.9804   20006579.641
  20006579.425          49.560          46.430
  20955269.956    20955272.782   110120698.5934   85808348.5594   20955269.442
  20955272.733          50.180          44.370
  22379137.194    22379139.210   117603179.6494   91638852.8874   22379136.591
  22379138.790          46.620          36.430
  23694190.015    23694191.132   124513802.8634   97023740.9814   23694189.640
  23694190.198          42.250          40.560
  22566193.592    22566199.398   120417516.354    93658072.507    22566193.972
  22566199.465          45.680          41.560
  20133015.872    20133021.035   107773615.981    83823929.375    20133015.661
  20133020.919          53.370          50.310
  21320710.489    21320715.801   114171468.748    88800041.379    21320710.614
  21320715.998          50.120          46.500
  21307310.270    21307314.885   113819842.576    88526555.367    21307310.064
  21307315.054          50.060          46.500
  19541609.729    19541613.190   104351134.141    81162005.261    19541608.745
  19541613.494          43.620          46.560
  22147959.526    22147963.913   118061105.133    91825316.243    22147959.871
  22147963.748          47.810          44.180
  23289269.494    23289276.828   124625585.722    96931048.552    23289270.035
  23289276.314          42.060          39.120
 21 04 28 12 47 03.0000000  0 16G03G04G07G08G09G16G26G27G31R02R03R04
                                R12R13R14R21
  24697186.792    24697191.312   129784572.3064  101130821.4254   24697186.645
  24697191.513          36.620          18.680
  20534405.786    20534406.671   107909025.0744   84084950.5224   20534405.492
  20534406.613          50.180          45.120
  24738844.999    24738845.848   130003510.4654  101301425.2814   24738844.432
  24738846.895          38.250          20.810
  24654208.703    24654214.382   129558744.6944  100954873.2644   24654208.261
  24654213.058          38.060          19.930
  21879396.554    21879398.342   114977004.9254   89592478.5304   21879395.995
  21879398.033          48.750          40.500
  20006646.898                   105135646.9164   81923881.7814   20006645.995
  20006645.802          49.500          46.430
  20955656.877    20955659.667   110122731.8674   85809932.9294   20955656.363
  20955659.653          50.180          44.370
  22378500.305    22378502.272   117599832.3274   91636244.5854   22378499.702
  22378501.807          46.620          36.430
  23694749.191    23694750.233   124516741.5534   97026030.8684   23694748.816
  23694749.441          42.180          40.620
  22567029.334    22567034.800   120421976.081    93661541.176    22567029.799
  22567035.153          45.680          41.870
  20133345.045    20133350.286   107775378.208    83825299.996    20133344.849
  20133350.107          53.430          50.310
  21320283.762    21320289.083   114169183.675    88798264.105    21320283.882
  21320289.311          50.180          46.620
  21307820.777    21307825.257   113822569.568    88528676.358    21307820.459
  21307825.584          49.870          46.370
  19541587.997    19541591.740   104351019.751    81161916.297    19541587.403
  19541592.119          43.560          46.500
  22147424.050    22147428.472   118058252.329    91823097.385    22147424.551
  22147428.521          47.680          44.000
  23289653.087    23289660.051   124627637.221    96932644.161    23289653.543
  23289659.863          42.120          39.120
 21 04 28 12 47 04.0000000  0 16G03G04G07G08G09G16G26G27G31R02R03R04
                                R12R13R14R21
  24697806.902    24697811.123   129787829.4114  101133359.4394   24697806.760
  24697811.293          36.500          18.620
  20534416.970    20534417.931   107909084.1024   84084996.5174   20534416.671
  20534417.841          50.120          45.120
  24738286.860    24738288.219   130000577.2614  101299139.6694   24738286.293
  24738288.716          38.060          20.750
  24653457.743    24653462.872   129554797.4874  100951797.5164   24653457.296
  24653461.888          38.000          20.000
  21878993.852    21878995.578   114974888.4134   89590829.2994   21878993.294
  21878995.279          48.750          40.500
  20006713.395                   105135996.3354   81924154.0554   20006712.492
  20006712.304          49.430          46.430
  20956043.887    20956046.646   110124765.5394   85811517.6094   20956043.378
  20956046.646          50.120          44.370
  22377863.408    22377865.397   117596485.3744   91633636.5694   22377862.800
  22377864.896          46.620          36.500
  23695308.461    23695309.615   124519680.3644   97028320.8474   23695308.087
  23695308.703          42.180          40.620
  22567864.847    22567870.712   120426435.963    93665009.983    22567865.621
  22567870.953          45.750          41.500
  20133674.394    20133679.580   107777141.280    83826671.275    20133674.260
  20133679.455          53.430          50.370
  21319857.057    21319862.459   114166899.367    88796487.421    21319857.281
  21319862.741          50.060          46.680
  21308331.230    21308335.765   113825296.730    88530797.476    21308330.895
  21308336.095          49.680          46.430
  19541566.654    19541570.307   104350905.782    81161827.655    19541566.100
  19541570.696          43.620          46.560
  22146888.828    22146892.991   118055399.755    91820878.708    22146889.185
  22146893.434          47.430          44.060
  23290036.618    23290043.493   124629689.483    96934240.380    23290037.199
  23290043.502          42.250          39.000
 21 04 28 12 47 05.0000000  0 16G03G04G07G08G09G16G26G27G31R02R03R04
                                R12R13R14R21
  24698427.170    24698430.645   129791086.5764  101135897.4794   24698427.027
  24698431.091          36.680          18.810
  20534428.319    20534429.320   107909143.7834   84085043.0214   20534428.024
  20534429.204          50.250          45.120
  24737728.507    24737730.281   129997644.0294  101296854.0384   24737727.935
  24737730.536          38.180          20.680
  24652706.399    24652711.630   129550850.2794  100948721.7744   24652705.956
  24652710.781          38.120          20.120
  21878591.161    21878592.832   114972772.4084   89589180.4654   21878590.603
  21878592.613          48.750          40.500
  20006779.893                   105136346.3584   81924426.8004   20006778.995
  20006778.918          49.430          46.430
  20956430.950    20956433.722   110126799.5734   85813102.5714   20956430.442
  20956433.704          50.120          44.370
  22377226.519    22377228.419   117593138.7764   91631028.8304   22377225.916
  22377228.052          46.500          36.430
  23695867.629    23695868.836   124522619.2864   97030610.9134   23695867.254
  23695868.000          42.180          40.620
  22568700.661    22568706.368   120430896.021    93668478.907    22568701.497
  22568706.757          45.750          41.500
  20134003.939    20134009.000   107778905.195    83828043.212    20134003.760
  20134008.991          53.500          50.310
  21319430.590    21319436.099   114164615.782    88794711.297    21319430.782
  21319436.332          50.060          46.620
  21308841.702    21308846.393   113828024.087    88532918.751    21308841.398
  21308846.629          49.620          46.430
  19541545.611    19541549.044   104350792.224    81161739.325    19541544.878
  19541549.353          43.430          46.370
  22146353.593    22146357.648   118052547.416    91818660.234    22146353.910
  22146358.369          47.310          44.120
  23290420.592    23290427.305   124631742.520    96935837.189    23290420.981
  23290427.261          42.430          39.060
 21 04 28 12 47 06.0000000  0 16G03G04G07G08G09G16G26G27G31R02R03R04
                                R12R13R14R21
  24699047.179    24699050.653   129794343.7884  101138435.5694   24699047.045
  24699050.823          37.000          18.930
  20534439.838    20534440.763   107909204.1134   84085090.0314   20534439.543
  20534440.678          50.250          45.180
  24737170.546    24737172.232   129994710.8074  101294568.4144   24737169.975
  24737172.313          38.060          20.680
  24651955.497    24651960.719   129546903.1064  100945646.0544   24651955.055
  24651959.651          38.310          20.180
  21878188.634    21878190.163   114970656.9064   89587532.0204   21878188.080
  21878190.051          48.750          40.500
  20006846.596                   105136696.9874   81924700.0174   20006845.698
  20006845.639          49.430          46.500
  20956818.054    20956820.853   110128833.9794   85814687.8214   20956817.540
  20956820.831          50.180          44.370
  22376589.719    22376591.611   117589792.5504   91628421.3824   22376589.111
  22376591.266          46.500          36.500
  23696427.007    23696427.842   124525558.3344   97032901.0774   23696426.635
  23696427.310          42.120          40.620
  22569536.451    22569542.253   120435356.275    93671947.999    22569537.426
  22569542.571          45.680          41.620
  20134333.520    20134338.573   107780669.972    83829415.814    20134333.467
  20134338.657          53.430          50.310
  21319004.220    21319009.873   114162332.961    88792935.772    21319004.314
  21319010.038          50.000          46.680
  21309352.102    21309356.940   113830751.644    88535040.190    21309351.986
  21309357.235          49.560          46.430
  19541524.389    19541527.652   104350679.085    81161651.331    19541523.691
  19541528.175          43.500          46.310
  22145818.357    22145822.704   118049695.283    91816441.912    22145818.724
  22145823.383          47.250          44.250
  23290804.476    23290811.020   124633796.316    96937434.576    23290804.910
  23290810.939          42.560          39.310
 21 04 28 12 47 07.0000000  0 16G03G04G07G08G09G16G26G27G31R02R03R04
                                R12R13R14R21
  24699667.286    24699671.010   129797601.0744  101140973.7244   24699667.148
  24699670.608          37.250          19.120
  20534451.491    20534452.385   107909265.0874   84085137.5444   20534451.196
  20534452.282          50.180          45.180
  24736612.497    24736613.494   129991777.5594  101292282.7594   24736611.930
  24736614.035          38.370          20.870
  24651204.264    24651209.706   129542955.9304  100942570.3374   24651203.822
  24651208.512          37.930          20.180
  21877786.170    21877787.556   114968541.9194   89585883.9784   21877785.612
  21877787.592          48.680          40.560
  20006913.362                   105137048.2254   81924973.7084   20006912.464
  20006912.472          49.310          46.500
  20957205.306    20957208.136   110130868.7674   85816273.3694   20957204.792
  20957208.038          50.120          44.370
  22375953.037    22375954.735   117586446.6754   91625814.2074   22375952.428
  22375954.557          46.430          36.500
  23696986.344    23696987.121   124528497.4984   97035191.3334   23696985.973
  23696986.634          42.370          40.680
  22570372.274    22570378.210   120439816.740    93675417.236    22570373.436
  22570378.433          45.810          41.500
  20134663.369    20134668.341   107782435.603    83830789.082    20134663.343
  20134668.488          53.430          50.310
  21318577.968    21318583.781   114160050.940    88791160.868    21318578.115
  21318583.902          49.810          46.750
  21309862.497    21309867.626   113833479.350    88537161.734    21309862.690
  21309867.845          49.500          46.430
  19541503.081    19541506.506   104350566.369    81161563.663    19541502.612
  19541507.042          43.430          46.370
  22145283.211    22145287.835   118046843.399    91814223.776    22145283.636
  22145288.452          47.310          44.120
  23291188.392    23291195.110   124635850.895    96939032.571    23291188.848
  23291194.721          42.680          39.180
 21 04 28 12 47 08.0000000  0 16G03G04G07G08G09G16G26G27G31R02R03R04
                                R12R13R14R21
  24700287.151    24700290.759   129800858.3954  101143511.8954   24700287.013
  24700290.450          37.310          19.060
  20534463.318    20534464.087   107909326.7084   84085185.5604   20534463.019
  20534464.002          50.250          45.180
  24736054.416    24736055.489   129988844.3044  101289997.1094   24736053.844
  24736055.784          38.430          20.930
  24650453.430    24650458.554   129539008.7704  100939494.6394   24650452.983
  24650457.418          38.000          20.060
  21877383.814    21877385.195   114966427.4304   89584236.3234   21877383.255
  21877385.226          48.620          40.560
  20006980.307                   105137400.0634   81925247.8664   20006979.409
  20006979.425          49.310          46.500
  20957592.562    20957595.468   110132903.9274   85817859.2084   20957592.053
  20957595.311          50.060          44.370
  22375316.340    22375317.963   117583101.1704   91623207.3204   22375315.732
  22375317.922          46.370          36.430
  23697545.838    23697546.379   124531436.7954   97037481.6934   23697545.463
  23697545.972          42.430          40.680
  22571208.404    22571213.992   120444277.419    93678886.661    22571209.464
  22571214.403          45.750          41.750
  20134993.371    20134998.239   107784202.070    83832163.002    20134993.344
  20134998.499          53.430          50.310
  21318151.907    21318157.935   114157769.696    88789386.564    21318152.090
  21318157.948          49.680          46.680
  21310373.063    21310378.201   113836207.190    88539283.393    21310373.385
  21310378.437          49.500          46.430
  19541481.939    19541485.239   104350454.086    81161476.331    19541481.532
  19541485.999          43.500          46.430
  22144748.141    22144753.275   118043991.721    91812005.810    22144748.642
  22144753.539          47.430          44.310
  23291572.737    23291579.182   124637906.227    96940631.165    23291572.862
  23291578.690          42.750          38.750
 21 04 28 12 47 09.0000000  0 16G03G04G07G08G09G16G26G27G31R02R03R04
                                R12R13R14R21
  24700907.230    24700910.888   129804115.7844  101146050.1124   24700907.088
  24700910.235          37.180          18.870
  20534475.257    20534475.856   107909388.9854   84085234.0874   20534474.958
  20534475.852          50.180          45.180
  24735496.281    24735497.408   129985911.0724  101287711.4714   24735495.706
  24735497.591          38.560          21.000
  24649702.389    24649707.375   129535061.6294  100936418.9374   24649701.948
  24649706.351          38.310          20.060
  21876981.519    21876982.883   114964313.4524   89582589.0674   21876980.966
  21876982.964          48.500          40.560
  20007047.376                   105137752.5174   81925522.5064   20007046.473
  20007046.504          49.250          46.500
  20957979.858    20957982.849   110134939.4704   85819445.3454   20957979.349
  20957982.657          50.000          44.430
  22374679.702    22374681.302   117579756.0284   91620600.7174   22374679.090
  22374681.347          46.250          36.370
  23698105.247    23698105.654   124534376.1934   97039772.1304   23698104.876
  23698105.331          42.370          40.680
  22572044.563    22572050.042   120448738.327    93682356.244    22572045.479
  22572050.337          45.810          41.810
  20135323.559    20135328.465   107785969.386    83833537.580    20135323.475
  20135328.666          53.430          50.370
  21317726.047    21317732.268   114155489.201    88787612.845    21317726.186
  21317732.080          49.560          46.750
  21310883.561    21310888.900   113838935.178    88541405.164    21310884.151
  21310889.168          49.560          46.500
  19541461.200    19541464.227   104350342.214    81161389.320    19541460.574
  19541465.054          43.430          46.310
  22144213.246    22144218.585   118041140.267    91809788.004    22144213.715
  22144218.679          47.560          44.250
  23291957.225    23291963.294   124639962.332    96942230.367    23291956.898
  23291962.812          42.810          39.250
 21 04 28 12 47 10.0000000  0 16G03G04G07G08G09G16G26G27G31R02R03R04
                                R12R13R14R21
  24701527.096    24701530.740   129807373.1994  101148588.3684   24701526.953
  24701530.114          37.430          18.930
  20534487.304    20534487.840   107909451.9064   84085283.1164   20534487.005
  20534487.822          50.180          45.180
  24734938.201    24734939.180   129982977.8234  101285425.8264   24734937.629
  24734939.376          38.180          21.060
  24648951.179    24648956.053   129531114.4614  100933343.2184   24648950.737
  24648955.199          37.870          20.120
  21876579.315    21876580.701   114962199.9974   89580942.2184   21876578.757
  21876580.786          48.370          40.560
  20007114.594                   105138105.5754   81925797.6174   20007113.696
  20007113.695          49.310          46.500
  20958367.302    20958370.257   110136975.3754   85821031.7654   20958366.793
  20958370.074          50.000          44.430
  22374043.094    22374044.789   117576411.2494   91617994.3964   22374042.482
  22374044.847          46.180          36.430
  23698664.620    23698665.004   124537315.7234   97042062.6724   23698664.245
  23698664.722          42.500          40.680
  22572880.693    22572886.155   120453199.447    93685826.019    22572881.574
  22572886.383          45.870          41.810
  20135653.928    20135658.877   107787737.565    83834912.829    20135653.762
  20135659.002          53.430          50.310
  21317300.246    21317306.623   114153209.451    88785839.710    21317300.461
  21317306.408          49.500          46.750
  21311394.212    21311399.805   113841663.352    88543527.082    21311394.981
  21311399.891          49.750          46.500
  19541440.429    19541443.738   104350230.763    81161302.640    19541439.669
  19541444.181          43.430          46.250
  22143678.341    22143683.913   118038289.010    91807570.369    22143678.905
  22143683.842          47.500          44.310
  23292341.816    23292347.778   124642019.228    96943830.168    23292341.158
  23292347.090          42.750          39.120
 21 04 28 12 47 11.0000000  0 16G03G04G07G08G09G16G26G27G31R02R03R04
                                R12R13R14R21
  24702146.889    24702150.610   129810630.7094  101151126.6814   24702146.738
  24702150.019          37.250          19.120
  20534499.387    20534499.909   107909515.4854   84085332.6584   20534499.091
  20534499.923          50.250          45.180
  24734380.209    24734380.902   129980044.5524  101283140.1584   24734379.637
  24734381.130          38.430          21.060
  24648200.081    24648204.888   129527167.2984  100930267.5104   24648199.634
  24648204.105          37.810          19.930
  21876177.159    21876178.648   114960087.0444   89579295.7624   21876176.602
  21876178.707          48.310          40.560
  20007181.861                   105138459.2394   81926073.2004   20007180.957
  20007180.988          49.370          46.500
  20958754.781    20958757.746   110139011.6614   85822618.4814   20958754.272
  20958757.566          50.000          44.370
  22373406.546    22373408.343   117573066.8394   91615388.3634   22373405.934
  22373408.419          46.180          36.430
  23699224.091    23699224.462   124540255.3664   97044353.3024   23699223.721
  23699224.114          42.560          40.680
  22573716.882    22573722.321   120457660.796    93689295.954    22573717.647
  22573722.469          45.810          41.750
  20135984.381    20135989.402   107789506.596    83836288.742    20135984.197
  20135989.504          53.430          50.250
  21316874.713    21316881.153   114150930.478    88784067.168    21316874.923
  21316880.911          49.500          46.930
  21311905.085    21311910.447   113844391.733    88545649.153    21311905.823
  21311910.648          49.870          46.500
  19541419.632    19541423.133   104350119.749    81161216.290    19541418.889
  19541423.383          43.370          46.370
  22143143.540    22143149.156   118035437.976    91805352.897    22143144.045
  22143149.022          47.430          44.180
  23292726.415    23292732.673   124644076.893    96945430.564    23292725.539
  23292731.564          42.750          39.250
 21 04 28 12 47 12.0000000  0 16G03G04G07G08G09G16G26G27G31R02R03R04
                                R12R13R14R21
  24702766.603    24702770.810   129813888.2414  101153665.0024   24702766.447
  24702769.956          37.120          19.180
  20534511.639    20534512.081   107909579.7064   84085382.6994   20534511.344
  20534512.148          50.250          45.180
  24733822.043    24733822.539   129977111.2734  101280854.4824   24733821.468
  24733822.857          38.500          21.180
  24647448.902    24647453.888   129523220.1584  100927191.8204   24647448.451
  24647453.047          37.500          20.120
  21875775.044    21875776.689   114957974.5954   89577649.6984   21875774.487
  21875776.730          48.180          40.560
  20007249.292                   105138813.5034   81926349.2494   20007248.394
  20007248.407          49.370          46.500
  20959142.288    20959145.238   110141048.3204   85824205.4874   20959141.773
  20959145.126          49.810          44.370
  22372770.126    22372771.986   117569722.8034   91612782.6214   22372769.518
  22372772.049          46.180          36.430
  23699783.626    23699783.938   124543195.1274   97046644.0244   23699783.254
  23699783.531          42.500          40.620
  22574553.201    22574558.381   120462122.348    93692766.040    22574553.720
  22574558.622          45.750          41.250
  20136314.990    20136320.015   107791276.456    83837665.304    20136314.825
  20136320.127          53.250          50.310
  21316449.243    21316455.767   114148652.271    88782295.227    21316449.583
  21316455.490          49.500          46.810
  21312415.884    21312421.316   113847120.288    88547771.369    21312416.626
  21312421.504          50.000          46.560
  19541399.040    19541402.523   104350009.162    81161130.266    19541398.266
  19541402.719          43.430          46.180
  22142608.890    22142614.230   118032587.173    91803135.607    22142609.225
  22142614.234          47.370          44.180
  23293110.837    23293116.875   124646135.311    96947031.564    23293110.107
  23293116.262          42.810          38.680
 21 04 28 12 47 13.0000000  0 16G03G04G07G08G09G16G26G27G31R02R03R04
                                R12R13R14R21
  24703386.571    24703391.042   129817145.8064  101156203.3534   24703386.415
  24703389.839          37.180          19.120
  20534523.905    20534524.441   107909644.5774   84085433.2474   20534523.605
  20534524.490          50.250          45.250
  24733263.587    24733263.895   129974177.9944  101278568.8154   24733263.006
  24733264.606          38.370          21.370
  24646697.589    24646702.664   129519273.0194  100924116.1414   24646697.133
  24646701.962          38.000          20.250
  21875372.961    21875374.906   114955862.6694   89576004.0424   21875372.403
  21875374.852          48.180          40.680
  20007316.859                   105139168.3694   81926625.7684   20007315.961
  20007315.933          49.370          46.560
  20959529.883    20959532.910   110143085.3514   85825792.7824   20959529.369
  20959532.763          49.870          44.500
  22372133.796    22372135.808   117566379.1174   91610177.1514   22372133.184
  22372135.746          46.250          36.430
  23700343.084    23700342.860   124546135.0144   97048934.8464   23700342.713
  23700342.958          42.430          40.560
  22575389.340    22575394.395   120466584.078    93696236.254    22575389.761
  22575394.753          45.870          41.370
  20136645.694    20136650.835   107793047.172    83839042.521    20136645.554
  20136650.960          53.120          50.370
  21316023.973    21316030.489   114146374.836    88780523.893    21316024.345
  21316030.265          49.500          46.870
  21312926.900    21312932.257   113849848.999    88549893.693    21312927.423
  21312932.284          50.000          46.500
  19541378.305    19541381.918   104349898.983    81161044.583    19541377.589
  19541382.007          43.370          46.370
  22142074.250    22142079.719   118029736.620    91800918.516    22142074.433
  22142079.500          47.430          44.310
  23293495.570    23293501.443   124648194.499    96948633.151    23293494.801
  23293501.090          42.870          38.810
 21 04 28 12 47 14.0000000  0 16G03G04G07G08G09G16G26G27G31R02R03R04
                                R12R13R14R21
  24704006.320    24704011.131   129820403.4674  101158741.7884   24704006.160
  24704009.781          37.060          19.060
  20534536.344    20534536.921   107909710.0974   84085484.3014   20534536.049
  20534536.957          50.250          45.250
  24732705.265    24732705.698   129971244.7234  101276283.1494   24732704.684
  24732706.369          38.500          21.500
  24645946.392    24645951.324   129515325.8744  100921040.4454   24645945.941
  24645950.886          38.060          20.180
  21874971.087    21874973.255   114953751.2414   89574358.7744   21874970.529
  21874973.068          48.180          40.620
  20007384.555                   105139523.8384   81926902.7564   20007383.657
  20007383.580          49.370          46.560
  20959917.586    20959920.721   110145122.7654   85827380.3774   20959917.072
  20959920.461          49.810          44.500
  22371497.503    22371499.479   117563035.8074   91607571.9734   22371496.895
  22371499.537          46.180          36.500
  23700902.547    23700902.206   124549075.0174   97051225.7574   23700902.175
  23700902.412          42.430          40.680
  22576225.758    22576230.776   120471045.972    93699706.626    22576225.842
  22576230.946          45.750          41.370
  20136976.464    20136981.815   107794818.745    83840420.410    20136976.446
  20136981.891          53.060          50.430
  21315598.923    21315605.350   114144098.185    88778753.162    21315599.277
  21315605.184          49.620          46.870
  21313437.792    21313443.140   113852577.866    88552016.141    21313438.177
  21313443.176          50.000          46.430
  19541357.624    19541361.442   104349789.232    81160959.217    19541356.980
  19541361.464          43.500          46.370
  22141539.578    22141544.940   118026886.292    91798701.587    22141539.631
  22141544.684          47.430          44.310
  23293880.595    23293886.266   124650254.445    96950235.336    23293879.727
  23293886.007          42.930          39.000
 21 04 28 12 47 15.0000000  0 16G03G04G07G08G09G16G26G27G31R02R03R04
                                R12R13R14R21
  24704626.105    24704631.077   129823661.1604  101161280.2574   24704625.940
  24704629.691          36.750          19.060
  20534548.932    20534549.580   107909776.2594   84085535.8564   20534548.637
  20534549.540          50.250          45.250
  24732146.853    24732147.174   129968311.4084  101273997.4534   24732146.272
  24732148.118          38.680          21.430
  24645195.396    24645199.966   129511378.7364  100917964.7454   24645194.946
  24645199.809          38.000          20.060
  21874569.339    21874571.641   114951640.3224   89572713.9024   21874568.780
  21874571.377          48.180          40.620
  20007452.349                   105139879.9114   81927180.2164   20007451.451
  20007451.338          49.370          46.560
  20960305.267    20960308.509   110147160.5494   85828968.2594   20960304.753
  20960308.245          49.810          44.500
  22370861.258    22370863.667   117559692.8524   91604967.0714   22370860.650
  22370863.382          46.250          36.430
  23701461.920    23701461.575   124552015.1404   97053516.7624   23701461.544
  23701461.892          42.310          40.620
  22577061.982    22577067.158   120475508.029    93703177.110    22577061.902
  22577067.060          45.680          41.680
  20137307.467    20137312.917   107796591.181    83841798.973    20137307.547
  20137313.015          53.000          50.310
  21315174.079    21315180.205   114141822.292    88776983.025    21315174.302
  21315180.201          49.750          46.810
  21313948.778    21313954.054   113855306.920    88554138.733    21313949.037
  21313954.094          50.000          46.310
  19541337.255    19541341.011   104349679.901    81160874.181    19541336.428
  19541340.971          43.500          46.250
  22141005.147    22141010.201   118024036.165    91796484.822    22141004.884
  22141009.914          47.500          44.310
  23294265.597    23294271.049   124652315.159    96951838.123    23294264.895
  23294271.018          42.870          39.060
 21 04 28 12 47 16.0000000  0 16G03G04G07G08G09G16G26G27G31R02R03R04
                                R12R13R14R21
  24705245.930    24705251.161   129826918.9084  101163818.7624   24705245.765
  24705249.605          36.870          19.250
  20534561.636    20534562.337   107909843.0724   84085587.9184   20534561.337
  20534562.253          50.180          45.250
  24731588.732    24731588.861   129965378.1084  101271711.7664   24731588.147
  24731589.823          38.430          21.500
  24644444.235    24644449.074   129507431.5964  100914889.0594   24644443.788
  24644448.716          37.810          20.120
  21874167.737    21874170.081   114949529.9224   89571069.4354   21874167.180
  21874169.785          48.250          40.620
  20007520.308                   105140236.5854   81927458.1434   20007519.411
  20007519.208          49.370          46.560
  20960693.095    20960696.417   110149198.7104   85830556.4364   20960692.582
  20960696.096          49.750          44.500
  22370225.165    22370227.745   117556350.2634   91602362.4564   22370224.553
  22370227.311          46.180          36.430
  23702021.342    23702021.176   124554955.3954   97055807.8704   23702020.967
  23702021.395          42.120          40.620
  22577898.198    22577903.329   120479970.268    93706647.737    22577897.988
  22577903.324          45.620          41.560
  20137638.622    20137644.072   107798364.478    83843178.200    20137638.778
  20137644.300          53.000          50.370
  21314749.453    21314755.240   114139547.165    88775213.491    21314749.498
  21314755.316          50.060          46.870
  21314459.750    21314464.995   113858036.144    88556261.466    21314459.880
  21314465.027          50.000          46.310
  19541316.654    19541320.674   104349571.001    81160789.479    19541316.020
  19541320.567          43.560          46.310
  22140470.658    22140475.381   118021186.244    91794268.220    22140470.252
  22140475.300          47.500          44.000
  23294650.703    23294656.405   124654376.652    96953441.509    23294650.282
  23294656.338          43.000          39.250
 21 04 28 12 47 17.0000000  0 16G03G04G07G08G09G16G26G27G31R02R03R04
                                R12R13R14R21
  24705865.710    24705871.045   129830176.7064  101166357.3064   24705865.541
  24705869.587          36.750          19.060
  20534574.407    20534575.203   107909910.5444   84085640.4944   20534574.108
  20534575.086          50.120          45.250
  24731030.642    24731030.548   129962444.7984  101269426.0624   24731030.057
  24731031.558          38.680          21.500
  24643693.007    24643697.930   129503484.4734  100911813.3834   24643692.551
  24643697.608          37.870          20.120
  21873766.253    21873768.609   114947420.0204   89569425.3564   21873765.699
  21873768.287          48.370          40.620
  20007588.362                   105140593.8594   81927736.5394   20007587.464
  20007587.182          49.370          46.560
  20961080.999    20961084.219   110151237.2304   85832144.8924   20961080.486
  20961084.013          49.750          44.500
  22369589.175    22369591.813   117553008.0344   91599758.1224   22369588.567
  22369591.299          46.120          36.430
  23702580.759    23702581.103   124557895.7764   97058099.0764   23702580.385
  23702580.911          42.120          40.560
  22578734.427    22578739.567   120484432.711    93710118.527    22578734.204
  22578739.477          45.500          41.060
  20137970.032    20137975.584   107800138.626    83844558.094    20137970.215
  20137975.772          53.120          50.430
  21314324.851    21314330.494   114137272.801    88773444.542    21314324.735
  21314330.580          50.180          46.810
  21314970.857    21314976.080   113860765.556    88558384.341    21314970.736
  21314975.990          50.060          46.370
  19541296.251    19541300.400   104349462.517    81160705.102    19541295.678
  19541300.261          43.620          46.250
  22139936.228    22139940.798   118018336.551    91792051.790    22139935.696
  22139940.682          47.430          44.180
  23295035.848    23295041.157   124656438.912    96955045.491    23295035.798
  23295041.796          42.930          38.680
 21 04 28 12 47 18.0000000  0 16G03G04G07G08G09G16G26G27G31R02R03R04
                                R12R13R14R21
  24706485.339    24706490.959   129833434.5724  101168895.9014   24706485.160
  24706489.541          36.810          18.870
  20534587.343    20534588.134   107909978.6534   84085693.5664   20534587.044
  20534588.045          50.120          45.250
  24730472.588    24730471.913   129959511.5004  101267140.3764   24730472.003
  24730473.281          38.680          21.500
  24642942.159    24642946.908   129499537.3514  100908737.7044   24642941.703
  24642946.452          38.000          20.250
  21873364.902    21873367.219   114945310.6334   89567781.6784   21873364.348
  21873366.883          48.370          40.620
  20007656.488                   105140951.7334   81928015.4014   20007655.589
  20007655.284          49.370          46.560
  20961468.958    20961472.123   110153276.1364   85833733.6504   20961468.448
  20961472.007          49.870          44.500
  22368953.315    22368956.091   117549666.1714   91597154.0744   22368952.703
  22368955.367          46.120          36.370
  23703140.146    23703140.767   124560836.2554   97060390.3584   23703139.771
  23703140.459          42.060          40.500
  22579570.585    22579575.881   120488895.373    93713589.477    22579570.357
  22579575.769          45.370          41.370
  20138301.745    20138307.204   107801913.607    83845938.636    20138301.799
  20138307.329          53.250          50.430
  21313900.292    21313905.825   114134999.173    88771676.170    21313900.154
  21313905.887          50.250          46.750
  21315481.959    21315487.163   113863495.136    88560507.347    21315481.686
  21315486.949          49.930          46.430
  19541276.196    19541280.009   104349354.448    81160621.049    19541275.377
  19541279.955          43.620          46.250
  22139401.775    22139405.939   118015487.068    91789835.536    22139401.248
  22139406.055          47.370          44.250
  23295420.885    23295426.271   124658501.967    96956650.099    23295421.462
  23295427.403          42.930          38.930
