     2.11           OBSERVATION DATA    M (MIXED)           RINEX VERSION / TYPE
RTCM2RINEX 1.2.19   NRCan               20210428 22:16:09UTCPGM / RUN BY / DATE
gfzrnx-1.11-7352    FILE CONVERSION     20210428 221610 UTC COMMENT
ALGO CACS-GSD 883160 Algonquin Park ON Canada               MARKER NAME
40104M002                                                   MARKER NUMBER
ACSOPS              NRCan                                   OBSERVER / AGENCY
3015995             SEPT POLARX5        5.3.2               REC # / TYPE / VERS
303                 AOAD/M_T        NONE                    ANT # / TYPE
   918129.4000 -4346071.2000  4561977.8000                  APPROX POSITION XYZ
        0.1000        0.0000        0.0000                  ANTENNA: DELTA H/E/N
     1     1                                                WAVELENGTH FACT L1/2
GPS -    L1 Phase aligned to CA and L2 aligned to P2        COMMENT
GLONASS- L1 Phase aligned to C1 and L2 aligned to P2        COMMENT
    18                  GPS                                 LEAP SECONDS
     8    C1    C2    L1    L2    P1    P2    S1    S2      # / TYPES OF OBSERV
    19                                                      # OF SATELLITES
   G02   900         900   900   900   900   900   900      PRN / # OF OBS
   G03   212   212   212   212   212   212   212   212      PRN / # OF OBS
   G04   900   900   900   900   900   900   900   900      PRN / # OF OBS
   G05    66    66    66    66    66    66    66    66      PRN / # OF OBS
   G06   900   900   900   900   900   900   900   900      PRN / # OF OBS
   G09   900   900   900   900   900   900   900   900      PRN / # OF OBS
   G12   900   900   900   900   900   900   900   900      PRN / # OF OBS
   G17   900   900   900   900   900   900   900   900      PRN / # OF OBS
   G19   900         900   900   900   900   900   900      PRN / # OF OBS
   G25   900   900   900   900   900   900   900   900      PRN / # OF OBS
   G28    49          49    49    49    49    49    49      PRN / # OF OBS
   R03   900   900   900   900   900   900   900   900      PRN / # OF OBS
   R04   900   900   900   900   900   900   900   900      PRN / # OF OBS
   R05   900   900   900   900   900   900   900   900      PRN / # OF OBS
   R09   900   900   900   900   900   900   900   900      PRN / # OF OBS
   R11   900   900   900   900   900   900   900   900      PRN / # OF OBS
   R19   900   900   900   900   900   900   900   900      PRN / # OF OBS
   R20   900   900   900   900   900   900   900   900      PRN / # OF OBS
   R21   655   655   655   654   655   654   655   654      PRN / # OF OBS
     1.000                                                  INTERVAL
  2021     4    28    22     0    0.0000000     GPS         TIME OF FIRST OBS
  2021     4    28    22    14   59.0000000     GPS         TIME OF LAST OBS
                                                            END OF HEADER
 21 04 28 22 00 00.0000000  0 17G02G03G04G06G09G12G17G19G25G28R03R04
                                R05R09R11R19R20
  21543338.226                   113211057.3984   88216417.4374   21543337.131
  21543335.749          50.500          44.310
  24883720.182    24883727.131   130764860.2674  101894713.5494   24883719.874
  24883726.312          29.430          17.500
  24518729.473    24518731.221   128846816.2484  100400133.2284   24518729.281
  24518732.799          38.000          20.560
  20357245.757    20357248.547   106978089.3404   83359576.6664   20357245.623
  20357248.042          52.750          50.060
  24357230.662    24357235.934   127998135.9804   99738833.3904   24357230.117
  24357235.290          38.060          35.180
  21453095.311    21453094.609   112736805.5814   87846882.9864   21453094.891
  21453093.974          50.250          42.500
  22453942.449    22453942.659   117996295.2924   91945178.1884   22453942.008
  22453942.548          46.620          36.810
  20786297.455                   109232764.4034   85116431.8494   20786296.177
  20786295.536          49.680          44.370
  23932279.939    23932284.205   125764996.4514   97998711.4174   23932279.188
  23932283.037          38.870          21.930
  24621294.973                   129385765.1254  100820075.3264   24621294.132
  24621297.369          32.060           5.000
  22448713.342    22448719.972   120169780.274    93465398.761    22448713.776
  22448720.576          45.370          43.810
  20749417.904    20749424.094   111112217.003    86420672.047    20749418.410
  20749424.313          51.810          48.560
  22458024.479    22458031.183   120051048.483    93373068.326    22458024.479
  22458031.366          47.560          43.870
  22893962.116    22893966.905   122252470.737    95085292.607    22893962.867
  22893966.981          46.430          41.930
  22448426.219    22448431.546   119957632.366    93300396.027    22448426.255
  22448431.975          44.930          42.870
  20791921.702    20791928.283   111222785.066    86506663.487    20791921.903
  20791927.935          39.500          45.000
  20100102.503    20100109.978   107484219.295    83598940.856    20100102.020
  20100109.160          41.060          50.250
 21 04 28 22 00 01.0000000  0 17G02G03G04G06G09G12G17G19G25G28R03R04
                                R05R09R11R19R20
  21543101.999                   113209816.0224   88215450.1324   21543100.904
  21543099.526          50.560          44.310
  24884387.617    24884394.122   130768365.6794  101897445.0354   24884387.322
  24884393.389          29.120          17.680
  24518548.551    24518549.731   128845863.1574  100399390.5614   24518548.359
  24518551.404          38.250          20.430
  20357363.736    20357366.611   106978709.5414   83360059.9394   20357363.598
  20357366.057          52.750          50.060
  24356797.335    24356802.499   127995857.9064   99737058.2724   24356796.794
  24356801.802          38.180          35.180
  21452875.231    21452874.645   112735649.0554   87845981.7974   21452874.807
  21452873.890          50.250          42.500
  22454395.215    22454395.277   117998674.0354   91947031.7544   22454394.772
  22454395.201          46.680          36.870
  20786639.480                   109234561.4934   85117832.1784   20786638.202
  20786637.503          49.750          44.430
  23931715.419    23931719.761   125762030.7864   97996400.5114   23931714.668
  23931718.745          38.930          21.870
  24621980.387                   129389368.5664  100822883.2184   24621979.574
  24621983.056          32.120           5.120
  22449165.392    22449171.986   120172200.259    93467280.964    22449165.776
  22449172.483          45.430          43.560
  20749176.437    20749182.501   111110923.343    86419665.860    20749176.898
  20749182.716          51.750          48.500
  22457241.725    22457248.202   120046863.389    93369813.244    22457241.685
  22457248.479          47.560          43.560
  22894746.144    22894750.669   122256657.287    95088548.809    22894746.801
  22894751.040          46.430          41.870
  22448040.685    22448046.418   119955573.045    93298794.338    22448040.877
  22448046.593          44.930          42.870
  20792304.321    20792310.737   111224830.675    86508254.509    20792304.227
  20792310.285          39.560          44.810
  20099853.577    20099861.293   107482889.134    83597906.272    20099853.232
  20099860.448          41.120          50.310
 21 04 28 22 00 02.0000000  0 17G02G03G04G06G09G12G17G19G25G28R03R04
                                R05R09R11R19R20
  21542865.794                   113208574.9414   88214483.0564   21542864.700
  21542863.353          50.560          44.370
  24885054.809    24885061.092   130771871.4134  101900176.7734   24885054.520
  24885060.515          29.310          17.370
  24518367.678    24518368.402   128844910.6124  100398648.3174   24518367.482
  24518370.088          38.430          20.370
  20357481.787    20357484.716   106979330.1374   83360543.5204   20357481.653
  20357484.152          52.680          50.060
  24356363.847    24356368.940   127993580.1654   99735283.4104   24356363.311
  24356368.358          38.250          35.250
  21452655.218    21452654.771   112734493.1944   87845081.1274   21452654.795
  21452653.939          50.180          42.560
  22454847.967    22454847.944   118001053.0434   91948885.5274   22454847.524
  22454847.903          46.560          36.870
  20786981.537                   109236359.0034   85119232.8364   20786980.259
  20786979.564          49.620          44.370
  23931151.091    23931155.433   125759065.5364   97994089.9254   23931150.340
  23931154.494          39.000          21.870
  24622666.218                   129392972.0064  100825691.0784   24622665.409
  24622668.766          32.180           5.870
  22449617.853    22449624.027   120174620.951    93469163.720    22449618.009
  22449624.639          45.620          43.560
  20748935.059    20748941.042   111109630.529    86418660.339    20748935.488
  20748941.283          51.620          48.430
  22456459.048    22456465.333   120042678.549    93366558.376    22456458.937
  22456465.677          47.620          43.810
  22895530.314    22895534.580   122260844.024    95091805.156    22895530.721
  22895535.170          46.310          41.750
  22447655.302    22447661.501   119953514.503    93297193.250    22447655.669
  22447661.381          45.000          42.750
  20792686.412    20792693.159   111226876.533    86509845.742    20792686.877
  20792692.743          39.430          44.870
  20099604.820    20099612.577   107481559.266    83596871.938    20099604.440
  20099611.777          41.180          50.250
 21 04 28 22 00 03.0000000  0 17G02G03G04G06G09G12G17G19G25G28R03R04
                                R05R09R11R19R20
  21542629.702                   113207334.1514   88213516.2074   21542628.607
  21542627.238          50.500          44.370
  24885721.913    24885727.824   130775377.2934  101902908.6304   24885721.623
  24885727.636          29.370          16.930
  24518187.043    24518187.252   128843958.6284  100397906.5164   24518186.847
  24518188.961          38.620          20.560
  20357599.905    20357602.892   106979951.1174   83361027.4014   20357599.771
  20357602.319          52.680          50.060
  24355930.529    24355935.568   127991302.7614   99733508.8144   24355929.988
  24355934.982          38.370          35.310
  21452435.237    21452435.017   112733338.0104   87844180.9844   21452434.813
  21452434.106          50.120          42.560
  22455300.794    22455300.713   118003432.3274   91950739.5144   22455300.352
  22455300.669          46.560          36.930
  20787323.567                   109238156.9414   85120633.8264   20787322.288
  20787321.693          49.500          44.430
  23930586.710    23930591.105   125756100.6614   97991779.6354   23930585.968
  23930590.331          39.120          21.810
  24623352.182                   129396575.4854  100828498.9564   24623351.369
  24623354.503          31.810           5.310
  22450070.609    22450076.256   120177042.343    93471047.030    22450070.331
  22450076.922          45.810          43.680
  20748693.757    20748699.945   111108338.564    86417655.479    20748694.190
  20748700.004          51.370          48.560
  22455676.183    22455682.656   120038493.955    93363303.702    22455676.237
  22455682.893          47.620          43.870
  22896314.628    22896318.795   122265030.928    95095061.643    22896314.552
  22896319.296          46.250          42.000
  22447270.166    22447276.351   119951456.742    93295592.765    22447270.644
  22447276.217          45.060          42.620
  20793068.972    20793075.729   111228922.656    86511437.167    20793069.201
  20793075.205          39.620          45.060
  20099356.131    20099363.968   107480229.727    83595837.856    20099355.930
  20099363.150          41.310          50.250
 21 04 28 22 00 04.0000000  0 17G02G03G04G06G09G12G17G19G25G28R03R04
                                R05R09R11R19R20
  21542393.623                   113206093.6474   88212549.5804   21542392.528
  21542391.181          50.500          44.430
  24886389.522    24886395.442   130778883.3884  101905640.6484   24886389.232
  24886394.829          29.180          17.000
  24518006.264    24518006.443   128843007.1704  100397165.1204   24518006.068
  24518007.887          38.560          20.500
  20357718.103    20357721.131   106980572.4934   83361511.5904   20357717.966
  20357720.554          52.620          50.120
  24355497.573    24355502.093   127989025.7314   99731734.5094   24355497.037
  24355501.700          38.560          35.370
  21452215.484    21452215.197   112732183.4964   87843281.3614   21452215.060
  21452214.414          50.000          42.620
  22455753.568    22455753.617   118005811.8804   91952593.7094   22455753.126
  22455753.488          46.500          36.930
  20787665.717                   109239955.3014   85122035.1464   20787664.439
  20787663.906          49.430          44.430
  23930022.556    23930026.675   125753136.1964   97989469.6654   23930021.810
  23930026.214          39.060          22.000
  24624037.991                   129400179.0704  100831306.9634   24624037.178
  24624040.276          31.930           5.560
  22450522.847    22450529.164   120179464.451    93472930.890    22450522.842
  22450529.441          45.750          43.430
  20748452.477    20748458.943   111107047.459    86416651.289    20748453.031
  20748458.836          51.180          48.620
  22454893.310    22454899.621   120034309.631    93360049.217    22454893.591
  22454900.095          47.750          43.870
  22897098.691    22897102.970   122269218.043    95098318.269    22897098.495
  22897103.395          46.180          41.810
  22446885.275    22446891.505   119949399.768    93293992.896    22446885.807
  22446891.264          45.180          42.560
  20793450.827    20793458.124   111230969.040    86513028.795    20793451.802
  20793457.726          39.810          44.930
  20099107.357    20099115.257   107478900.509    83594804.023    20099107.415
  20099114.613          41.370          50.310
 21 04 28 22 00 05.0000000  0 17G02G03G04G06G09G12G17G19G25G28R03R04
                                R05R09R11R19R20
  21542157.642                   113204853.4454   88211583.1904   21542156.547
  21542155.173          50.500          44.430
  24887056.858    24887062.201   130782389.7194  101908372.8534   24887056.572
  24887062.040          28.430          17.310
  24517825.494    24517825.869   128842056.2844  100396424.1604   24517825.293
  24517826.888          38.750          20.430
  20357836.414    20357839.414   106981194.2664   83361996.0884   20357836.280
  20357838.860          52.620          50.120
  24355064.590    24355068.637   127986749.0234   99729960.4524   24355064.058
  24355068.471          38.810          35.370
  21451995.842    21451995.547   112731029.6574   87842382.2664   21451995.418
  21451994.849          50.000          42.620
  22456206.405    22456206.601   118008191.7034   91954448.1164   22456205.963
  22456206.360          46.500          36.930
  20788007.962                   109241754.0744   85123436.7874   20788006.684
  20788006.204          49.430          44.430
  23929458.537    23929462.843   125750172.1494   97987160.0124   23929457.795
  23929462.195          39.120          22.060
  24624723.750                   129403782.6464  100834114.8984   24624722.937
  24624726.017          31.750           6.120
  22450975.616    22450981.831   120181887.290    93474815.319    22450975.455
  22450982.094          45.750          43.620
  20748211.318    20748218.070   111105757.217    86415647.768    20748211.997
  20748217.900          51.060          48.500
  22454110.726    22454116.653   120030125.590    93356794.965    22454110.999
  22454117.454          47.620          43.750
  22897882.602    22897887.387   122273405.323    95101575.059    22897882.477
  22897887.561          46.060          42.120
  22446500.703    22446506.745   119947343.571    93292393.631    22446501.163
  22446506.432          45.560          42.680
  20793833.512    20793840.734   111233015.683    86514620.633    20793834.309
  20793840.340          39.870          44.750
  20098858.582    20098866.755   107477571.624    83593770.439    20098858.833
  20098866.120          41.370          50.180
 21 04 28 22 00 06.0000000  0 17G02G03G04G06G09G12G17G19G25G28R03R04
                                R05R09R11R19R20
  21541921.656                   113203613.5314   88210617.0244   21541920.561
  21541919.219          50.430          44.430
  24887723.809    24887728.388   130785896.2154  101911105.1834   24887723.528
  24887729.287          29.250          17.310
  24517644.899    24517644.916   128841105.9384  100395683.6294   24517644.694
  24517645.994          38.870          20.620
  20357954.791    20357957.791   106981816.4264   83362480.8884   20357954.653
  20357957.250          52.620          50.120
  24354631.567    24354635.350   127984472.6734   99728186.6724   24354631.035
  24354635.310          38.930          35.370
  21451776.290    21451775.846   112729876.4904   87841483.6974   21451775.866
  21451775.413          49.930          42.620
  22456659.282    22456659.425   118010571.8044   91956302.7364   22456658.840
  22456659.277          46.500          36.930
  20788350.327                   109243553.2764   85124838.7604   20788349.049
  20788348.578          49.500          44.430
  23928894.577    23928898.895   125747208.4884   97984850.6684   23928893.834
  23928898.256          39.310          21.870
  24625409.876                   129407386.3214  100836922.9564   24625409.076
  24625411.789          32.000           5.430
  22451428.350    22451434.815   120184310.875    93476700.326    22451428.042
  22451434.958          45.750          43.560
  20747970.288    20747977.372   111104467.869    86414644.941    20747971.133
  20747977.121          51.120          48.560
  22453327.996    22453333.815   120025941.832    93353540.933    22453328.425
  22453334.768          47.560          43.930
  22898666.840    22898671.865   122277592.797    95104831.971    22898666.496
  22898671.722          45.930          42.120
  22446116.295    22446122.100   119945288.134    93290794.965    22446116.662
  22446121.640          45.750          42.500
  20794216.525    20794223.370   111235062.587    86516212.669    20794217.048
  20794222.959          39.930          45.000
  20098609.871    20098618.168   107476243.070    83592737.116    20098610.475
  20098617.708          41.370          50.180
 21 04 28 22 00 07.0000000  0 17G02G03G04G06G09G12G17G19G25G28R03R04
                                R05R09R11R19R20
  21541685.747                   113202373.9164   88209651.0924   21541684.656
  21541683.323          50.500          44.430
  24888390.546    24888395.921   130789402.9674  101913837.7134   24888390.265
  24888396.667          28.930          17.250
  24517464.459    24517464.589   128840156.1414  100394943.5264   24517464.249
  24517465.242          39.060          20.430
  20358073.240    20358076.244   106982438.9794   83362965.9934   20358073.106
  20358075.708          52.620          50.120
  24354198.969    24354202.112   127982196.6754   99726413.1694   24354198.433
  24354202.210          39.250          35.430
  21451556.876    21451556.339   112728724.0004   87840585.6534   21451556.452
  21451556.107          49.930          42.620
  22457112.186    22457112.288   118012952.1654   91958157.5594   22457111.744
  22457112.248          46.500          36.930
  20788692.827                   109245352.8934   85126241.0594   20788691.553
  20788691.038          49.560          44.430
  23928330.897    23928334.925   125744245.2494   97982541.6594   23928330.160
  23928334.353          39.430          21.930
  24626095.250                   129410990.0174  100839731.0824   24626094.477
  24626097.602          32.060           4.680
  22451881.303    22451887.875   120186735.168    93478585.894    22451880.860
  22451887.894          45.680          43.620
  20747729.688    20747736.807   111103179.438    86413642.821    20747730.493
  20747736.539          51.120          48.500
  22452545.332    22452551.237   120021758.332    93350287.108    22452545.945
  22452552.104          47.560          43.810
  22899450.939    22899456.081   122281780.437    95108089.019    22899450.639
  22899455.916          45.870          42.120
  22445732.250    22445737.760   119943233.504    93289196.926    22445732.366
  22445737.026          46.060          42.430
  20794599.609    20794606.012   111237109.743    86517804.909    20794599.712
  20794605.659          40.000          45.000
  20098361.405    20098369.797   107474914.817    83591704.045    20098362.192
  20098369.345          41.250          50.060
 21 04 28 22 00 08.0000000  0 17G02G03G04G06G09G12G17G19G25G28R03R04
                                R05R09R11R19R20
  21541449.864                   113201134.5924   88208685.3854   21541448.773
  21541447.480          50.500          44.430
  24889057.627    24889062.957   130792909.8914  101916570.3804   24889057.346
  24889064.021          28.620          17.370
  24517283.846    24517284.320   128839206.8794  100394203.8444   24517283.632
  24517284.700          38.930          20.500
  20358191.747    20358194.827   106983061.9254   83363451.4064   20358191.613
  20358194.250          52.680          50.120
  24353766.031    24353768.977   127979921.0234   99724639.9334   24353765.495
  24353769.178          39.180          35.430
  21451337.664    21451337.002   112727572.1764   87839688.1294   21451337.240
  21451336.917          49.930          42.620
  22457565.166    22457565.268   118015332.7924   91960012.5914   22457564.724
  22457565.273          46.560          36.930
  20789035.398                   109247152.9304   85127643.6854   20789034.120
  20789033.568          49.560          44.430
  23927767.347    23927771.054   125741282.3954   97980232.9404   23927766.615
  23927770.495          39.430          22.060
  24626781.179                   129414593.8144  100842539.2354   24626780.415
  24626783.383          32.060           5.680
  22452333.952    22452341.115   120189160.164    93480471.997    22452333.863
  22452340.914          45.560          43.370
  20747489.240    20747496.323   111101891.886    86412641.394    20747490.014
  20747496.122          51.120          48.560
  22451762.745    22451768.881   120017575.084    93347033.471    22451763.442
  22451769.530          47.560          43.930
  22900235.132    22900240.332   122285968.276    95111346.227    22900234.877
  22900239.997          45.750          41.930
  22445347.990    22445353.330   119941179.642    93287599.471    22445348.200
  22445352.543          46.250          42.370
  20794982.434    20794988.581   111239157.159    86519397.354    20794982.505
  20794988.434          40.060          44.930
  20098112.899    20098121.394   107473586.911    83590671.215    20098114.066
  20098120.978          41.370          50.180
 21 04 28 22 00 09.0000000  0 17G02G03G04G06G09G12G17G19G25G28R03R04
                                R05R09R11R19R20
  21541214.094                   113199895.5694   88207719.9114   21541212.998
  21541211.705          50.430          44.430
  24889725.111    24889731.094   130796417.0834  101919303.2654   24889724.834
  24889731.348          29.120          17.370
  24517103.349    24517103.988   128838258.1944  100393464.6094   24517103.121
  24517104.167          39.000          20.430
  20358310.357    20358313.415   106983685.2704   83363937.1304   20358310.223
  20358312.861          52.620          50.120
  24353332.789    24353336.232   127977645.7104   99722866.9594   24353332.248
  24353336.209          38.930          35.500
  21451118.546    21451117.803   112726421.0334   87838791.1354   21451118.121
  21451117.861          49.930          42.560
  22458018.315    22458018.288   118017713.6934   91961867.8354   22458017.874
  22458018.338          46.500          36.930
  20789378.085                   109248953.3944   85129046.6424   20789376.807
  20789376.184          49.430          44.430
  23927203.654    23927207.097   125738319.9384   97977924.5264   23927202.931
  23927206.708          39.560          22.120
  24627466.840                   129418197.5904  100845347.3434   24627466.089
  24627469.156          31.680           6.000
  22452786.878    22452794.161   120191585.858    93482358.654    22452786.918
  22452794.103          45.430          43.370
  20747249.185    20747255.969   111100605.212    86411640.647    20747249.691
  20747255.907          51.060          48.560
  22450980.416    22450986.491   120013392.092    93343780.036    22450980.926
  22450987.018          47.430          43.680
  22901019.321    22901024.552   122290156.296    95114603.576    22901019.155
  22901024.171          45.810          41.870
  22444964.137    22444969.061   119939126.574    93286002.646    22444964.150
  22444968.301          46.430          42.370
  20795365.567    20795371.397   111241204.851    86520989.987    20795365.388
  20795371.241          40.250          44.870
  20097864.715    20097873.053   107472259.309    83589638.635    20097865.703
  20097872.722          41.430          50.180
 21 04 28 22 00 10.0000000  0 17G02G03G04G06G09G12G17G19G25G28R03R04
                                R05R09R11R19R20
  21540978.381                   113198656.8344   88206754.6644   21540977.286
  21540975.988          50.500          44.430
  24890392.827    24890398.680   130799924.4624  101922036.2854   24890392.564
  24890398.796          29.250          17.060
  24516922.991    24516923.813   128837310.0294  100392725.7794   24516922.755
  24516923.706          38.930          20.430
  20358429.101    20358432.060   106984309.0074   83364423.1594   20358428.962
  20358431.550          52.680          50.120
  24352899.694    24352903.504   127975370.7394   99721094.2534   24352899.153
  24352903.298          39.120          35.500
  21450899.744    21450898.935   112725270.5664   87837894.6684   21450899.325
  21450898.935          50.000          42.620
  22458471.515    22458471.309   118020094.8554   91963723.2854   22458471.072
  22458471.456          46.500          36.930
  20789720.871                   109250754.2754   85130449.9274   20789719.597
  20789718.885          49.370          44.430
  23926640.123    23926643.588   125735357.8824   97975616.4254   23926639.395
  23926643.020          39.680          22.120
  24628152.438                   129421801.4974  100848155.5464   24628151.723
  24628154.964          31.750           5.560
  22453239.965    22453247.575   120194012.278    93484245.869    22453240.131
  22453247.410          45.370          43.500
  20747009.023    20747015.731   111099319.390    86410640.566    20747009.560
  20747015.848          51.000          48.500
  22450198.106    22450203.993   120009209.358    93340526.799    22450198.396
  22450204.516          47.310          43.750
  22901803.464    22901808.973   122294344.509    95117861.067    22901803.491
  22901808.427          45.870          42.000
  22444580.494    22444584.658   119937074.277    93284406.409    22444580.297
  22444584.162          46.370          42.370
  20795748.418    20795754.052   111243252.789    86522582.825    20795748.217
  20795754.056          40.180          45.060
  20097616.791    20097624.807   107470932.015    83588606.304    20097617.510
  20097624.471          41.370          50.180
 21 04 28 22 00 11.0000000  0 17G02G03G04G06G09G12G17G19G25G28R03R04
                                R05R09R11R19R20
  21540742.677                   113197418.3914   88205789.6444   21540741.582
  21540740.316          50.500          44.500
  24891060.467    24891066.164   130803432.0664  101924769.4844   24891060.213
  24891066.302          29.180          16.750
  24516742.923    24516743.491   128836362.4284  100391987.3884   24516742.673
  24516743.459          39.060          20.310
  20358547.889    20358550.795   106984933.1314   83364909.4894   20358547.755
  20358550.312          52.750          50.120
  24352466.389    24352470.771   127973096.1114   99719321.8174   24352465.840
  24352470.445          38.680          35.560
  21450681.087    21450680.111   112724120.7714   87836998.7234   21450680.662
  21450680.138          50.060          42.560
  22458924.811    22458924.485   118022476.2924   91965578.9484   22458924.370
  22458924.628          46.500          36.870
  20790063.674                   109252555.5734   85131853.5354   20790062.396
  20790061.657          49.370          44.430
  23926076.265    23926080.311   125732396.2374   97973308.6514   23926075.537
  23926079.453          39.680          22.120
  24628838.613                   129425405.4394  100850963.7994   24628837.929
  24628840.763          31.680           5.560
  22453693.383    22453700.997   120196439.448    93486133.655    22453693.531
  22453700.837          45.180          43.560
  20746768.924    20746775.556   111098034.432    86409641.153    20746769.577
  20746775.873          50.930          48.430
  22449415.684    22449421.669   120005026.903    93337273.783    22449415.943
  22449422.044          47.370          43.750
  22902587.800    22902593.246   122298532.888    95121118.692    22902587.903
  22902592.786          45.930          41.930
  22444196.717    22444200.336   119935022.759    93282810.797    22444196.574
  22444200.228          46.430          42.060
  20796131.359    20796136.935   111245300.983    86524175.869    20796131.158
  20796136.921          40.250          45.000
  20097369.049    20097376.748   107469605.049    83587574.222    20097369.349
  20097376.296          41.370          50.180
 21 04 28 22 00 12.0000000  0 17G02G03G04G06G09G12G17G19G25G28R03R04
                                R05R09R11R19R20
  21540507.018                   113196180.2444   88204824.8554   21540505.923
  21540504.688          50.500          44.500
  24891728.299    24891733.151   130806939.8664  101927502.8264   24891728.040
  24891733.915          28.930          16.680
  24516562.797    24516563.535   128835415.3824  100391249.4364   24516562.543
  24516563.311          39.120          20.120
  20358666.794    20358669.598   106985557.6504   83365396.1274   20358666.660
  20358669.146          52.810          50.120
  24352033.380    24352038.088   127970821.8404   99717549.6594   24352032.830
  24352037.659          38.680          35.620
  21450462.478    21450461.583   112722971.6514   87836103.3054   21450462.058
  21450461.480          50.060          42.620
  22459377.939    22459377.778   118024857.9954   91967434.8214   22459377.497
  22459377.845          46.560          36.810
  20790406.487                   109254357.2994   85133257.4764   20790405.209
  20790404.514          49.430          44.430
  23925512.844    23925516.963   125729434.9874   97971001.1804   23925512.117
  23925515.894          39.810          22.060
  24629524.480                   129429009.4294  100853772.1224   24629523.827
  24629526.559          31.750           5.870
  22454147.030    22454154.380   120198867.369    93488022.032    22454146.998
  22454154.344          45.310          43.750
  20746529.187    20746535.792   111096750.336    86408642.413    20746529.773
  20746536.132          50.930          48.620
  22448633.248    22448639.367   120000844.721    93334020.980    22448633.458
  22448639.609          47.250          43.810
  22903372.149    22903377.765   122302721.458    95124376.462    22903372.418
  22903377.108          45.930          42.120
  22443813.164    22443816.518   119932972.026    93281215.781    22443812.873
  22443816.527          46.250          42.310
  20796514.447    20796519.902   111247349.437    86525769.104    20796513.995
  20796519.848          40.430          45.000
  20097120.897    20097128.837   107468278.424    83586542.396    20097121.241
  20097128.202          41.310          50.120
 21 04 28 22 00 13.0000000  0 17G02G03G04G06G09G12G17G19G25G28R03R04
                                R05R09R11R19R20
  21540271.480                   113194942.3864   88203860.2894   21540270.389
  21540269.132          50.500          44.560
  24892395.850    24892400.733   130810447.8744  101930236.3334   24892395.596
  24892401.417          28.930          17.000
  24516382.698    24516383.691   128834468.8754  100390511.8964   24516382.439
  24516383.176          39.180          20.180
  20358785.761    20358788.534   106986182.5534   83365883.0634   20358785.623
  20358788.055          52.810          50.120
  24351600.384    24351605.418   127968547.9064   99715777.7674   24351599.839
  24351604.953          38.500          35.680
  21450243.968    21450243.180   112721823.2024   87835208.4094   21450243.548
  21450242.930          49.930          42.620
  22459831.179    22459831.133   118027239.9684   91969290.9024   22459830.736
  22459831.120          46.560          36.930
  20790749.379                   109256159.4304   85134661.7344   20790748.102
  20790747.452          49.370          44.430
  23924949.541    23924953.100   125726474.1434   97968694.0224   23924948.813
  23924952.412          39.930          21.870
  24630210.426                   129432613.4734  100856580.4904   24630209.787
  24630212.420          31.810           6.750
  22454600.693    22454607.914   120201296.010    93489910.974    22454600.662
  22454608.080          45.310          43.620
  20746289.526    20746296.221   111095467.127    86407644.364    20746290.130
  20746296.520          51.000          48.680
  22447850.759    22447856.977   119996662.804    93330768.368    22447851.027
  22447857.276          47.060          43.750
  22904156.526    22904162.084   122306910.202    95127634.375    22904156.933
  22904161.543          45.870          41.680
  22443429.409    22443432.643   119930922.077    93279621.380    22443429.319
  22443432.862          46.250          42.250
  20796897.719    20796902.861   111249398.150    86527362.547    20796896.995
  20796902.914          40.500          44.750
  20096872.740    20096880.930   107466952.122    83585510.830    20096873.151
  20096880.170          41.430          50.250
 21 04 28 22 00 14.0000000  0 17G02G03G04G06G09G12G17G19G25G28R03R04
                                R05R09R11R19R20
  21540036.018                   113193704.8264   88202895.9574   21540034.927
  21540033.625          50.560          44.620
  24893063.311    24893068.136   130813956.1254  101932970.0314   24893063.057
  24893069.034          28.620          17.000
  24516202.863    24516203.784   128833522.9184  100389774.7944   24516202.600
  24516203.126          39.180          20.120
  20358904.819    20358907.488   106986807.8524   83366370.3104   20358904.685
  20358907.041          52.870          50.180
  24351167.781    24351172.870   127966274.3094   99714006.1364   24351167.231
  24351172.306          38.430          35.870
  21450025.484    21450025.019   112720675.4244   87834314.0364   21450025.064
  21450024.518          49.870          42.620
  22460284.413    22460284.516   118029622.2124   91971147.1944   22460283.966
  22460284.440          46.500          37.000
  20791092.340                   109257961.9984   85136066.3314   20791091.061
  20791090.474          49.370          44.500
  23924386.439    23924389.622   125723513.6874   97966387.1804   23924385.702
  23924388.933          39.930          21.870
  24630896.717                   129436217.5384  100859388.8394   24630896.079
  24630898.283          31.500           7.120
  22455054.594    22455061.797   120203725.368    93491800.472    22455054.568
  22455061.922          45.370          43.500
  20746050.128    20746056.832   111094184.834    86406647.023    20746050.670
  20746057.042          51.060          48.560
  22447068.439    22447074.796   119992481.125    93327515.962    22447068.695
  22447075.006          46.810          43.810
  22904940.875    22904946.393   122311099.131    95130892.433    22904941.533
  22904945.941          45.810          42.120
  22443045.672    22443049.197   119928872.910    93278027.576    22443045.922
  22443049.465          46.250          42.000
  20797280.991    20797285.846   111251447.115    86528956.180    20797280.087
  20797286.038          40.370          45.060
  20096625.083    20096632.911   107465626.144    83584479.507    20096625.164
  20096632.138          41.500          50.060
 21 04 28 22 00 15.0000000  0 17G02G03G04G06G09G12G17G19G25G28R03R04
                                R05R09R11R19R20
  21539800.672                   113192467.5624   88201931.8554   21539799.581
  21539798.176          50.560          44.620
  24893730.830    24893736.483   130817464.5684  101935703.8814   24893730.576
  24893736.679          29.500          17.120
  24516023.260    24516023.667   128832577.5114  100389038.1144   24516022.988
  24516023.161          39.180          19.930
  20359023.934    20359026.558   106987433.5494   83366857.8654   20359023.800
  20359026.098          52.810          50.250
  24350735.152    24350740.142   127964001.0934   99712234.8044   24350734.607
  24350739.748          38.560          35.870
  21449807.050    21449806.737   112719528.3194   87833420.1884   21449806.626
  21449806.222          49.750          42.750
  22460737.675    22460737.938   118032004.7264   91973003.6964   22460737.227
  22460737.804          46.370          37.000
  20791435.411                   109259764.9784   85137471.2524   20791434.133
  20791433.573          49.250          44.620
  23923823.054    23923826.121   125720553.6484   97964080.6594   23923822.321
  23923825.558          39.810          21.750
  24631582.262                   129439821.6754  100862197.2284   24631581.628
  24631584.135          31.500           7.750
  22455508.705    22455515.663   120206155.421    93493690.509    22455508.540
  22455515.837          45.430          43.810
  20745810.901    20745817.632   111092903.399    86405650.350    20745811.358
  20745817.699          51.120          48.500
  22446286.102    22446292.418   119988299.697    93324263.739    22446286.313
  22446292.767          46.620          43.810
  22905725.386    22905730.778   122315288.245    95134150.632    22905726.065
  22905730.474          45.870          41.750
  22442662.087    22442665.948   119926824.524    93276434.390    22442662.602
  22442666.189          46.250          42.120
  20797663.891    20797668.988   111253496.331    86530550.019    20797663.118
  20797669.203          40.310          45.060
  20096377.078    20096384.969   107464300.457    83583448.425    20096377.275
  20096384.155          41.370          50.120
 21 04 28 22 00 16.0000000  0 17G02G03G04G06G09G12G17G19G25G28R03R04
                                R05R09R11R19R20
  21539565.389                   113191230.5884   88200967.9804   21539564.297
  21539562.785          50.620          44.750
  24894398.390    24894404.104   130820973.2304  101938437.9014   24894398.136
  24894404.351          28.750          17.180
  24515843.340    24515843.854   128831632.6484  100388301.8664   24515843.054
  24515843.389          39.310          20.000
  20359143.093    20359145.713   106988059.6354   83367345.7234   20359142.959
  20359145.235          52.810          50.370
  24350302.715    24350307.566   127961728.2094   99710463.7294   24350302.174
  24350307.248          38.750          36.060
  21449588.834    21449588.463   112718381.8874   87832526.8654   21449588.414
  21449588.056          49.680          42.870
  22461191.061    22461191.464   118034387.5084   91974860.4084   22461190.614
  22461191.226          46.310          37.120
  20791778.501                   109261568.3854   85138876.5044   20791777.223
  20791776.748          49.310          44.680
  23923259.688    23923262.952   125717594.0074   97961774.4534   23923258.951
  23923262.277          39.680          21.870
  24632268.209                   129443425.8804  100865005.6644   24632267.579
  24632270.001          30.810           8.000
  22455963.009    22455969.725   120208586.178    93495581.099    22455962.736
  22455969.939          45.370          43.750
  20745571.880    20745578.520   111091622.828    86404654.353    20745572.251
  20745578.588          51.180          48.560
  22445503.797    22445510.340   119984118.526    93321011.723    22445503.971
  22445510.667          46.500          43.870
  22906509.874    22906515.101   122319477.506    95137408.938    22906510.527
  22906515.096          45.930          42.060
  22442278.659    22442282.609   119924776.901    93274841.788    22442279.487
  22442282.949          46.250          42.180
  20798046.671    20798052.197   111255545.818    86532144.062    20798046.157
  20798052.340          40.060          45.250
  20096129.184    20096137.053   107462975.098    83582417.595    20096129.529
  20096136.266          41.370          50.120
 21 04 28 22 00 17.0000000  0 17G02G03G04G06G09G12G17G19G25G28R03R04
                                R05R09R11R19R20
  21539330.092                   113189993.9024   88200004.3294   21539329.000
  21539327.453          50.560          44.750
  24895066.656    24895071.910   130824482.1054  101941172.0894   24895066.411
  24895071.995          28.560          16.500
  24515663.907    24515664.139   128830688.3364  100387566.0424   24515663.612
  24515663.585          39.370          20.120
  20359262.338    20359264.967   106988686.1134   83367833.8874   20359262.204
  20359264.444          52.750          50.370
  24349870.380    24349875.066   127959455.6704   99708692.9224   24349869.844
  24349874.825          38.810          36.060
  21449370.713    21449370.324   112717236.1244   87831634.0634   21449370.290
  21449370.024          49.620          42.870
  22461644.457    22461645.078   118036770.5584   91976717.3294   22461644.010
  22461644.707          46.310          37.060
  20792121.738                   109263372.2054   85140282.0784   20792120.461
  20792120.003          49.180          44.680
  23922696.599    23922699.773   125714634.7694   97959468.5554   23922695.848
  23922699.152          39.810          21.870
  24632954.026                   129447030.0994  100867814.1454   24632953.396
  24632955.877          31.810           8.680
  22456417.312    22456423.943   120211017.666    93497472.235    22456417.040
  22456424.149          45.370          43.680
  20745333.068    20745339.525   111090343.111    86403659.016    20745333.341
  20745339.566          51.310          48.560
  22444721.486    22444728.513   119979937.638    93317759.926    22444721.849
  22444728.634          46.500          43.680
  22907294.465    22907299.517   122323666.956    95140667.406    22907295.095
  22907299.727          45.930          41.620
  22441895.490    22441899.753   119922730.090    93273249.828    22441896.389
  22441899.914          46.310          42.120
  20798429.308    20798435.304   111257595.558    86533738.305    20798429.388
  20798435.568          40.060          44.930
  20095881.251    20095889.352   107461650.052    83581387.003    20095881.658
  20095888.436          41.370          50.060
 21 04 28 22 00 18.0000000  0 17G02G03G04G06G09G12G17G19G25G28R03R04
                                R05R09R11R19R20
  21539094.866                   113188757.5134   88199040.9094   21539093.775
  21539092.174          50.430          44.750
  24895734.985    24895739.801   130827991.2044  101943906.4604   24895734.731
  24895739.707          28.930          16.560
  24515484.309    24515484.492   128829744.5654  100386830.6464   24515484.001
  24515483.942          39.560          20.060
  20359381.663    20359384.301   106989312.9814   83368322.3564   20359381.530
  20359383.729          52.680          50.370
  24349438.256    24349442.758   127957183.4704   99706922.3784   24349437.720
  24349442.454          39.250          36.120
  21449152.744    21449152.381   112716091.0384   87830741.7874   21449152.324
  21449152.122          49.500          42.870
  22462097.929    22462098.630   118039153.8794   91978574.4614   22462097.487
  22462098.233          46.180          37.060
  20792465.074                   109265176.4534   85141687.9864   20792463.796
  20792463.334          49.250          44.620
  23922133.398    23922136.523   125711675.9154   97957162.9544   23922132.643
  23922136.031          39.560          21.870
  24633639.835                   129450634.4184  100870622.6944   24633639.214
  24633641.757          31.620           7.750
  22456871.661    22456878.363   120213449.871    93499363.948    22456871.459
  22456878.488          45.370          43.560
  20745094.436    20745100.746   111089064.276    86402664.369    20745094.538
  20745100.728          51.370          48.560
  22443939.091    22443946.292   119975757.039    93314508.354    22443939.726
  22443946.538          46.370          44.000
  22908079.194    22908084.220   122327856.599    95143926.023    22908079.780
  22908084.305          46.060          42.000
  22441512.625    22441517.031   119920684.054    93271658.461    22441513.542
  22441517.053          46.180          41.930
  20798812.361    20798818.517   111259645.550    86535332.756    20798812.687
  20798818.803          40.060          44.870
  20095633.295    20095641.548   107460325.333    83580356.661    20095633.876
  20095640.689          41.430          50.120
 21 04 28 22 00 19.0000000  0 17G02G03G04G06G09G12G17G19G25G28R03R04
                                R05R09R11R19R20
  21538859.650                   113187521.4154   88198077.7174   21538858.559
  21538856.953          50.430          44.750
  24896402.589    24896407.346   130831500.4934  101946640.9714   24896402.330
  24896407.472          28.370          16.430
  24515304.675    24515304.979   128828801.3504  100386095.6744   24515304.362
  24515304.420          39.500          20.180
  20359500.953    20359503.685   106989940.2394   83368811.1284   20359500.819
  20359503.085          52.620          50.370
  24349006.319    24349009.852   127954911.6234   99705152.1084   24349005.788
  24349010.138          39.250          36.180
  21448934.927    21448934.641   112714946.6234   87829850.0344   21448934.503
  21448934.345          49.500          42.870
  22462551.418    22462552.192   118041537.4694   91980431.8044   22462550.971
  22462551.803          46.120          37.060
  20792808.503                   109266981.1114   85143094.2134   20792807.226
  20792806.746          49.250          44.620
  23921570.434    23921573.407   125708717.4914   97954857.6884   23921569.683
  23921573.027          39.560          21.750
  24634325.808                   129454238.7524  100873431.3114   24634325.178
  24634327.664          31.180           7.500
  22457326.375    22457332.975   120215882.799    93501256.238    22457326.044
  22457332.943          45.370          43.500
  20744855.843    20744862.144   111087786.332    86401670.411    20744855.901
  20744862.010          51.430          48.680
  22443157.098    22443164.679   119971576.710    93311256.990    22443157.612
  22443164.510          46.430          43.870
  22908863.919    22908868.672   122332046.409    95147184.753    22908864.429
  22908869.003          46.060          41.930
  22441129.962    22441134.524   119918638.798    93270067.703    22441130.727
  22441134.238          46.180          42.120
  20799195.954    20799202.044   111261695.823    86536927.394    20799195.999
  20799202.062          40.250          45.060
  20095385.929    20095393.775   107459000.922    83579326.572    20095386.189
  20095393.029          41.620          50.060
 21 04 28 22 00 20.0000000  0 17G02G03G04G06G09G12G17G19G25G28R03R04
                                R05R09R11R19R20
  21538624.411                   113186285.6084   88197114.7504   21538623.320
  21538621.782          50.430          44.750
  24897070.207    24897075.121   130835010.0314  101949375.6844   24897069.957
  24897075.215          29.120          16.620
  24515125.345    24515125.630   128827858.7044  100385361.1414   24515125.015
  24515124.920          39.370          20.120
  20359620.305    20359623.131   106990567.8934   83369300.2094   20359620.171
  20359622.523          52.620          50.370
  24348574.361    24348577.227   127952640.1454   99703382.1244   24348573.829
  24348577.897          39.060          36.250
  21448717.186    21448717.065   112713802.8794   87828958.8064   21448716.766
  21448716.693          49.430          42.870
  22463005.069    22463005.869   118043921.3244   91982289.3554   22463004.622
  22463005.426          46.060          37.060
  20793152.085                   109268786.1944   85144500.7704   20793150.811
  20793150.242          49.250          44.620
  23921007.470    23921010.689   125705759.4674   97952552.7274   23921006.719
  23921010.104          39.430          21.500
  24635011.554                   129457843.1354  100876239.9414   24635010.915
  24635013.574          31.750           8.310
  22457780.947    22457787.560   120218316.451    93503149.071    22457780.849
  22457787.475          45.560          43.120
  20744617.354    20744623.516   111086509.275    86400677.149    20744617.461
  20744623.489          51.370          48.500
  22442375.020    22442382.727   119967396.617    93308005.802    22442375.646
  22442382.592          46.620          43.680
  22909648.823    22909653.590   122336236.405    95150443.644    22909649.109
  22909653.545          46.120          41.930
  22440747.423    22440751.843   119916594.335    93268477.562    22440748.063
  22440751.646          46.180          42.310
  20799578.948    20799585.579   111263746.342    86538522.241    20799579.463
  20799585.364          40.370          44.930
  20095138.322    20095146.012   107457676.839    83578296.724    20095138.501
  20095145.399          41.620          50.060
 21 04 28 22 00 21.0000000  0 17G02G03G04G06G09G12G17G19G25G28R03R04
                                R05R09R11R19R20
  21538389.249                   113185050.0994   88196152.0174   21538388.158
  21538386.673          50.430          44.750
  24897738.084    24897743.597   130838519.7394  101952110.5204   24897737.834
  24897743.078          29.000          16.620
  24514945.854    24514946.090   128826916.5784  100384627.0244   24514945.515
  24514945.594          39.310          20.120
  20359739.729    20359742.679   106991195.9334   83369789.5904   20359739.595
  20359742.027          52.560          50.370
  24348142.219    24348144.932   127950368.9924   99701612.3944   24348141.687
  24348145.715          39.180          36.250
  21448499.646    21448499.494   112712659.8144   87828068.1074   21448499.225
  21448499.180          49.560          42.870
  22463458.823    22463459.708   118046305.4494   91984147.1134   22463458.380
  22463459.095          46.060          37.060
  20793495.729                   109270591.7014   85145907.6594   20793494.452
  20793493.820          49.370          44.620
  23920444.739    23920448.178   125702801.8274   97950248.0754   23920443.984
  23920447.247          39.310          21.250
  24635697.098                   129461447.5634  100879048.5574   24635696.472
  24635699.450          31.620           8.180
  22458235.805    22458242.261   120220750.801    93505042.454    22458235.684
  22458242.181          45.810          43.060
  20744379.034    20744385.067   111085233.095    86399684.566    20744379.195
  20744385.085          51.430          48.680
  22441593.175    22441601.029   119963216.769    93304754.815    22441593.738
  22441600.689          46.750          44.000
  22910433.781    22910438.457   122340426.562    95153702.646    22910433.803
  22910438.207          46.060          41.870
  22440364.773    22440369.407   119914550.652    93266888.028    22440365.502
  22440369.184          46.310          42.060
  20799962.471    20799969.106   111265797.123    86540117.298    20799962.958
  20799968.708          40.310          44.870
  20094890.786    20094898.387   107456353.089    83577267.134    20094891.006
  20094897.819          41.620          50.060
 21 04 28 22 00 22.0000000  0 17G02G03G04G06G09G12G17G19G25G28R03R04
                                R05R09R11R19R20
  21538154.145                   113183814.8834   88195189.5124   21538153.058
  21538151.618          50.430          44.750
  24898405.858    24898411.496   130842029.6714  101954845.5454   24898405.613
  24898410.942          29.120          16.500
  24514766.403    24514766.814   128825975.0214  100383893.3494   24514766.059
  24514766.380          39.430          19.870
  20359859.269    20359862.215   106991824.3714   83370279.2834   20359859.135
  20359861.611          52.620          50.370
  24347710.122    24347713.019   127948098.1934   99699842.9384   24347709.589
  24347713.600          38.870          36.310
  21448282.235    21448282.217   112711517.4224   87827177.9304   21448281.820
  21448281.783          49.560          42.870
  22463912.553    22463913.246   118048689.8524   91986005.0904   22463912.107
  22463912.821          46.120          37.060
  20793839.589                   109272397.6344   85147314.8794   20793838.310
  20793837.482          49.310          44.620
  23919882.016    23919884.668   125699844.6214   97947943.7594   23919881.262
  23919884.368          39.120          21.180
  24636382.486                   129465052.0734  100881857.2194   24636381.838
  24636385.357          31.180           8.000
  22458690.797    22458697.240   120223185.871    93506936.391    22458690.703
  22458697.030          46.060          43.430
  20744140.826    20744146.684   111083957.781    86398692.660    20744141.041
  20744146.886          51.430          48.560
  22440811.432    22440819.233   119959037.197    93301504.036    22440811.880
  22440818.853          46.930          43.680
  22911218.394    22911222.959   122344616.922    95156961.816    22911218.505
  22911222.874          46.120          42.000
  22439982.575    22439986.953   119912507.751    93265299.113    22439983.179
  22439986.860          46.180          42.180
  20800346.619    20800352.552   111267848.193    86541712.564    20800346.386
  20800352.194          40.430          45.000
  20094643.251    20094650.811   107455029.665    83576237.806    20094643.488
  20094650.368          41.680          50.120
 21 04 28 22 00 23.0000000  0 17G02G03G04G06G09G12G17G19G25G28R03R04
                                R05R09R11R19R20
  21537919.116                   113182579.9734   88194227.2454   21537918.025
  21537916.625          50.430          44.750
  24899073.458    24899079.030   130845539.8134  101957580.6944   24899073.208
  24899078.770          29.310          16.370
  24514587.266    24514587.931   128825034.0154  100383160.1064   24514586.908
  24514587.328          39.370          19.750
  20359978.880    20359981.871   106992453.2014   83370769.2794   20359978.746
  20359981.267          52.680          50.370
  24347278.020    24347281.154   127945827.7434   99698073.7574   24347277.492
  24347281.560          38.810          36.180
  21448065.048    21448065.089   112710375.7064   87826288.2804   21448064.634
  21448064.521          49.680          42.870
  22464366.338    22464367.161   118051074.5234   91987863.2734   22464365.896
  22464366.615          46.250          37.060
  20794183.371                   109274203.9854   85148722.4274   20794182.097
  20794181.215          49.430          44.620
  23919319.191    23919321.776   125696887.8004   97945639.7544   23919318.436
  23919321.552          39.060          21.000
  24637068.487                   129468656.6604  100884666.0014   24637067.830
  24637071.290          31.060           7.370
  22459145.892    22459152.120   120225621.668    93508830.912    22459145.838
  22459152.057          46.180          43.060
  20743902.860    20743908.633   111082683.346    86397701.430    20743903.075
  20743908.897          51.560          48.560
  22440029.842    22440037.437   119954857.911    93298253.487    22440030.074
  22440037.012          47.120          43.870
  22912003.047    22912007.675   122348807.463    95160221.118    22912003.244
  22912007.518          46.060          42.060
  22439600.533    22439604.965   119910465.624    93263710.799    22439600.895
  22439604.603          46.060          42.250
  20800730.231    20800736.056   111269899.509    86543308.039    20800729.569
  20800735.640          40.250          45.060
  20094396.100    20094403.391   107453706.554    83575208.719    20094396.122
  20094402.985          41.620          50.120
 21 04 28 22 00 24.0000000  0 17G02G03G04G06G09G12G17G19G25G28R03R04
                                R05R09R11R19R20
  21537684.155                   113181345.3724   88193265.2194   21537683.063
  21537681.695          50.430          44.750
  24899741.715    24899746.889   130849050.1764  101960316.0474   24899741.461
  24899746.777          29.310          16.310
  24514408.123    24514408.982   128824093.5634  100382427.2924   24514407.758
  24514408.454          39.180          19.620
  20360098.657    20360101.559   106993082.4234   83371259.5824   20360098.523
  20360101.000          52.680          50.310
  24346845.922    24346849.638   127943557.6404   99696304.8464   24346845.390
  24346849.589          38.680          36.250
  21447848.036    21447847.987   112709234.6634   87825399.1554   21447847.622
  21447847.383          49.750          42.870
  22464820.266    22464821.075   118053459.4604   91989721.6634   22464819.824
  22464820.462          46.310          37.120
  20794527.199                   109276010.7554   85150130.2984   20794525.925
  20794525.034          49.370          44.620
  23918756.563    23918759.742   125693931.3844   97943336.0464   23918755.812
  23918758.771          38.750          21.060
  24637754.219                   129472261.2534  100887474.7944   24637753.567
  24637757.215          31.180           7.120
  22459601.313    22459607.090   120228058.212    93510725.989    22459601.009
  22459607.260          46.430          43.060
  20743665.010    20743670.725   111081409.781    86396710.877    20743665.229
  20743671.047          51.680          48.560
  22439248.341    22439255.444   119950678.922    93295003.161    22439248.359
  22439255.194          47.250          43.930
  22912787.799    22912792.521   122352998.171    95163480.556    22912788.018
  22912792.288          46.120          41.870
  22439218.517    22439223.071   119908424.290    93262123.093    22439218.764
  22439222.610          46.000          42.060
  20801114.275    20801119.610   111271951.084    86544903.709    20801113.202
  20801119.122          40.180          45.060
  20094148.913    20094156.048   107452383.776    83574179.890    20094148.690
  20094155.637          41.750          50.000
 21 04 28 22 00 25.0000000  0 17G02G03G04G06G09G12G17G19G25G28R03R04
                                R05R09R11R19R20
  21537449.287                   113180111.0594   88192303.4174   21537448.196
  21537446.809          50.680          44.810
  24900410.335    24900414.587   130852560.7504  101963051.5584   24900410.085
  24900414.846          29.870          16.120
  24514228.999    24514230.631   128823153.6544  100381694.8894   24514228.624
  24514229.575          39.310          19.560
  20360218.483    20360221.335   106993712.0274   83371750.1824   20360218.345
  20360220.808          52.870          50.370
  24346413.467    24346418.059   127941287.8874   99694536.2114   24346412.940
  24346417.684          38.430          36.250
  21447631.082    21447630.894   112708094.2894   87824510.5514   21447630.667
  21447630.376          50.000          42.930
  22465274.283    22465274.815   118055844.6624   91991580.2614   22465273.841
  22465274.359          46.430          37.180
  20794871.021                   109277817.9384   85151538.4914   20794869.748
  20794868.929          49.560          44.680
  23918193.876    23918197.064   125690975.3724   97941032.6574   23918193.125
  23918196.116          38.870          20.680
  24638439.674                   129475865.8814  100890283.5814   24638439.035
  24638443.148          31.310           6.370
  22460056.686    22460062.677   120230495.467    93512621.636    22460056.408
  22460062.578          46.620          43.000
  20743427.312    20743433.085   111080137.080    86395721.000    20743427.576
  20743433.345          51.680          48.620
  22438466.827    22438473.692   119946500.202    93291753.051    22438466.728
  22438473.366          47.370          43.870
  22913572.726    22913577.559   122357189.052    95166740.133    22913572.770
  22913577.053          46.060          41.620
  22438836.659    22438841.311   119906383.716    93260535.982    22438836.753
  22438840.725          45.870          42.250
  20801497.176    20801503.158   111274002.934    86546499.592    20801496.792
  20801502.689          40.250          45.000
  20093901.516    20093908.732   107451061.317    83573151.315    20093901.493
  20093908.352          41.680          50.060
 21 04 28 22 00 26.0000000  0 17G02G03G04G06G09G12G17G19G25G28R03R04
                                R05R09R11R19R20
  21537214.491                   113178877.0414   88191341.8454   21537213.400
  21537211.982          50.620          44.870
  24901079.075    24901083.532   130856071.5484  101965787.2564   24901078.821
  24901082.920          29.870          16.120
  24514050.014    24514052.209   128822214.2984  100380962.9214   24514049.629
  24514050.787          39.000          19.370
  20360338.430    20360341.188   106994342.0354   83372241.0974   20360338.296
  20360340.692          52.930          50.370
  24345981.303    24345986.288   127939018.4774   99692767.8414   24345980.775
  24345985.841          38.680          36.180
  21447414.280    21447413.931   112706954.5914   87823622.4754   21447413.860
  21447413.497          50.000          42.930
  22465728.296    22465728.698   118058230.1364   91993439.0704   22465727.854
  22465728.300          46.500          37.120
  20795215.019                   109279625.5534   85152947.0224   20795213.741
  20795212.904          49.560          44.620
  23917631.136    23917634.100   125688019.7604   97938729.5844   23917630.399
  23917633.644          38.810          20.500
  24639126.117                   129479470.5704  100893092.4324   24639125.500
  24639129.100          31.250           5.870
  22460512.259    22460518.156   120232933.411    93514517.819    22460511.816
  22460517.959          46.810          42.930
  20743189.761    20743195.584   111078865.263    86394731.808    20743190.097
  20743195.776          51.680          48.620
  22437685.294    22437691.928   119942321.732    93288503.137    22437685.160
  22437691.736          47.500          43.810
  22914357.687    22914362.257   122361380.132    95169999.865    22914357.558
  22914361.980          46.000          42.000
  22438454.805    22438459.657   119904343.940    93258949.491    22438454.939
  22438458.911          45.750          42.250
  20801880.425    20801886.699   111276055.040    86548095.673    20801880.296
  20801886.238          40.060          44.930
  20093653.940    20093661.469   107449739.184    83572122.984    20093654.222
  20093661.138          41.680          50.180
 21 04 28 22 00 27.0000000  0 17G02G03G04G06G09G12G17G19G25G28R03R04
                                R05R09R11R19R20
  21536979.726                   113177643.3174   88190380.5024   21536978.635
  21536977.204          50.560          44.870
  24901747.462    24901752.425   130859582.5454  101968523.1034   24901747.207
  24901751.057          29.870          16.060
  24513870.930    24513873.492   128821275.4904  100380231.3774   24513870.540
  24513872.101          38.430          19.310
  20360458.417    20360461.144   106994972.4254   83372732.3094   20360458.283
  20360460.648          52.810          50.370
  24345549.402    24345554.750   127936749.4244   99690999.7514   24345548.875
  24345554.079          38.120          36.120
  21447197.514    21447197.214   112705815.5724   87822734.9274   21447197.099
  21447196.744          50.000          42.930
  22466182.407    22466182.684   118060615.8774   91995298.0894   22466181.965
  22466182.300          46.560          37.180
  20795559.061                   109281433.5934   85154355.8834   20795557.783
  20795556.964          49.500          44.680
  23917068.682    23917071.539   125685064.5474   97936426.8164   23917067.945
  23917071.333          38.750          20.560
  24639811.778                   129483075.3604  100895901.3734   24639811.179
  24639815.078          31.560           5.680
  22460967.734    22460973.631   120235372.076    93516414.555    22460967.327
  22460973.488          46.750          43.180
  20742952.510    20742958.320   111077594.332    86393743.306    20742952.676
  20742958.427          51.500          48.560
  22436903.824    22436910.386   119938143.507    93285253.408    22436903.614
  22436910.029          47.500          43.620
  22915142.627    22915147.277   122365571.386    95173259.716    22915142.417
  22915146.799          46.000          41.930
  22438073.049    22438077.737   119902304.951    93257363.600    22438073.362
  22438077.254          45.620          42.310
  20802264.126    20802270.596   111278107.419    86549691.960    20802263.774
  20802269.912          40.120          45.000
  20093406.758    20093414.528   107448417.353    83571094.900    20093407.160
  20093413.973          41.620          50.180
 21 04 28 22 00 28.0000000  0 17G02G03G04G06G09G12G17G19G25G28R03R04
                                R05R09R11R19R20
  21536745.015                   113176409.8874   88189419.3884   21536743.924
  21536742.488          50.560          44.810
  24902415.616    24902420.110   130863093.7604  101971259.1024   24902415.362
  24902419.179          29.810          16.250
  24513691.595    24513694.881   128820337.2374  100379500.2764   24513691.198
  24513693.576          38.250          19.000
  20360578.471    20360581.172   106995603.2094   83373223.8294   20360578.337
  20360580.671          52.810          50.370
  24345117.636    24345123.082   127934480.7054   99689231.9224   24345117.109
  24345122.370          38.430          36.060
  21446980.899    21446980.434   112704677.2264   87821847.9044   21446980.484
  21446980.121          49.870          42.930
  22466636.581    22466636.594   118063001.8834   91997157.3134   22466636.139
  22466636.339          46.500          37.180
  20795903.130                   109283242.0514   85155765.0704   20795901.852
  20795901.104          49.430          44.620
  23916506.331    23916509.331   125682109.7514   97934124.3814   23916505.603
  23916509.036          38.500          20.500
  24640498.539                   129486680.2034  100898710.3144   24640497.927
  24640501.092          31.060           4.680
  22461422.963    22461429.272   120237811.483    93518311.870    22461422.958
  22461429.102          46.620          43.060
  20742715.210    20742721.288   111076324.270    86392755.481    20742715.448
  20742721.270          51.250          48.620
  22436122.418    22436128.773   119933965.543    93282003.881    22436122.051
  22436128.492          47.680          43.620
  22915927.554    22915931.949   122369762.822    95176519.731    22915927.263
  22915931.685          46.120          42.000
  22437691.508    22437696.388   119900266.735    93255778.335    22437691.852
  22437695.775          45.810          42.180
  20802647.658    20802654.467   111280160.053    86551288.452    20802647.515
  20802653.564          40.120          44.930
  20093159.687    20093167.511   107447095.860    83570067.070    20093160.068
  20093166.840          41.680          50.250
 21 04 28 22 00 29.0000000  0 17G02G03G04G06G09G12G17G19G25G28R03R04
                                R05R09R11R19R20
  21536510.358                   113175176.7464   88188458.4984   21536509.272
  21536507.827          50.620          44.870
  24903083.779    24903088.706   130866605.1714  101973995.2424   24903083.525
  24903087.356          30.250          15.680
  24513512.583    24513516.271   128819399.5344  100378769.5974   24513512.186
  24513515.109          37.870          19.310
  20360698.633    20360701.311   106996234.3834   83373715.6524   20360698.498
  20360700.774          52.810          50.370
  24344686.334    24344691.454   127932212.3474   99687464.3724   24344685.811
  24344690.707          38.370          36.000
  21446764.383    21446764.057   112703539.5524   87820961.4064   21446763.969
  21446763.632          49.930          42.930
  22467090.768    22467090.557   118065388.1694   91999016.7564   22467090.326
  22467090.446          46.560          37.180
  20796247.289                   109285050.9284   85157174.5844   20796246.011
  20796245.325          49.370          44.680
  23915944.051    23915946.935   125679155.3544   97931822.2424   23915943.327
  23915946.872          38.560          20.680
  24641184.352                   129490285.0354  100901519.2824   24641183.726
  24641187.097          30.870           5.870
  22461878.590    22461885.060   120240251.624    93520209.754    22461878.666
  22461884.899          46.430          43.060
  20742478.093    20742484.247   111075055.092    86391768.342    20742478.402
  20742484.296          51.120          48.370
  22435340.774    22435347.067   119929787.852    93278754.564    22435340.514
  22435346.937          47.750          43.620
  22916712.556    22916716.651   122373954.426    95179779.855    22916712.095
  22916716.535          46.060          41.620
  22437310.270    22437314.967   119898229.301    93254193.666    22437310.490
  22437314.524          45.930          42.180
  20803031.672    20803038.378   111282212.928    86552885.141    20803031.336
  20803037.417          40.250          45.060
  20092912.492    20092920.508   107445774.681    83569039.486    20092912.961
  20092919.761          41.680          50.120
 21 04 28 22 00 30.0000000  0 17G02G03G04G06G09G12G17G19G25G28R03R04
                                R05R09R11R19R20
  21536275.799                   113173943.8954   88187497.8354   21536274.708
  21536273.223          50.620          44.870
  24903752.135    24903757.425   130870116.7974  101976731.5684   24903751.876
  24903755.595          30.060          16.060
  24513333.499    24513337.693   128818462.3694  100378039.3424   24513333.102
  24513336.780          37.680          19.560
  20360818.843    20360821.526   106996865.9494   83374207.7814   20360818.709
  20360820.953          52.810          50.370
  24344255.109    24344259.848   127929944.3344   99685697.0934   24344254.591
  24344259.106          38.370          35.870
  21446548.100    21446547.719   112702402.5504   87820075.4304   21446547.685
  21446547.268          50.000          42.930
  22467544.893    22467544.584   118067774.7234   92000876.4084   22467544.451
  22467544.597          46.620          37.180
  20796591.523                   109286860.2274   85158584.4264   20796590.245
  20796589.627          49.310          44.680
  23915381.936    23915385.062   125676201.3494   97929520.4234   23915381.208
  23915384.677          38.500          20.870
  24641871.135                   129493889.9544  100904328.2904   24641870.518
  24641873.106          30.750           6.750
  22462334.315    22462341.148   120242692.469    93522108.197    22462334.548
  22462340.879          46.310          43.060
  20742241.165    20742247.385   111073786.789    86390781.886    20742241.474
  20742247.448          51.000          48.370
  22434559.460    22434565.472   119925610.414    93275505.456    22434559.089
  22434565.525          47.750          43.370
  22917497.621    22917501.506   122378146.188    95183040.117    22917497.147
  22917501.390          46.000          41.750
  22436929.306    22436933.533   119896192.664    93252609.614    22436929.378
  22436933.493          46.120          42.000
  20803415.650    20803422.231   111284266.070    86554482.021    20803415.216
  20803421.324          40.310          45.000
  20092665.958    20092673.558   107444453.821    83568012.154    20092665.734
  20092672.753          41.560          50.120
 21 04 28 22 00 31.0000000  0 17G02G03G04G06G09G12G17G19G25G28R03R04
                                R05R09R11R19R20
  21536041.258                   113172711.3394   88186537.4034   21536040.172
  21536038.673          50.680          44.870
  24904421.094    24904425.171   130873628.6344  101979468.0624   24904420.831
  24904423.879          30.180          16.060
  24513154.625    24513159.324   128817525.7734  100377309.5274   24513154.232
  24513158.555          37.680          19.500
  20360939.125    20360941.817   106997497.9094   83374700.2184   20360938.991
  20360941.199          52.810          50.370
  24343823.571    24343828.279   127927676.6774   99683930.0934   24343823.052
  24343827.577          38.560          35.810
  21446331.987    21446331.521   112701266.2284   87819189.9854   21446331.571
  21446331.029          50.000          42.930
  22467999.107    22467998.941   118070161.5434   92002736.2674   22467998.664
  22467998.793          46.620          37.250
  20796935.887                   109288669.9424   85159994.5924   20796934.609
  20796934.009          49.370          44.680
  23914819.996    23914823.059   125673247.7664   97927218.9324   23914819.273
  23914822.572          38.430          20.560
  24642557.265                   129497494.9124  100907137.3204   24642556.648
  24642559.138          31.370           6.120
  22462790.345    22462797.338   120245134.032    93524007.187    22462790.533
  22462796.931          46.120          42.930
  20742004.419    20742010.738   111072519.354    86389796.099    20742004.750
  20742010.760          51.000          48.560
  22433778.009    22433783.814   119921433.244    93272256.547    22433777.695
  22433784.114          47.680          43.430
  22918282.449    22918286.124   122382338.146    95186300.526    22918282.212
  22918286.432          45.930          41.810
  22436548.405    22436552.099   119894156.798    93251026.165    22436548.480
  22436552.493          46.180          42.250
  20803799.883    20803806.094   111286319.483    86556079.117    20803799.069
  20803805.266          40.180          45.180
  20092419.084    20092426.626   107443133.305    83566985.079    20092418.833
  20092425.812          41.560          50.000
 21 04 28 22 00 32.0000000  0 17G02G03G04G06G09G12G17G19G25G28R03R04
                                R05R09R11R19R20
  21535806.802                   113171479.0774   88185577.1984   21535805.716
  21535804.172          50.560          44.870
  24905089.530    24905092.973   130877140.7284  101982204.7774   24905089.262
  24905092.141          30.310          15.560
  24512975.948    24512981.273   128816589.7144  100376580.1234   24512975.559
  24512980.406          37.500          19.620
  20361059.475    20361062.121   106998130.2644   83375192.9604   20361059.341
  20361061.531          52.750          50.370
  24343392.099    24343396.722   127925409.3354   99682163.3364   24343391.581
  24343396.123          38.560          35.750
  21446115.998    21446115.372   112700130.5694   87818305.0584   21446115.578
  21446114.920          50.060          42.930
  22468453.374    22468453.110   118072548.6284   92004596.3334   22468452.932
  22468453.047          46.620          37.180
  20797280.287                   109290480.0724   85161405.0824   20797279.009
  20797278.471          49.310          44.680
  23914258.079    23914260.802   125670294.5844   97924917.7494   23914257.355
  23914260.516          38.430          20.310
  24643243.252                   129501099.9154  100909946.4344   24643242.653
  24643245.161          31.430           6.370
  22463246.200    22463253.528   120247576.288    93525906.719    22463246.669
  22463253.242          46.060          42.930
  20741767.799    20741774.278   111071252.797    86388811.002    20741768.197
  20741774.270          51.000          48.430
  22432996.422    22433002.354   119917256.354    93269007.859    22432996.360
  22433002.680          47.560          43.430
  22919067.277    22919071.301   122386530.283    95189561.077    22919067.295
  22919071.511          46.000          42.000
  22436167.583    22436171.059   119892121.725    93249443.335    22436167.650
  22436171.761          46.310          42.430
  20804183.727    20804189.982   111288373.134    86557676.399    20804182.954
  20804189.200          40.250          45.180
  20092172.326    20092179.819   107441813.099    83565958.259    20092172.085
  20092178.893          41.560          50.120
 21 04 28 22 00 33.0000000  0 17G02G03G04G06G09G12G17G19G25G28R03R04
                                R05R09R11R19R20
  21535572.328                   113170247.1054   88184617.2204   21535571.237
  21535569.734          50.560          44.870
  24905758.337    24905761.065   130880652.9584  101984941.5744   24905758.060
  24905760.510          30.180          15.620
  24512797.508    24512803.454   128815654.2084  100375851.1514   24512797.128
  24512802.444          37.250          19.620
  20361179.864    20361182.497   106998763.0084   83375686.0074   20361179.730
  20361181.934          52.680          50.370
  24342960.605    24342965.157   127923142.3804   99680396.8834   24342960.082
  24342964.732          38.310          35.680
  21445900.090    21445899.509   112698995.5994   87817420.6664   21445899.675
  21445898.945          50.060          42.930
  22468907.731    22468907.445   118074935.9814   92006456.6074   22468907.284
  22468907.356          46.560          37.180
  20797624.866                   109292290.6254   85162815.9024   20797623.588
  20797623.010          49.430          44.680
  23913696.247    23913699.309   125667341.7884   97922616.8714   23913695.518
  23913698.460          38.560          20.310
  24643929.226                   129504704.9924  100912755.5964   24643928.641
  24643931.175          30.310           6.500
  22463702.439    22463709.871   120250019.247    93527806.790    22463702.980
  22463709.683          46.120          43.060
  20741531.353    20741537.953   111069987.142    86387826.602    20741531.863
  20741537.873          50.930          48.430
  22432214.966    22432221.063   119913079.747    93265759.388    22432215.006
  22432221.287          47.370          43.500
  22919852.216    22919856.017   122390722.603    95192821.773    22919852.382
  22919856.638          45.870          41.870
  22435787.070    22435790.068   119890087.434    93247861.098    22435787.057
  22435791.114          46.370          42.430
  20804567.455    20804573.755   111290427.057    86559273.900    20804566.766
  20804573.214          40.120          45.180
  20091925.578    20091933.057   107440493.217    83564931.682    20091925.318
  20091932.087          41.750          50.060
 21 04 28 22 00 34.0000000  0 17G02G03G04G06G09G12G17G19G25G28R03R04
                                R05R09R11R19R20
  21535337.966                   113169015.4274   88183657.4714   21535336.875
  21535335.345          50.620          44.870
  24906426.550    24906429.353   130884165.4294  101987678.5684   24906426.273
  24906428.924          30.250          15.620
  24512619.313    24512625.395   128814719.2654  100375122.6294   24512618.948
  24512624.540          37.500          19.560
  20361300.316    20361302.945   106999396.1364   83376179.3534   20361300.182
  20361302.413          52.620          50.370
  24342529.331    24342533.726   127920875.7694   99678630.6964   24342528.813
  24342533.400          38.120          35.560
  21445684.259    21445683.717   112697861.2984   87816536.7964   21445683.844
  21445683.095          50.000          42.930
  22469362.084    22469361.846   118077323.6014   92008317.0874   22469361.642
  22469361.717          46.560          37.120
  20797969.561                   109294101.5974   85164227.0484   20797968.287
  20797967.638          49.560          44.620
  23913134.307    23913137.714   125664389.4244   97920316.3274   23913133.583
  23913136.618          38.500          20.370
  24644614.717                   129508310.1214  100915564.8524   24644614.131
  24644617.220          30.810           5.120
  22464159.082    22464166.106   120252462.923    93529707.430    22464159.471
  22464166.173          46.250          43.120
  20741295.350    20741301.735   111068722.354    86386842.879    20741295.645
  20741301.695          51.000          48.430
  22431433.393    22431439.593   119908903.393    93262511.111    22431433.716
  22431439.955          47.180          43.120
  22920637.451    22920640.670   122394915.095    95196082.606    22920637.621
  22920641.734          45.870          42.000
  22435406.526    22435409.305   119888053.916    93246279.493    22435406.585
  22435410.668          46.560          42.310
  20804951.603    20804957.393   111292481.234    86560871.589    20804950.798
  20804957.263          39.870          45.120
  20091678.986    20091686.205   107439173.654    83563905.341    20091678.605
  20091685.311          41.680          50.120
 21 04 28 22 00 35.0000000  0 17G02G03G04G06G09G12G17G19G25G28R03R04
                                R05R09R11R19R20
  21535103.644                   113167784.0404   88182697.9484   21535102.553
  21535101.014          50.680          44.810
  24907095.151    24907097.753   130887678.1614  101990415.7584   24907094.852
  24907097.337          30.370          15.680
  24512441.624    24512447.764   128813784.8614  100374394.5264   24512441.277
  24512446.780          37.870          19.680
  20361420.804    20361423.415   107000029.6554   83376673.0054   20361420.670
  20361422.963          52.560          50.310
  24342098.012    24342102.264   127918609.4754   99676864.7564   24342097.493
  24342102.129          38.370          35.500
  21445468.481    21445467.948   112696727.6714   87815653.4514   21445468.065
  21445467.371          50.000          42.870
  22469816.446    22469816.217   118079711.4954   92010177.7844   22469816.004
  22469816.123          46.430          37.120
  20798314.319                   109295912.9894   85165638.5224   20798313.045
  20798312.342          49.750          44.620
  23912572.895    23912576.069   125661437.4384   97918016.0784   23912572.171
  23912574.942          38.750          20.310
  24645300.887                   129511915.2934  100918374.1244   24645300.302
  24645303.270          31.060           5.680
  22464615.996    22464622.918   120254907.329    93531608.639    22464616.023
  22464622.788          46.310          43.000
  20741059.499    20741065.795   111067458.422    86385859.821    20741059.655
  20741065.732          50.930          48.430
  22430652.062    22430658.307   119904727.281    93259263.031    22430652.451
  22430658.669          47.120          43.370
  22921422.646    22921425.869   122399107.741    95199343.550    22921422.815
  22921426.929          45.870          42.180
  22435026.371    22435029.248   119886021.188    93244698.478    22435026.358
  22435030.245          46.680          42.310
  20805335.241    20805341.376   111294535.673    86562469.492    20805334.807
  20805341.336          39.620          45.060
  20091432.134    20091439.390   107437854.415    83562879.271    20091431.892
  20091438.607          41.680          50.120
 21 04 28 22 00 36.0000000  0 17G02G03G04G06G09G12G17G19G25G28R03R04
                                R05R09R11R19R20
  21534869.380                   113166552.9464   88181738.6544   21534868.289
  21534866.737          50.680          44.870
  24907763.569    24907766.440   130891191.0304  101993153.0624   24907763.256
  24907765.818          30.310          16.000
  24512264.258    24512270.272   128812851.0014  100373666.8454   24512263.919
  24512269.091          38.180          20.000
  20361541.336    20361544.041   107000663.5784   83377166.9704   20361541.202
  20361543.599          52.750          50.310
  24341666.813    24341671.043   127916343.5684   99675099.1194   24341666.290
  24341670.926          38.310          35.500
  21445252.796    21445252.389   112695594.7224   87814770.6344   21445252.381
  21445251.772          50.000          42.870
  22470270.843    22470270.646   118082099.6594   92012038.6894   22470270.401
  22470270.579          46.560          37.060
  20798659.215                   109297724.8044   85167050.3254   20798657.941
  20798657.122          49.810          44.620
  23912011.384    23912014.639   125658485.8674   97915716.1484   23912010.660
  23912013.351          38.930          20.370
  24645986.315                   129515520.5414  100921183.4014   24645985.739
  24645989.338          30.930           6.000
  22465072.826    22465079.726   120257352.462    93533510.401    22465072.764
  22465079.658          46.430          42.870
  20740823.683    20740829.908   111066195.369    86384877.443    20740823.880
  20740829.881          51.000          48.430
  22429870.691    22429877.276   119900551.456    93256015.162    22429871.187
  22429877.450          46.930          43.180
  22922207.795    22922211.176   122403300.592    95202604.648    22922208.077
  22922212.087          45.810          42.000
  22434646.279    22434649.321   119883989.247    93243118.086    22434646.283
  22434649.947          46.870          42.250
  20805719.443    20805725.591   111296590.381    86564067.593    20805719.202
  20805725.399          39.810          45.060
  20091185.569    20091192.735   107436535.501    83561853.449    20091185.323
  20091191.926          41.680          50.120
 21 04 28 22 00 37.0000000  0 17G02G03G04G06G09G12G17G19G25G28R03R04
                                R05R09R11R19R20
  21534635.125                   113165322.1404   88180779.5844   21534634.039
  21534632.517          50.680          44.870
  24908432.265    24908435.153   130894704.1474  101995890.5594   24908431.939
  24908434.330          30.560          16.180
  24512086.976    24512092.618   128811917.7014  100372939.6024   24512086.641
  24512091.460          38.250          19.930
  20361661.963    20361664.713   107001297.8864   83377661.2354   20361661.829
  20361664.297          52.750          50.310
  24341235.588    24341239.625   127914077.9954   99673333.7404   24341235.070
  24341239.790          38.430          35.430
  21445037.290    21445036.955   112694462.4424   87813888.3384   21445036.876
  21445036.298          50.000          42.870
  22470725.272    22470725.186   118084488.0854   92013899.7974   22470724.825
  22470725.075          46.500          37.120
  20799004.183                   109299537.0304   85168462.4484   20799002.905
  20799001.982          49.870          44.620
  23911450.195    23911452.646   125655534.6924   97913416.5274   23911449.472
  23911451.787          38.930          19.930
  24646672.607                   129519125.7694  100923992.6144   24646672.044
  24646675.352          30.680           4.680
  22465530.139    22465536.703   120259798.334    93535412.744    22465529.621
  22465536.676          46.560          43.000
  20740587.930    20740594.222   111064933.210    86383895.767    20740588.288
  20740594.236          51.000          48.310
  22429089.440    22429096.226   119896375.918    93252767.528    22429089.995
  22429096.311          46.750          43.250
  22922992.954    22922996.808   122407493.622    95205865.900    22922993.294
  22922997.332          45.870          42.310
  22434266.415    22434269.456   119881958.081    93241538.295    22434266.357
  22434269.957          47.000          42.120
  20806103.265    20806109.798   111298645.317    86565665.891    20806103.417
  20806109.538          39.870          45.180
  20090939.012    20090946.130   107435216.898    83560827.875    20090938.682
  20090945.329          41.370          50.180
 21 04 28 22 00 38.0000000  0 17G02G03G04G06G09G12G17G19G25G28R03R04
                                R05R09R11R19R20
  21534400.955                   113164091.6304   88179820.7454   21534399.869
  21534398.352          50.620          44.810
  24909100.638    24909103.316   130898217.4494  101998628.1964   24909100.308
  24909102.905          30.620          16.430
  24511909.814    24511915.314   128810984.9414  100372212.7714   24511909.493
  24511913.892          38.060          20.000
  20361782.687    20361785.505   107001932.5884   83378155.8084   20361782.559
  20361785.071          52.620          50.310
  24340804.760    24340808.776   127911812.7774   99671568.6394   24340804.242
  24340808.717          38.250          35.370
  21444821.888    21444821.664   112693330.8334   87813006.5664   21444821.473
  21444820.957          49.870          42.870
  22471179.682    22471179.950   118086876.7734   92015761.1124   22471179.241
  22471179.628          46.370          37.120
  20799349.191                   109301349.6894   85169874.9094   20799347.913
  20799346.919          49.810          44.620
  23910888.993    23910890.866   125652583.9264   97911117.2244   23910888.265
  23910890.240          39.250          20.000
  24647357.869                   129522731.0884  100926801.9114   24647357.319
  24647361.379          30.810           4.870
  22465987.278    22465993.909   120262244.929    93537315.650    22465986.647
  22465993.774          46.500          42.930
  20740352.499    20740358.630   111063671.948    86382914.786    20740352.768
  20740358.760          51.120          48.430
  22428308.141    22428315.257   119892200.626    93249520.083    22428308.887
  22428315.119          46.750          43.370
  22923778.095    22923781.757   122411686.826    95209127.266    22923778.569
  22923782.580          45.870          42.310
  22433886.515    22433889.829   119879927.703    93239959.108    22433886.604
  22433889.981          47.060          42.000
  20806487.422    20806493.932   111300700.542    86567264.390    20806487.538
  20806493.798          39.930          45.120
  20090692.563    20090699.538   107433898.629    83559802.553    20090691.942
  20090698.804          41.250          50.180
 21 04 28 22 00 39.0000000  0 17G02G03G04G06G09G12G17G19G25G28R03R04
                                R05R09R11R19R20
  21534166.838                   113162861.4194   88178862.1394   21534165.748
  21534164.240          50.680          44.810
  24909769.293    24909771.636   130901731.0074  102001366.0274   24909768.963
  24909771.519          30.620          16.370
  24511732.975    24511737.898   128810052.7454  100371486.3844   24511732.662
  24511736.476          38.180          19.750
  20361903.547    20361906.386   107002567.6714   83378650.6784   20361903.413
  20361905.921          52.680          50.310
  24340373.937    24340377.908   127909547.9184   99669803.8164   24340373.414
  24340377.711          38.250          35.250
  21444606.624    21444606.364   112692199.9064   87812125.3254   21444606.209
  21444605.747          49.930          42.810
  22471634.160    22471634.616   118089265.7344   92017622.6374   22471633.718
  22471634.241          46.310          37.120
  20799694.252                   109303162.7724   85171287.7014   20799692.975
  20799691.931          49.750          44.620
  23910327.612    23910329.499   125649633.5734   97908818.2424   23910326.879
  23910328.819          39.120          19.810
  24648044.769                   129526336.4854  100929611.2974   24648044.214
  24648047.483          30.930           4.870
  22466444.635    22466451.203   120264692.237    93539219.117    22466443.822
  22466451.033          46.310          43.000
  20740117.229    20740123.199   111062411.543    86381934.474    20740117.462
  20740123.449          51.310          48.370
  22427527.056    22427533.962   119888025.588    93246272.832    22427527.762
  22427534.043          46.620          43.250
  22924563.294    22924567.358   122415880.202    95212388.775    22924563.804
  22924567.908          45.750          42.430
  22433506.995    22433510.354   119877898.125    93238380.546    22433506.878
  22433510.193          47.060          42.370
  20806871.521    20806878.152   111302756.007    86568863.084    20806871.713
  20806878.027          39.810          44.930
  20090446.002    20090453.035   107432580.676    83558777.472    20090445.488
  20090452.351          41.310          50.180
 21 04 28 22 00 40.0000000  0 17G02G03G04G06G09G12G17G19G25G28R03R04
                                R05R09R11R19R20
  21533932.821                   113161631.4944   88177903.7574   21533931.730
  21533930.191          50.680          44.810
  24910438.436    24910439.455   130905244.7514  102004104.0124   24910438.097
  24910440.193          30.680          16.180
  24511555.859    24511560.388   128809121.1134  100370760.4374   24511555.555
  24511559.199          38.180          20.000
  20362024.508    20362027.357   107003203.1514   83379145.8584   20362024.374
  20362026.852          52.680          50.310
  24339942.993    24339947.170   127907283.3874   99668039.2464   24339942.471
  24339946.789          38.430          35.180
  21444391.530    21444391.172   112691069.6544   87811244.6094   21444391.115
  21444390.658          49.930          42.810
  22472088.794    22472089.452   118091654.9704   92019484.3764   22472088.353
  22472088.902          46.310          37.060
  20800039.350                   109304976.2724   85172700.8174   20800038.072
  20800037.029          49.750          44.620
  23909766.531    23909767.998   125646683.6184   97906519.5764   23909765.794
  23909767.465          39.250          19.810
  24648731.230                   129529941.8934  100932420.7624   24648730.676
  24648733.617          30.810           6.000
  22466902.064    22466908.708   120267140.243    93541123.119    22466901.295
  22466908.378          46.250          43.120
  20739882.048    20739888.046   111061151.989    86380954.819    20739882.290
  20739888.287          51.430          48.370
  22426745.957    22426752.778   119883850.803    93243025.785    22426746.757
  22426753.132          46.810          43.560
  22925348.605    22925352.566   122420073.781    95215650.444    22925349.056
  22925353.344          45.750          42.560
  22433127.452    22433130.789   119875869.323    93236802.589    22433127.340
  22433130.543          47.060          42.250
  20807255.911    20807262.407   111304811.741    86570461.989    20807255.995
  20807262.300          39.870          45.180
  20090199.393    20090206.671   107431263.031    83557752.644    20090199.057
  20090205.973          41.120          50.250
 21 04 28 22 00 41.0000000  0 17G02G03G04G06G09G12G17G19G25G28R03R04
                                R05R09R11R19R20
  21533698.870                   113160401.8674   88176945.6064   21533697.779
  21533696.200          50.560          44.870
  24911106.840    24911107.318   130908758.7194  102006842.1684   24911106.487
  24911108.861          30.000          16.430
  24511378.545    24511382.775   128808189.9964  100370034.8824   24511378.247
  24511382.074          37.810          20.120
  20362145.520    20362148.403   107003839.0234   83379641.3424   20362145.386
  20362147.858          52.560          50.370
  24339512.072    24339516.602   127905019.2334   99666274.9694   24339511.554
  24339515.918          38.120          35.180
  21444176.628    21444175.957   112689940.0714   87810364.4154   21444176.214
  21444175.712          49.870          42.870
  22472543.473    22472544.010   118094044.4704   92021346.3234   22472543.027
  22472543.621          46.250          37.120
  20800384.469                   109306790.1874   85174114.2574   20800383.192
  20800382.211          49.560          44.680
  23909205.333    23909206.572   125643734.0734   97904221.2344   23909204.596
  23909206.160          39.180          19.930
  24649417.409                   129533547.3684  100935230.2284   24649416.846
  24649419.720          31.000           4.680
  22467359.190    22467366.133   120269588.965    93543027.666    22467358.930
  22467365.896          46.180          43.120
  20739646.984    20739653.022   111059893.310    86379975.850    20739647.253
  20739653.267          51.500          48.500
  22425965.091    22425972.033   119879676.290    93239778.943    22425965.779
  22425972.328          46.930          43.310
  22926133.987    22926138.311   122424267.515    95218912.241    22926134.341
  22926138.807          45.750          42.560
  22432747.633    22432751.215   119873841.310    93235225.248    22432747.878
  22432751.077          47.060          42.250
  20807640.537    20807646.609   111306867.720    86572061.080    20807640.278
  20807646.605          40.250          45.120
  20089952.648    20089960.378   107429945.723    83556728.064    20089952.635
  20089959.667          41.180          50.180
 21 04 28 22 00 42.0000000  0 17G02G03G04G06G09G12G17G19G25G28R03R04
                                R05R09R11R19R20
  21533464.973                   113159172.5324   88175987.6854   21533463.887
  21533462.263          50.560          44.870
  24911775.263    24911775.625   130912272.8874  102009580.4804   24911774.901
  24911777.633          30.370          15.930
  24511201.451    24511205.645   128807259.4434  100369309.7734   24511201.161
  24511205.015          37.810          20.310
  20362266.593    20362269.580   107004475.2804   83380137.1254   20362266.459
  20362268.936          52.560          50.370
  24339081.392    24339085.711   127902755.4134   99664510.9534   24339080.866
  24339085.117          38.180          35.120
  21443961.843    21443960.998   112688811.1704   87809484.7534   21443961.423
  21443960.890          49.810          42.870
  22472998.216    22472998.801   118096434.2404   92023208.4784   22472997.768
  22472998.371          46.310          37.060
  20800729.701                   109308604.5274   85175528.0274   20800728.424
  20800727.470          49.560          44.680
  23908644.283    23908645.522   125640784.9434   97901923.2124   23908643.550
  23908645.048          39.310          20.060
  24650103.857                   129537152.9204  100938039.7394   24650103.258
  24650105.842          30.680           5.560
  22467816.637    22467823.750   120272038.411    93544932.799    22467816.623
  22467823.455          46.250          43.060
  20739411.991    20739418.217   111058635.538    86378997.583    20739412.367
  20739418.391          51.500          48.370
  22425184.328    22425191.153   119875502.059    93236532.311    22425184.900
  22425191.462          46.930          43.500
  22926919.285    22926924.091   122428461.428    95222174.166    22926919.714
  22926924.310          45.680          42.430
  22432368.233    22432371.946   119871814.075    93233648.497    22432368.578
  22432371.633          46.930          42.180
  20808025.088    20808031.093   111308923.958    86573660.365    20808024.582
  20808030.963          40.180          45.250
  20089705.842    20089714.046   107428628.720    83555703.741    20089706.249
  20089713.406          40.930          50.120
 21 04 28 22 00 43.0000000  0 17G02G03G04G06G09G12G17G19G25G28R03R04
                                R05R09R11R19R20
  21533231.134                   113157943.4884   88175029.9894   21533230.048
  21533228.375          50.560          44.870
  24912443.726    24912444.450   130915787.2444  102012318.9374   24912443.364
  24912446.341          30.060          16.120
  24511024.290    24511028.247   128806329.4634  100368585.1194   24511024.000
  24511028.050          37.620          20.180
  20362387.761    20362390.734   107005111.9344   83380633.2194   20362387.627
  20362390.081          52.560          50.370
  24338650.305    24338654.898   127900491.9484   99662747.2164   24338649.779
  24338654.388          37.680          35.120
  21443747.169    21443746.319   112687682.9354   87808605.6084   21443746.749
  21443746.190          49.750          42.870
  22473453.154    22473453.538   118098824.2804   92025070.8464   22473452.712
  22473453.176          46.430          37.060
  20801074.920                   109310419.2804   85176942.1184   20801073.636
  20801072.813          49.500          44.680
  23908083.278    23908084.879   125637836.1854   97899625.4774   23908082.545
  23908083.899          39.180          19.750
  24650789.969                   129540758.4454  100940849.2004   24650789.361
  24650791.932          30.370           5.000
  22468274.285    22468281.416   120274488.577    93546838.472    22468274.374
  22468281.202          46.250          43.000
  20739177.138    20739183.582   111057378.675    86378020.024    20739177.611
  20739183.658          51.430          48.500
  22424403.707    22424410.574   119871328.126    93233285.916    22424404.146
  22424410.703          47.060          43.620
  22927704.716    22927709.510   122432655.516    95225436.236    22927704.940
  22927709.800          45.620          42.120
  22431988.888    22431992.717   119869787.640    93232072.390    22431989.371
  22431992.354          46.930          42.180
  20808409.585    20808415.469   111310980.427    86575259.851    20808408.824
  20808415.415          40.000          45.120
  20089459.272    20089467.825   107427312.058    83554679.663    20089459.929
  20089467.221          41.000          50.120
 21 04 28 22 00 44.0000000  0 17G02G03G04G06G09G12G17G19G25G28R03R04
                                R05R09R11R19R20
  21532997.286                   113156714.7404   88174072.5234   21532996.195
  21532994.545          50.560          44.870
  24913112.681    24913113.677   130919301.8084  102015057.5634   24913112.319
  24913115.153          30.060          16.250
  24510847.626    24510851.408   128805400.0104  100367860.8724   24510847.344
  24510851.184          37.750          20.180
  20362509.005    20362512.049   107005748.9804   83381129.6184   20362508.871
  20362511.298          52.560          50.310
  24338219.527    24338224.231   127898228.8384   99660983.7544   24338218.995
  24338223.686          37.310          35.000
  21443532.621    21443531.798   112686555.3754   87807726.9914   21443532.206
  21443531.619          49.750          42.870
  22473908.083    22473908.333   118101214.5934   92026933.4274   22473907.641
  22473908.038          46.370          37.060
  20801420.232                   109312234.4644   85178356.5484   20801418.948
  20801418.237          49.370          44.680
  23907522.210    23907523.860   125634887.8664   97897328.0904   23907521.473
  23907522.836          39.180          19.810
  24651475.567                   129544364.1044  100943658.8684   24651474.991
  24651478.066          30.680           3.620
  22468732.291    22468739.328   120276939.449    93548744.718    22468732.308
  22468739.060          46.370          43.180
  20738942.601    20738949.117   111056122.676    86377043.132    20738943.052
  20738949.103          51.430          48.370
  22423623.101    22423629.900   119867154.476    93230039.761    22423623.459
  22423630.034          47.250          43.560
  22928490.117    22928495.093   122436849.762    95228698.418    22928490.412
  22928495.174          45.620          42.500
  22431609.748    22431613.590   119867761.986    93230496.884    22431610.208
  22431613.179          46.930          42.310
  20808793.974    20808800.015   111313037.171    86576859.535    20808793.456
  20808799.867          40.060          45.180
  20089213.297    20089221.729   107425995.704    83553655.837    20089213.856
  20089221.027          41.060          50.180
 21 04 28 22 00 45.0000000  0 17G02G03G04G06G09G12G17G19G25G28R03R04
                                R05R09R11R19R20
  21532763.527                   113155486.2854   88173115.2854   21532762.441
  21532760.777          50.560          44.870
  24913781.309    24913783.048   130922816.6074  102017796.3774   24913780.943
  24913784.014          30.060          15.750
  24510671.005    24510674.452   128804471.1164  100367137.0584   24510670.733
  24510674.461          37.750          20.370
  20362630.306    20362633.342   107006386.4164   83381626.3224   20362630.172
  20362632.595          52.560          50.310
  24337788.673    24337793.592   127895966.0534   99659220.5484   24337788.141
  24337793.064          37.060          34.930
  21443318.149    21443317.585   112685428.4954   87806848.9014   21443317.729
  21443317.169          49.680          42.870
  22474363.088    22474363.017   118103605.1734   92028796.2144   22474362.647
  22474362.959          46.500          37.060
  20801765.669                   109314050.0644   85179771.3004   20801764.386
  20801763.737          49.370          44.680
  23906961.156    23906962.672   125631939.9304   97895030.9884   23906960.419
  23906961.848          39.180          19.560
  24652161.237                   129547969.7544  100946468.4864   24652160.701
  24652164.250          31.180           3.000
  22469190.194    22469197.007   120279391.045    93550651.516    22469190.305
  22469197.043          46.370          43.000
  20738708.190    20738714.750   111054867.522    86376066.907    20738708.623
  20738714.705          51.310          48.500
  22422842.441    22422849.289   119862981.108    93226793.805    22422842.834
  22422849.401          47.180          43.560
  22929275.552    22929280.480   122441044.197    95231960.752    22929275.951
  22929280.667          45.560          42.310
  22431230.711    22431234.973   119865737.108    93228921.980    22431231.238
  22431234.226          46.810          42.180
  20809178.838    20809184.472   111315094.167    86578459.421    20809177.997
  20809184.351          39.810          45.060
  20088967.326    20088975.629   107424679.668    83552632.258    20088967.800
  20088974.913          41.310          50.180
 21 04 28 22 00 46.0000000  0 17G02G03G04G06G09G12G17G19G25G28R03R04
                                R05R09R11R19R20
  21532529.796                   113154258.1244   88172158.2774   21532528.710
  21532527.063          50.560          44.810
  24914449.893    24914452.360   130926331.6094  102020535.3394   24914449.517
  24914452.897          29.810          15.310
  24510494.626    24510497.578   128803542.7674  100366413.6744   24510494.358
  24510497.828          38.000          20.180
  20362751.679    20362754.751   107007024.2444   83382123.3304   20362751.550
  20362753.977          52.500          50.250
  24337357.792    24337362.970   127893703.6364   99657457.6294   24337357.256
  24337362.536          36.930          34.750
  21443103.837    21443103.184   112684302.2864   87805971.3354   21443103.422
  21443102.849          49.680          42.810
  22474818.112    22474818.134   118105996.0274   92030659.2164   22474817.670
  22474817.919          46.500          36.930
  20802111.133                   109315866.0884   85181186.3834   20802109.850
  20802109.317          49.250          44.620
  23906400.254    23906401.939   125628992.4084   97892734.2244   23906399.508
  23906400.937          39.060          19.620
  24652848.127                   129551575.4914  100949278.1874   24652847.646
  24652850.430          31.120           2.180
  22469648.160    22469655.313   120281843.349    93552558.860    22469648.410
  22469655.157          46.370          43.370
  20738473.926    20738480.423   111053613.240    86375091.357    20738474.328
  20738480.450          51.180          48.370
  22422061.812    22422068.731   119858807.994    93223548.048    22422062.255
  22422068.825          47.060          43.560
  22930061.328    22930066.202   122445238.812    95235223.228    22930061.503
  22930066.206          45.430          42.430
  22430851.871    22430856.026   119863713.019    93227347.684    22430852.304
  22430855.426          46.870          42.430
  20809563.443    20809569.009   111317151.438    86580059.517    20809562.660
  20809568.969          39.870          45.000
  20088721.253    20088729.569   107423363.965    83551608.930    20088721.732
  20088728.845          41.180          50.250
 21 04 28 22 00 47.0000000  0 17G02G03G04G06G09G12G17G19G25G28R03R04
                                R05R09R11R19R20
  21532296.100                   113153030.2534   88171201.4954   21532295.014
  21532293.412          50.560          44.810
  24915118.329    24915121.078   130929846.8234  102023274.4484   24915117.953
  24915121.798          29.310          15.000
  24510318.458    24510321.114   128802614.9714  100365690.7134   24510318.195
  24510321.257          38.000          20.310
  20362873.079    20362876.231   107007662.4594   83382620.6414   20362872.945
  20362875.418          52.560          50.250
  24336927.318    24336932.406   127891441.5664   99655694.9834   24336926.782
  24336932.057          37.000          34.680
  21442889.584    21442888.949   112683176.7514   87805094.2944   21442889.169
  21442888.658          49.680          42.810
  22475273.167    22475273.296   118108387.1504   92032522.4284   22475272.725
  22475272.938          46.430          36.930
  20802456.624                   109317682.5274   85182601.7894   20802455.346
  20802454.978          49.120          44.620
  23905838.953    23905841.685   125626045.2914   97890437.7674   23905838.202
  23905840.119          39.060          19.620
  24653534.226                   129555181.2574  100952087.8204   24653533.793
  24653536.573          30.620           3.810
  22470106.340    22470113.426   120284296.377    93554466.769    22470106.563
  22470113.413          46.250          43.180
  20738239.782    20738246.316   111052359.855    86374116.501    20738240.239
  20738246.348          51.180          48.430
  22421281.227    22421288.268   119854635.111    93220302.483    22421281.755
  22421288.290          47.060          43.680
  22930847.127    22930851.647   122449433.594    95238485.829    22930846.966
  22930851.670          45.500          42.180
  22430473.285    22430477.293   119861689.722    93225773.996    22430473.540
  22430476.814          46.870          42.250
  20809948.006    20809953.551   111319208.966    86581659.819    20809947.362
  20809953.510          40.060          45.180
  20088475.622    20088483.634   107422048.571    83550585.850    20088475.842
  20088482.860          41.500          50.120
 21 04 28 22 00 48.0000000  0 17G02G03G04G06G09G12G17G19G25G28R03R04
                                R05R09R11R19R20
  21532062.480                   113151802.6764   88170244.9424   21532061.393
  21532059.810          50.500          44.750
  24915787.189    24915789.497   130933362.2664  102026013.7424   24915786.818
  24915790.740          29.060          14.620
  24510142.093    24510144.587   128801687.7444  100364968.1994   24510141.830
  24510144.816          38.120          20.370
  20362994.574    20362997.735   107008301.0664   83383118.2554   20362994.440
  20362996.938          52.500          50.250
  24336496.897    24336501.793   127889179.8414   99653932.6034   24336496.362
  24336501.623          37.060          34.500
  21442675.500    21442675.013   112682051.8954   87804217.7834   21442675.080
  21442674.606          49.620          42.810
  22475728.239    22475728.359   118110778.5404   92034385.8484   22475727.797
  22475727.997          46.370          36.870
  20802802.303                   109319499.3934   85184017.5304   20802801.025
  20802800.728          49.180          44.620
  23905278.207    23905281.543   125623098.5824   97888141.6324   23905277.452
  23905279.334          39.000          19.680
  24654220.343                   129558787.0854  100954897.5254   24654219.928
  24654222.748          30.750           3.620
  22470564.676    22470571.665   120286750.137    93556375.248    22470564.963
  22470571.786          46.250          43.430
  20738005.872    20738012.289   111051107.373    86373142.350    20738006.288
  20738012.392          51.120          48.430
  22420500.634    22420507.710   119850462.502    93217057.114    22420501.224
  22420507.751          47.000          43.620
  22931632.634    22931636.976   122453628.560    95241748.580    22931632.491
  22931637.195          45.500          42.180
  22430094.641    22430098.783   119859667.205    93224200.938    22430094.932
  22430098.425          46.930          42.500
  20810332.360    20810338.123   111321266.782    86583260.338    20810331.949
  20810338.172          40.180          45.060
  20088230.059    20088237.632   107420733.522    83549563.027    20088230.032
  20088236.926          41.560          50.250
 21 04 28 22 00 49.0000000  0 16G02G03G04G06G09G12G17G19G25R03R04R05
                                R09R11R19R20
  21531828.896                   113150575.3854   88169288.6134   21531827.805
  21531826.266          50.560          44.750
  24916456.117    24916459.354   130936877.8834  102028753.1714   24916455.742
  24916459.735          29.310          14.680
  24509965.969    24509968.236   128800761.0404  100364246.0944   24509965.710
  24509968.486          37.930          20.310
  20363116.143    20363119.309   107008940.0634   83383616.1754   20363116.009
  20363118.531          52.560          50.180
  24336066.410    24336071.552   127886918.4554   99652170.4894   24336065.874
  24336071.265          37.560          34.500
  21442461.480    21442461.229   112680927.7094   87803341.7934   21442461.065
  21442460.675          49.620          42.750
  22476183.285    22476183.530   118113170.2024   92036249.4794   22476182.843
  22476183.115          46.250          36.870
  20803148.129                   109321316.6694   85185433.5884   20803146.851
  20803146.550          49.180          44.560
  23904717.618    23904720.984   125620152.2704   97885845.8064   23904716.854
  23904718.686          38.750          19.750
  22471023.000    22471030.015   120289204.601    93558284.274    22471023.272
  22471030.351          46.120          43.180
  20737771.957    20737778.450   111049855.752    86372168.863    20737772.516
  20737778.643          51.060          48.430
  22419720.032    22419727.108   119846290.166    93213811.965    22419720.765
  22419727.184          47.060          43.620
  22932418.361    22932422.192   122457823.670    95245011.443    22932418.052
  22932422.689          45.500          42.370
  22429716.396    22429720.283   119857645.463    93222628.471    22429716.373
  22429720.068          46.870          42.370
  20810717.063    20810722.759   111323324.849    86584861.060    20810716.656
  20810722.866          40.310          45.060
  20087984.450    20087991.737   107419418.777    83548540.443    20087984.285
  20087991.058          41.750          50.250
 21 04 28 22 00 50.0000000  0 16G02G03G04G06G09G12G17G19G25R03R04R05
                                R09R11R19R20
  21531595.414                   113149348.3924   88168332.5144   21531594.328
  21531592.776          50.560          44.680
  24917124.455    24917129.391   130940393.7044  102031492.7734   24917124.080
  24917128.752          29.120          14.680
  24509790.189    24509791.969   128799834.8984  100363524.4244   24509789.930
  24509792.201          38.120          20.180
  20363237.839    20363240.888   107009579.4444   83384114.3934   20363237.705
  20363240.199          52.560          50.180
  24335636.535    24335641.453   127884657.4684   99650408.6844   24335635.999
  24335640.984          37.310          34.430
  21442247.602    21442247.333   112679804.1964   87802466.3294   21442247.187
  21442246.864          49.560          42.750
  22476638.358    22476638.522   118115562.1274   92038113.3184   22476637.915
  22476638.281          46.120          36.810
  20803494.000                   109323134.3714   85186849.9794   20803492.717
  20803492.448          49.250          44.560
  23904156.943    23904160.153   125617206.3704   97883550.3064   23904156.179
  23904158.146          38.680          19.310
  22471481.426    22471488.460   120291659.770    93560193.849    22471481.770
  22471488.969          46.000          43.250
  20737538.194    20737544.750   111048604.993    86371196.055    20737538.901
  20737545.063          50.930          48.310
  22418939.604    22418946.376   119842118.105    93210567.038    22418940.342
  22418946.729          47.060          43.370
  22933203.922    22933207.535   122462018.967    95248274.449    22933203.739
  22933208.420          45.620          42.430
  22429338.011    22429341.827   119855624.519    93221056.620    22429338.052
  22429341.903          46.620          42.680
  20811101.913    20811107.676   111325383.164    86586461.986    20811101.296
  20811107.699          40.250          45.250
  20087739.137    20087745.884   107418104.354    83547518.109    20087738.466
  20087745.195          41.750          50.180
 21 04 28 22 00 51.0000000  0 16G02G03G04G06G09G12G17G19G25R03R04R05
                                R09R11R19R20
  21531362.076                   113148121.6924   88167376.6434   21531360.985
  21531359.344          50.560          44.750
  24917792.882    24917798.172   130943909.7814  102034232.5834   24917792.511
  24917797.863          28.810          14.430
  24509614.347    24509615.594   128798909.3084  100362803.1924   24509614.088
  24509616.042          38.120          20.060
  20363359.601    20363362.579   107010219.2284   83384612.9274   20363359.467
  20363361.939          52.620          50.120
  24335206.405    24335211.238   127882396.7964   99648647.1244   24335205.869
  24335210.760          37.500          34.370
  21442033.867    21442033.684   112678681.3674   87801591.3964   21442033.452
  21442033.178          49.560          42.680
  22477093.390    22477093.649   118117954.3294   92039977.3714   22477092.948
  22477093.501          46.060          36.810
  20803840.041                   109324952.5004   85188266.7014   20803838.763
  20803838.431          49.370          44.500
  23903596.296    23903599.702   125614260.8774   97881255.1184   23903595.532
  23903597.592          38.560          19.310
  22471940.264    22471947.435   120294115.654    93562103.983    22471940.487
  22471947.807          46.000          43.060
  20737304.771    20737311.372   111047355.117    86370223.925    20737305.388
  20737311.662          50.870          48.680
  22418159.248    22418165.930   119837946.326    93207322.316    22418159.932
  22418166.230          47.060          43.430
  22933989.604    22933993.244   122466214.438    95251537.596    22933989.439
  22933994.160          45.560          42.430
  22428959.976    22428963.496   119853604.346    93219485.392    22428959.869
  22428963.935          46.370          42.500
  20811487.099    20811492.625   111327441.760    86588063.104    20811486.034
  20811492.571          39.870          44.930
  20087493.457    20087500.137   107416790.241    83546496.028    20087492.782
  20087499.416          41.680          50.120
 21 04 28 22 00 52.0000000  0 16G02G03G04G06G09G12G17G19G25R03R04R05
                                R09R11R19R20
  21531128.693                   113146895.2734   88166420.9934   21531127.607
  21531125.965          50.500          44.750
  24918462.208    24918468.016   130947426.0334  102036972.5274   24918461.846
  24918466.912          28.870          14.500
  24509438.648    24509439.506   128797984.2764  100362082.3904   24509438.395
  24509439.989          38.370          20.180
  20363481.497    20363484.292   107010859.4014   83385111.7624   20363481.363
  20363483.760          52.620          50.120
  24334776.423    24334781.024   127880136.4884   99646885.8434   24334775.887
  24334780.625          37.680          34.250
  21441820.289    21441819.851   112677559.2174   87800716.9914   21441819.874
  21441819.632          49.620          42.620
  22477548.507    22477548.922   118120346.7994   92041841.6304   22477548.065
  22477548.775          46.060          36.810
  20804186.212                   109326771.0424   85189683.7474   20804184.938
  20804184.485          49.500          44.500
  23903035.733    23903039.077   125611315.7814   97878960.2434   23903034.964
  23903037.267          38.370          19.060
  22472399.030    22472406.497   120296572.233    93564014.653    22472399.379
  22472406.703          45.930          43.120
  20737071.540    20737078.172   111046106.147    86369252.507    20737072.143
  20737078.427          50.810          48.560
  22417378.936    22417385.606   119833774.815    93204077.810    22417379.575
  22417385.726          47.120          43.500
  22934775.192    22934778.984   122470410.111    95254800.895    22934775.152
  22934779.793          45.500          42.430
  22428581.865    22428585.479   119851584.974    93217914.767    22428581.820
  22428586.069          46.000          42.620
  20811871.994    20811877.368   111329500.599    86589664.420    20811870.759
  20811877.497          39.750          44.870
  20087247.590    20087254.381   107415476.460    83545474.197    20087247.084
  20087253.670          41.560          50.180
 21 04 28 22 00 53.0000000  0 16G02G03G04G06G09G12G17G19G25R03R04R05
                                R09R11R19R20
  21530895.337                   113145669.1504   88165465.5724   21530894.251
  21530892.640          50.560          44.680
  24919131.194    24919136.635   130950942.5314  102039712.6424   24919130.846
  24919136.018          29.120          14.750
  24509263.218    24509263.495   128797059.7804  100361361.9984   24509262.964
  24509264.134          38.750          19.810
  20363603.474    20363606.103   107011499.9644   83385610.9034   20363603.340
  20363605.656          52.620          50.060
  24334346.342    24334350.836   127877876.5214   99645124.8334   24334345.806
  24334350.549          37.430          34.250
  21441606.832    21441606.411   112676437.7334   87799843.1094   21441606.417
  21441606.210          49.620          42.560
  22478003.718    22478004.438   118122739.5334   92043706.0954   22478003.271
  22478004.098          46.120          36.750
  20804532.557                   109328590.0054   85191101.1204   20804531.283
  20804530.625          49.680          44.430
  23902475.197    23902477.696   125608371.0954   97876665.6824   23902474.419
  23902476.905          38.180          19.120
  22472858.207    22472865.513   120299029.545    93565925.888    22472858.386
  22472865.737          45.750          43.370
  20736838.533    20736845.205   111044858.058    86368281.774    20736839.087
  20736845.321          50.870          48.430
  22416598.670    22416605.240   119829603.570    93200833.515    22416599.287
  22416605.307          47.180          43.430
  22935560.932    22935564.970   122474605.972    95258064.328    22935560.954
  22935565.493          45.430          42.430
  22428203.834    22428207.689   119849566.398    93216344.745    22428203.910
  22428208.436          45.680          42.560
  20812256.906    20812262.549   111331559.692    86591265.939    20812255.940
  20812262.423          39.750          45.000
  20087001.762    20087008.665   107414162.994    83544452.620    20087001.445
  20087008.025          41.500          50.310
 21 04 28 22 00 54.0000000  0 16G02G03G04G06G09G12G17G19G25R03R04R05
                                R09R11R19R20
  21530662.066                   113144443.3154   88164510.3764   21530660.980
  21530659.369          50.500          44.750
  24919800.685    24919805.966   130954459.1824  102042452.8864   24919800.341
  24919805.264          28.620          14.930
  24509087.742    24509087.661   128796135.8534  100360642.0624   24509087.488
  24509088.412          38.750          19.560
  20363725.469    20363728.027   107012140.9164   83386110.3464   20363725.335
  20363727.624          52.560          50.120
  24333916.212    24333920.845   127875616.9134   99643364.1004   24333915.676
  24333920.545          36.930          34.310
  21441393.598    21441393.115   112675316.9304   87798969.7564   21441393.183
  21441392.909          49.620          42.620
  22478459.073    22478459.922   118125132.5444   92045570.7774   22478458.625
  22478459.479          46.000          36.810
  20804878.978                   109330409.3974   85192518.8284   20804877.700
  20804876.849          49.680          44.500
  23901914.554    23901917.036   125605426.8184   97874371.4414   23901913.776
  23901916.642          38.120          19.310
  22473317.112    22473324.829   120301487.578    93567837.691    22473317.618
  22473324.914          45.810          43.310
  20736605.838    20736612.519   111043610.833    86367311.704    20736606.290
  20736612.439          51.000          48.560
  22415818.228    22415825.077   119825432.582    93197589.418    22415818.966
  22415825.013          47.180          43.500
  22936346.623    22936350.755   122478801.973    95261327.899    22936346.663
  22936351.215          45.370          42.430
  22427825.646    22427829.725   119847548.593    93214775.356    22427826.209
  22427830.883          45.560          42.560
  20812641.605    20812647.578   111333619.026    86592867.648    20812640.952
  20812647.421          39.750          45.060
  20086756.230    20086762.981   107412849.868    83543431.296    20086755.966
  20086762.511          41.180          50.180
 21 04 28 22 00 55.0000000  0 16G02G03G04G06G09G12G17G19G25R03R04R05
                                R09R11R19R20
  21530428.835                   113143217.7734   88163555.4084   21530427.744
  21530426.161          50.430          44.680
  24920470.776    24920474.585   130957976.0964  102045193.3374   24920470.450
  24920474.478          28.370          15.120
  24508912.289    24508912.244   128795212.4744  100359922.5414   24508912.026
  24508912.754          38.870          19.500
  20363847.554    20363850.039   107012782.2574   83386610.0934   20363847.420
  20363849.664          52.430          50.120
  24333486.122    24333490.880   127873357.6674   99641603.6504   24333485.586
  24333490.620          36.750          34.180
  21441180.517    21441179.886   112674196.7974   87798096.9254   21441180.101
  21441179.751          49.750          42.620
  22478914.574    22478915.553   118127525.8154   92047435.6614   22478914.132
  22478914.905          46.120          36.750
  20805225.444                   109332229.1964   85193936.8534   20805224.170
  20805223.150          49.810          44.500
  23901354.416    23901357.157   125602482.9474   97872077.5104   23901353.638
  23901356.459          37.810          19.180
  22473776.267    22473784.258   120303946.356    93569750.075    22473777.001
  22473784.293          45.870          43.000
  20736373.238    20736379.816   111042364.469    86366342.313    20736373.591
  20736379.713          51.180          48.560
  22415038.118    22415044.872   119821261.868    93194345.524    22415038.609
  22415044.684          47.120          43.310
  22937132.175    22937136.584   122482998.150    95264591.581    22937132.318
  22937137.076          45.180          42.430
  22427447.856    22427452.714   119845531.570    93213206.559    22427448.662
  22427453.420          45.370          42.560
  20813026.562    20813032.656   111335678.624    86594469.559    20813025.998
  20813032.504          39.930          45.180
  20086510.689    20086517.381   107411537.072    83542410.231    20086510.514
  20086516.992          41.180          50.120
 21 04 28 22 00 56.0000000  0 16G02G03G04G06G09G12G17G19G25R03R04R05
                                R09R11R19R20
  21530195.653                   113141992.5224   88162600.6684   21530194.567
  21530193.006          50.430          44.680
  24921139.574    24921143.437   130961493.1794  102047933.9144   24921139.244
  24921143.795          28.370          15.620
  24508736.970    24508737.095   128794289.6444  100359203.4614   24508736.702
  24508737.113          38.750          19.620
  20363969.651    20363972.133   107013423.9854   83387110.1414   20363969.517
  20363971.779          52.430          50.060
  24333056.015    24333061.184   127871098.7584   99639843.4644   24333055.474
  24333060.773          36.500          34.120
  21440967.591    21440966.790   112673077.3424   87797224.6214   21440967.176
  21440966.710          49.750          42.620
  22479370.143    22479370.935   118129919.3574   92049300.7574   22479369.701
  22479370.384          46.120          36.750
  20805571.941                   109334049.4234   85195355.2114   20805570.667
  20805569.530          49.750          44.430
  23900794.028    23900797.274   125599539.4984   97869783.9224   23900793.250
  23900796.429          37.500          18.810
  22474236.022    22474243.886   120306405.846    93571663.012    22474236.465
  22474243.721          46.120          43.000
  20736140.673    20736147.328   111041119.005    86365373.611    20736141.018
  20736147.157          51.180          48.560
  22414257.940    22414264.775   119817091.431    93191101.854    22414258.334
  22414264.520          47.310          43.620
  22937917.701    22937922.512   122487194.459    95267855.405    22937918.068
  22937923.008          45.060          42.680
  22427070.371    22427075.470   119843515.326    93211638.383    22427071.292
  22427076.333          45.370          42.680
  20813411.157    20813417.904   111337738.506    86596071.676    20813411.238
  20813417.587          40.120          45.000
  20086264.794    20086272.019   107410224.593    83541389.420    20086264.950
  20086271.589          41.250          50.120
 21 04 28 22 00 57.0000000  0 16G02G03G04G06G09G12G17G19G25R03R04R05
                                R09R11R19R20
  21529962.552                   113140767.5704   88161646.1594   21529961.466
  21529959.905          50.430          44.680
  24921808.511    24921813.393   130965010.4834  102050674.6694   24921808.181
  24921813.121          28.000          15.120
  24508561.839    24508561.718   128793367.3644  100358484.7974   24508561.567
  24508561.521          38.870          19.180
  20364091.794    20364094.387   107014066.1044   83387610.4924   20364091.660
  20364093.971          52.370          50.060
  24332626.019    24332631.582   127868840.1964   99638083.5484   24332625.478
  24332630.978          36.750          34.060
  21440754.840    21440753.892   112671958.5664   87796352.8484   21440754.425
  21440753.811          49.750          42.620
  22479825.770    22479826.405   118132313.1664   92051166.0604   22479825.328
  22479825.917          46.180          36.750
  20805918.514                   109335870.0714   85196773.8964   20805917.236
  20805915.987          49.680          44.430
  23900233.479    23900237.338   125596596.4404   97867490.6264   23900232.706
  23900236.447          37.250          19.060
  22474696.103    22474703.471   120308866.033    93573576.485    22474696.080
  22474703.274          46.180          43.310
  20735908.368    20735914.866   111039874.414    86364405.596    20735908.663
  20735914.749          51.180          48.620
  22413478.036    22413484.633   119812921.279    93187858.406    22413478.107
  22413484.307          47.430          43.500
  22938703.334    22938708.905   122491390.993    95271119.345    22938703.888
  22938708.941          44.750          42.620
  22426692.908    22426698.642   119841499.889    93210070.810    22426694.079
  22426699.196          45.430          43.060
  20813796.146    20813803.179   111339798.628    86597673.988    20813796.432
  20813802.736          40.060          44.930
  20086018.819    20086026.706   107408912.434    83540368.850    20086019.400
  20086026.276          41.180          50.060
 21 04 28 22 00 58.0000000  0 16G02G03G04G06G09G12G17G19G25R03R04R05
                                R09R11R19R20
  21529729.415                   113139542.9094   88160691.8784   21529728.324
  21529726.857          50.370          44.680
  24922477.193    24922481.619   130968528.0204  102053415.5984   24922476.863
  24922482.483          27.870          14.930
  24508386.744    24508386.449   128792445.6354  100357766.5654   24508386.463
  24508386.108          38.930          19.250
  20364214.016    20364216.775   107014708.6194   83388111.1534   20364213.883
  20364216.238          52.370          50.060
  24332196.551    24332201.993   127866581.9814   99636323.9024   24332196.010
  24332201.241          36.750          34.060
  21440542.165    21440541.177   112670840.4654   87795481.6014   21440541.750
  21440541.043          49.810          42.620
  22480281.473    22480282.059   118134707.2434   92053031.5754   22480281.031
  22480281.500          46.310          36.750
  20806265.043                   109337691.1314   85198192.9034   20806263.764
  20806262.534          49.750          44.430
  23899673.677    23899677.526   125593653.7984   97865197.6654   23899672.913
  23899676.444          37.250          19.180
  22475156.107    22475162.908   120311326.909    93575490.497    22475155.709
  22475162.988          46.310          43.180
  20735676.103    20735682.560   111038630.696    86363438.260    20735676.411
  20735682.520          51.060          48.560
  22412698.010    22412704.519   119808751.404    93184615.163    22412697.966
  22412704.286          47.430          43.560
  22939488.967    22939495.226   122495587.680    95274383.433    22939489.722
  22939494.909          44.680          42.370
  22426315.830    22426321.881   119839485.232    93208503.856    22426317.082
  22426322.256          45.500          43.120
  20814181.533    20814188.401   111341859.005    86599276.503    20814181.627
  20814187.878          40.180          45.060
  20085773.381    20085781.343   107407600.588    83539348.526    20085773.989
  20085780.985          41.250          50.120
 21 04 28 22 00 59.0000000  0 16G02G03G04G06G09G12G17G19G25R03R04R05
                                R09R11R19R20
  21529496.439                   113138318.5364   88159737.8214   21529495.353
  21529493.868          50.310          44.750
  24923146.067    24923150.780   130972045.7574  102056156.7014   24923145.746
  24923151.857          28.310          14.620
  24508211.505    24508210.888   128791524.4414  100357048.7614   24508211.215
  24508210.843          38.560          19.180
  20364336.364    20364339.199   107015351.5194   83388612.1144   20364336.230
  20364338.578          52.310          50.060
  24331766.972    24331772.503   127864324.1174   99634564.5284   24331766.431
  24331771.604          36.750          34.120
  21440329.584    21440328.480   112669723.0364   87794610.8794   21440329.169
  21440328.395          49.680          42.620
  22480737.248    22480737.623   118137101.5944   92054897.3024   22480736.806
  22480737.140          46.250          36.810
  20806611.625                   109339512.6194   85199612.2424   20806610.346
  20806609.151          49.500          44.500
  23899113.673    23899117.505   125590711.5564   97862905.0094   23899112.913
  23899116.592          37.060          19.310
  22475615.960    22475622.658   120313788.493    93577405.058    22475615.544
  22475622.653          46.370          43.060
  20735444.066    20735450.407   111037387.861    86362471.612    20735444.339
  20735450.505          50.930          48.560
  22411918.182    22411924.538   119804581.801    93181372.155    22411917.873
  22411924.386          47.370          43.680
  22940274.680    22940281.092   122499784.570    95277647.676    22940275.668
  22940280.993          44.560          43.000
  22425939.136    22425945.468   119837471.363    93206937.507    22425940.321
  22425945.388          45.750          42.930
  20814567.232    20814573.595   111343919.651    86600879.224    20814566.938
  20814573.085          40.250          45.000
  20085527.897    20085536.057   107406289.067    83538328.457    20085528.720
  20085535.793          41.310          50.060
 21 04 28 22 01 00.0000000  0 16G02G03G04G06G09G12G17G19G25R03R04R05
                                R09R11R19R20
  21529263.472                   113137094.4534   88158783.9914   21529262.386
  21529260.932          50.370          44.810
  24923815.550    24923820.723   130975563.6724  102058897.9394   24923815.229
  24923821.331          28.060          14.620
  24508036.473    24508035.752   128790603.8134  100356331.3904   24508036.169
  24508035.573          38.620          19.060
  20364458.739    20364461.744   107015994.8154   83389113.3844   20364458.610
  20364460.993          52.250          50.120
  24331337.866    24331342.587   127862066.6354   99632805.4544   24331337.324
  24331342.024          37.120          34.120
  21440117.133    21440115.948   112668606.2904   87793740.6874   21440116.718
  21440115.876          49.810          42.680
  22481193.081    22481193.367   118139496.2154   92056763.2404   22481192.638
  22481192.821          46.250          36.870
  20806958.220                   109341334.5234   85201031.9064   20806956.937
  20806955.854          49.500          44.560
  23898553.682    23898558.078   125587769.7324   97860612.6864   23898552.922
  23898556.777          36.810          19.250
  22476075.876    22476082.645   120316250.801    93579320.189    22476075.464
  22476082.613          46.250          43.250
  20735211.989    20735218.486   111036145.893    86361505.642    20735212.423
  20735218.621          51.000          48.500
  22411138.201    22411144.464   119800412.470    93178129.341    22411137.897
  22411144.464          47.370          43.500
  22941060.603    22941067.274   122503981.631    95280912.046    22941061.569
  22941066.988          44.430          42.680
  22425562.589    22425568.909   119835458.275    93205371.788    22425563.689
  22425568.770          46.060          43.060
  20814952.503    20814958.758   111345980.552    86602482.154    20814952.190
  20814958.342          40.180          45.000
  20085282.629    20085291.052   107404977.873    83537308.639    20085283.447
  20085290.636          41.310          50.180
 21 04 28 22 01 01.0000000  0 16G02G03G04G06G09G12G17G19G25R03R04R05
                                R09R11R19R20
  21529030.630                   113135870.6694   88157830.3934   21529029.544
  21529028.054          50.310          44.810
  24924484.755    24924490.076   130979081.7764  102061639.3124   24924484.450
  24924490.827          27.180          14.750
  24507861.498    24507860.416   128789683.7384  100355614.4394   24507861.181
  24507860.429          38.500          19.000
  20364581.195    20364584.311   107016638.4984   83389614.9554   20364581.061
  20364583.484          52.250          50.180
  24330908.585    24330913.169   127859809.4974   99631046.6464   24330908.045
  24330912.498          37.120          34.120
  21439904.762    21439903.707   112667490.2194   87792871.0214   21439904.347
  21439903.488          49.810          42.750
  22481648.918    22481648.989   118141891.1004   92058629.3834   22481648.476
  22481648.560          46.180          36.870
  20807304.909                   109343156.8424   85202451.8954   20807303.626
  20807302.633          49.430          44.560
  23897993.750    23897998.356   125584828.2854   97858320.6374   23897992.990
  23897997.144          36.750          19.430
  22476535.746    22476542.533   120318713.843    93581235.880    22476535.661
  22476542.676          46.180          43.180
  20734980.153    20734986.794   111034904.802    86360540.350    20734980.627
  20734986.829          51.180          48.620
  22410358.104    22410364.389   119796243.387    93174886.731    22410358.037
  22410364.639          47.370          43.370
  22941846.513    22941853.261   122508178.849    95284176.562    22941847.524
  22941853.064          44.370          42.750
  22425186.351    22425192.725   119833445.973    93203806.660    22425187.188
  22425192.264          46.370          43.060
  20815338.127    20815344.016   111348041.732    86604085.295    20815337.478
  20815343.609          39.870          44.930
  20085037.642    20085046.132   107403667.003    83536289.069    20085038.362
  20085045.547          41.500          50.180
 21 04 28 22 01 02.0000000  0 16G02G03G04G06G09G12G17G19G25R03R04R05
                                R09R11R19R20
  21528797.820                   113134647.1764   88156877.0214   21528796.734
  21528795.226          50.430          44.750
  24925153.732    24925159.822   130982600.1594  102064380.9064   24925153.446
  24925160.318          27.810          15.060
  24507686.434    24507685.325   128788764.2284  100354897.9504   24507686.104
  24507685.396          38.620          18.930
  20364703.690    20364706.914   107017282.5704   83390116.8294   20364703.556
  20364706.051          52.250          50.120
  24330479.350    24330483.463   127857552.6954   99629288.0994   24330478.809
  24330483.039          37.560          34.120
  21439692.534    21439691.542   112666374.8164   87792001.8764   21439692.120
  21439691.224          49.870          42.680
  22482104.666    22482104.786   118144286.2524   92060495.7364   22482104.224
  22482104.343          46.180          36.870
  20807651.648                   109344979.5874   85203872.2144   20807650.370
  20807649.496          49.560          44.560
  23897434.315    23897438.639   125581887.2694   97856028.9384   23897433.560
  23897437.565          36.870          18.930
  22476995.885    22477002.752   120321177.588    93583152.138    22476995.925
  22477002.770          46.060          43.000
  20734748.706    20734755.128   111033664.593    86359575.748    20734749.060
  20734755.266          51.310          48.310
  22409578.092    22409584.547   119792074.563    93171644.305    22409578.155
  22409584.842          47.310          43.620
  22942632.454    22942639.399   122512376.239    95287441.182    22942633.555
  22942639.130          44.370          42.810
  22424810.489    22424816.567   119831434.465    93202242.161    22424810.878
  22424815.749          46.620          43.060
  20815723.661    20815729.223   111350103.182    86605688.631    20815722.660
  20815728.933          39.870          45.120
  20084792.588    20084801.150   107402356.456    83535269.750    20084793.286
  20084800.466          41.430          50.180
 21 04 28 22 01 03.0000000  0 16G02G03G04G06G09G12G17G19G25R03R04R05
                                R09R11R19R20
  21528565.090                   113133423.9734   88155923.8774   21528564.003
  21528562.456          50.430          44.750
  24925824.215    24925829.000   130986118.6994  102067122.6174   24925823.944
  24925829.854          28.060          15.250
  24507511.495    24507510.305   128787845.2484  100354181.8614   24507511.151
  24507510.484          38.430          18.870
  20364826.293    20364829.561   107017927.0364   83390619.0104   20364826.159
  20364828.690          52.250          50.120
  24330049.779    24330053.557   127855296.2344   99627529.8204   24330049.234
  24330053.638          37.430          34.180
  21439480.401    21439479.649   112665260.0974   87791133.2644   21439479.981
  21439479.095          49.870          42.680
  22482560.440    22482560.556   118146681.6754   92062362.3004   22482559.998
  22482560.176          46.120          36.810
  20807998.498                   109346802.7544   85205292.8644   20807997.215
  20807996.436          49.560          44.560
  23896874.870    23896878.782   125578946.6544   97853737.5594   23896874.115
  23896878.089          36.750          18.680
  22477455.706    22477462.882   120323642.034    93585068.943    22477456.341
  22477463.146          46.000          43.180
  20734517.291    20734523.762   111032425.264    86358611.826    20734517.653
  20734523.807          51.500          48.500
  22408798.250    22408804.687   119787905.998    93168402.103    22408798.357
  22408805.049          47.370          43.620
  22943418.499    22943425.416   122516573.799    95290705.948    22943419.715
  22943425.210          44.430          42.870
  22424434.480    22424440.387   119829423.728    93200678.254    22424434.757
  22424439.417          46.620          43.060
  20816109.057    20816114.610   111352164.863    86607292.178    20816108.109
  20816114.293          39.810          45.000
  20084547.731    20084556.168   107401046.220    83534250.674    20084548.250
  20084555.484          41.620          50.180
 21 04 28 22 01 04.0000000  0 16G02G03G04G06G09G12G17G19G25R03R04R05
                                R09R11R19R20
  21528332.373                   113132201.0684   88154970.9654   21528331.282
  21528329.739          50.430          44.680
  24926494.083    24926499.444   130989637.4654  102069864.5004   24926493.820
  24926499.413          27.430          15.180
  24507336.691    24507335.519   128786926.8374  100353466.2154   24507336.328
  24507335.666          38.500          18.680
  20364948.986    20364952.321   107018571.8894   83391121.4914   20364948.852
  20364951.404          52.250          50.120
  24329620.337    24329624.017   127853040.1654   99625771.8464   24329619.788
  24329624.331          37.680          34.180
  21439268.370    21439267.668   112664146.0544   87790265.1784   21439267.950
  21439267.091          49.750          42.680
  22483016.246    22483016.367   118149077.3644   92064229.0704   22483015.804
  22483016.049          46.120          36.810
  20808345.465                   109348626.3404   85206713.8384   20808344.182
  20808343.466          49.620          44.560
  23896315.501    23896319.347   125576006.4534   97851446.5004   23896314.750
  23896318.685          36.930          18.500
  22477916.189    22477923.276   120326107.192    93586986.274    22477916.963
  22477923.639          45.930          43.250
  20734286.112    20734292.579   111031186.820    86357648.594    20734286.394
  20734292.516          51.560          48.500
  22408018.408    22408024.881   119783737.722    93165160.110    22408018.686
  22408025.341          47.430          43.680
  22944204.735    22944211.442   122520771.531    95293970.847    22944205.880
  22944211.227          44.560          42.750
  22424058.675    22424064.239   119827413.777    93199114.963    22424058.752
  22424063.224          46.560          43.120
  20816494.274    20816499.961   111354226.824    86608895.920    20816493.532
  20816499.733          39.750          44.870
  20084303.053    20084311.311   107399736.308    83533231.853    20084303.442
  20084310.560          41.560          50.250
 21 04 28 22 01 05.0000000  0 16G02G03G04G06G09G12G17G19G25R03R04R05
                                R09R11R19R20
  21528099.692                   113130978.4524   88154018.2774   21528098.606
  21528097.071          50.430          44.750
  24927163.408    24927169.203   130993156.4634  102072606.5994   24927163.155
  24927169.047          27.060          15.120
  24507161.712    24507161.032   128786008.9884  100352751.0134   24507161.337
  24507160.924          38.500          18.810
  20365071.740    20365075.090   107019217.1324   83391624.2774   20365071.607
  20365074.195          52.250          50.060
  24329191.406    24329194.742   127850784.4114   99624014.1194   24329190.856
  24329195.055          37.810          34.250
  21439056.411    21439055.976   112663032.6834   87789397.6174   21439055.996
  21439055.221          49.680          42.680
  22483472.052    22483472.405   118151473.3274   92066096.0534   22483471.610
  22483471.989          46.060          36.810
  20808692.597                   109350450.3524   85208135.1454   20808691.314
  20808690.562          49.680          44.500
  23895756.316    23895760.049   125573066.6464   97849155.7264   23895755.579
  23895759.276          37.120          18.560
  22478376.937    22478383.710   120328573.069    93588904.177    22478377.652
  22478384.287          46.060          43.060
  20734055.046    20734061.503   111029949.267    86356686.046    20734055.332
  20734061.369          51.560          48.310
  22407238.615    22407245.294   119779569.729    93161918.338    22407239.031
  22407245.580          47.500          43.500
  22944991.272    22944997.545   122524969.451    95297235.902    22944992.018
  22944997.227          44.750          42.750
  22423682.862    22423688.046   119825404.625    93197552.297    22423682.907
  22423687.188          46.500          42.930
  20816879.938    20816885.361   111356289.040    86610499.864    20816879.115
  20816885.178          39.680          45.060
  20084058.469    20084066.512   107398426.720    83532213.289    20084058.701
  20084065.689          41.430          50.250
 21 04 28 22 01 06.0000000  0 16G02G03G04G06G09G12G17G19G25R03R04R05
                                R09R11R19R20
  21527867.127                   113129756.1404   88153065.8264   21527866.041
  21527864.475          50.310          44.870
  24927833.106    24927839.696   130996675.6424  102075348.8254   24927832.873
  24927838.726          26.810          15.120
  24506987.077    24506986.321   128785091.6634  100352036.2214   24506986.697
  24506986.325          38.500          19.310
  20365194.594    20365197.911   107019862.7624   83392127.3644   20365194.460
  20365197.062          52.310          50.060
  24328762.063    24328765.404   127848529.0304   99622256.6844   24328761.514
  24328765.850          38.060          34.430
  21438844.572    21438844.330   112661919.9924   87788530.5844   21438844.152
  21438843.485          49.560          42.680
  22483927.854    22483928.171   118153869.5584   92067963.2444   22483927.411
  22483927.978          46.000          36.930
  20809039.787                   109352274.7834   85209556.7794   20809038.504
  20809037.743          49.620          44.500
  23895197.148    23895200.775   125570127.2604   97846865.3054   23895196.411
  23895200.006          37.250          19.120
  22478837.885    22478844.560   120331039.690    93590822.663    22478838.493
  22478845.056          46.060          43.120
  20733824.069    20733830.517   111028712.595    86355724.193    20733824.422
  20733830.356          51.500          48.500
  22406458.849    22406465.608   119775402.024    93158676.797    22406459.431
  22406465.961          47.500          43.500
  22945777.736    22945783.817   122529167.555    95300501.093    22945778.277
  22945783.432          44.750          42.500
  22423307.116    22423311.853   119823396.257    93195990.233    22423307.165
  22423311.271          46.310          42.870
  20817265.781    20817270.744   111358351.522    86612104.006    20817264.766
  20817270.685          39.680          45.000
  20083813.858    20083821.798   107397117.466    83531194.982    20083813.817
  20083820.814          41.430          50.120
 21 04 28 22 01 07.0000000  0 16G02G03G04G06G09G12G17G19G25R03R04R05
                                R09R11R19R20
  21527634.563                   113128534.1084   88152113.5934   21527633.472
  21527631.928          50.430          44.810
  24928502.583    24928510.060   131000194.9904  102078091.1664   24928502.369
  24928508.450          26.750          14.930
  24506812.746    24506812.084   128784174.9094  100351321.8674   24506812.357
  24506811.825          38.750          19.120
  20365317.532    20365320.805   107020508.7884   83392630.7614   20365317.398
  20365320.000          52.370          50.180
  24328333.029    24328336.329   127846273.9844   99620499.5094   24328332.475
  24328336.749          38.000          34.430
  21438632.832    21438632.728   112660807.9774   87787664.0804   21438632.412
  21438631.883          49.370          42.810
  22484383.802    22484384.222   118156266.0514   92069830.6384   22484383.361
  22484384.012          46.000          36.930
  20809387.080                   109354099.6244   85210978.7324   20809385.797
  20809384.991          49.680          44.620
  23894637.923    23894641.943   125567188.2774   97844575.1844   23894637.186
  23894640.726          37.060          19.000
  22479299.065    22479305.365   120333507.037    93592741.697    22479299.589
  22479306.022          46.180          43.180
  20733593.096    20733599.468   111027476.787    86354763.012    20733593.597
  20733599.544          51.430          48.430
  22405679.164    22405686.115   119771234.601    93155435.464    22405679.929
  22405686.334          47.560          43.250
  22946564.115    22946569.754   122533365.784    95303766.375    22946564.500
  22946569.597          44.680          42.680
  22422931.241    22422935.499   119821388.683    93194428.785    22422931.531
  22422935.391          46.180          42.680
  20817651.186    20817656.255   111360414.266    86613708.359    20817650.389
  20817656.278          39.870          45.120
  20083568.906    20083577.021   107395808.533    83530176.926    20083569.005
  20083576.037          41.120          50.060
 21 04 28 22 01 08.0000000  0 16G02G03G04G06G09G12G17G19G25R03R04R05
                                R09R11R19R20
  21527402.043                   113127312.3764   88151161.5954   21527400.957
  21527399.440          50.430          44.810
  24929173.143    24929179.989   131003714.5934  102080833.7194   24929172.933
  24929178.169          26.930          14.870
  24506638.299    24506637.829   128783258.7174  100350607.9524   24506637.910
  24506637.364          38.680          19.180
  20365440.614    20365443.712   107021155.2034   83393134.4614   20365440.480
  20365443.014          52.500          50.180
  24327904.178    24327907.312   127844019.3024   99618742.6194   24327903.628
  24327907.706          38.370          34.620
  21438421.257    21438421.167   112659696.6344   87786798.1004   21438420.837
  21438420.402          49.430          42.810
  22484839.855    22484840.266   118158662.8184   92071698.2474   22484839.412
  22484840.113          46.120          36.870
  20809734.422                   109355924.8954   85212401.0204   20809733.139
  20809732.334          49.620          44.620
  23894078.804    23894083.008   125564249.6884   97842285.3724   23894078.068
  23894081.568          37.250          19.000
  22479760.389    22479766.631   120335975.091    93594661.295    22479760.770
  22479767.271          46.060          43.310
  20733362.378    20733368.715   111026241.844    86353802.497    20733362.915
  20733368.961          51.370          48.370
  22404899.608    22404906.577   119767067.430    93152194.346    22404900.462
  22404906.809          47.680          43.370
  22947350.661    22947355.941   122537564.219    95307031.815    22947350.790
  22947355.762          44.560          42.310
  22422555.602    22422559.806   119819381.891    93192867.954    22422555.995
  22422559.735          46.120          42.680
  20818036.881    20818041.906   111362477.246    86615312.912    20818035.991
  20818041.996          39.620          44.870
  20083323.839    20083332.231   107394499.925    83529159.118    20083324.192
  20083331.274          41.250          50.120
 21 04 28 22 01 09.0000000  0 16G02G03G04G06G09G12G17G19G25R03R04R05
                                R09R11R19R20
  21527169.599                   113126090.9384   88150209.8264   21527168.513
  21527167.005          50.430          44.930
  24929842.308    24929850.142   131007234.4134  102083576.4324   24929842.117
  24929848.010          26.500          15.120
  24506464.098    24506463.959   128782343.0644  100349894.4534   24506463.696
  24506463.047          38.680          19.310
  20365563.758    20365566.722   107021802.0064   83393638.4644   20365563.624
  20365566.100          52.430          50.250
  24327475.457    24327478.685   127841764.9684   99616986.0014   24327474.907
  24327478.730          38.370          34.680
  21438209.816    21438209.655   112658585.9724   87785932.6504   21438209.401
  21438209.047          49.430          42.870
  22485295.986    22485296.617   118161059.8534   92073566.0664   22485295.549
  22485296.263          46.250          36.930
  20810081.836                   109357750.5854   85213823.6354   20810080.553
  20810079.756          49.620          44.750
  23893519.839    23893524.194   125561311.5134   97839995.8794   23893519.096
  23893522.535          37.180          19.120
  22480221.794    22480227.727   120338443.866    93596581.442    22480222.062
  22480228.541          46.120          43.370
  20733131.893    20733138.274   111025007.780    86352842.671    20733132.398
  20733138.440          51.370          48.500
  22404120.155    22404126.900   119762900.526    93148953.415    22404120.924
  22404127.254          47.620          43.620
  22948137.116    22948142.110   122541762.810    95310297.396    22948137.004
  22948142.016          44.620          42.500
  22422180.106    22422184.190   119817375.892    93191307.722    22422180.643
  22422184.320          46.120          42.870
  20818422.415    20818427.539   111364540.490    86616917.653    20818421.552
  20818427.727          39.560          45.000
  20083079.362    20083087.553   107393191.643    83528141.566    20083079.523
  20083086.600          41.250          50.180
 21 04 28 22 01 10.0000000  0 16G02G03G04G06G09G12G17G19G25R03R04R05
                                R09R11R19R20
  21526937.209                   113124869.7944   88149258.2864   21526936.123
  21526934.628          50.430          44.930
  24930511.701    24930520.903   131010754.4074  102086319.2814   24930511.518
  24930517.881          26.750          15.000
  24506289.879    24506289.705   128781427.9574  100349181.3774   24506289.468
  24506288.936          38.370          19.180
  20365687.018    20365689.853   107022449.1984   83394142.7694   20365686.884
  20365689.262          52.500          50.250
  24327046.507    24327049.991   127839511.0044   99615229.6704   24327045.957
  24327049.807          38.310          34.750
  21437998.586    21437998.429   112657475.9894   87785067.7294   21437998.166
  21437997.825          49.430          42.930
  22485752.360    22485752.776   118163457.1584   92075434.0944   22485751.922
  22485752.463          46.250          36.930
  20810429.366                   109359576.6944   85215246.5764   20810428.088
  20810427.255          49.620          44.750
  23892960.890    23892964.852   125558373.7484   97837706.7194   23892960.153
  23892963.573          37.370          18.870
  22480683.198    22480689.082   120340913.330    93598502.144    22480683.332
  22480689.914          46.120          43.310
  20732901.488    20732908.053   111023774.632    86351883.562    20732902.052
  20732908.115          51.310          48.430
  22403340.563    22403347.344   119758733.902    93145712.706    22403341.498
  22403347.751          47.620          43.370
  22948923.460    22948928.521   122545961.606    95313563.120    22948923.236
  22948928.240          44.500          42.500
  22421804.937    22421808.735   119815370.675    93189748.114    22421805.425
  22421808.923          46.120          42.560
  20818807.596    20818813.351   111366603.960    86618522.589    20818807.189
  20818813.529          39.370          45.120
  20082834.590    20082842.937   107391883.678    83527124.265    20082834.751
  20082841.971          41.310          50.250
 21 04 28 22 01 11.0000000  0 16G02G03G04G06G09G12G17G19G25R03R04R05
                                R09R11R19R20
  21526704.899                   113123648.9434   88148306.9734   21526703.813
  21526702.310          50.430          44.810
  24931181.505    24931190.637   131014274.6444  102089062.3144   24931181.328
  24931187.806          27.120          15.000
  24506115.759    24506116.062   128780513.4134  100348468.7504   24506115.339
  24506114.931          38.060          18.810
  20365810.363    20365813.063   107023096.7834   83394647.3814   20365810.229
  20365812.496          52.500          50.120
  24326617.688    24326621.243   127837257.3874   99613473.6084   24326617.134
  24326620.952          38.560          34.680
  21437787.507    21437787.382   112656366.6834   87784203.3344   21437787.087
  21437786.733          49.430          42.750
  22486208.685    22486209.230   118165854.7334   92077302.3334   22486208.247
  22486208.707          46.310          36.810
  20810776.936                   109361403.2154   85216669.8394   20810775.654
  20810774.830          49.620          44.560
  23892401.597    23892405.680   125555436.3894   97835417.8804   23892400.856
  23892404.642          37.500          18.560
  22481144.750    22481150.589   120343383.505    93600423.383    22481144.692
  22481151.497          46.180          43.310
  20732671.441    20732677.871   111022542.391    86350925.151    20732671.884
  20732678.015          51.310          48.430
  22402561.263    22402568.155   119754567.568    93142472.231    22402562.067
  22402568.330          47.560          43.560
  22949709.776    22949714.932   122550160.556    95316828.961    22949709.504
  22949714.574          44.310          42.060
  22421429.786    22421433.288   119813366.252    93188189.120    22421430.211
  22421433.700          46.250          42.560
  20819193.014    20819199.185   111368667.712    86620127.715    20819192.992
  20819199.305          39.560          45.000
  20082590.109    20082598.263   107390576.038    83526107.212    20082590.167
  20082597.414          41.180          50.180
 21 04 28 22 01 12.0000000  0 16G02G03G04G06G09G12G17G19G25R03R04R05
                                R09R11R19R20
  21526472.683                   113122428.3924   88147355.8954   21526471.597
  21526470.040          50.500          44.810
  24931851.722    24931859.774   131017795.0474  102091805.4824   24931851.561
  24931857.695          26.680          15.120
  24505941.491    24505942.304   128779599.4154  100347756.5464   24505941.058
  24505940.990          37.930          18.810
  20365933.744    20365936.382   107023744.7514   83395152.2924   20365933.610
  20365935.805          52.560          50.120
  24326188.985    24326192.678   127835004.1234   99611717.8214   24326188.430
  24326192.177          38.620          34.750
  21437576.643    21437576.093   112655258.0534   87783339.4664   21437576.223
  21437575.767          49.500          42.750
  22486665.090    22486665.515   118168252.5734   92079170.7794   22486664.652
  22486665.009          46.250          36.810
  20811124.641                   109363230.1604   85218093.4304   20811123.358
  20811122.485          49.620          44.560
  23891842.949    23891846.910   125552499.4524   97833129.3504   23891842.197
  23891845.860          37.370          18.680
  22481606.208    22481612.499   120345854.369    93602345.179    22481606.329
  22481613.152          46.120          43.250
  20732441.523    20732447.909   111021311.011    86349967.403    20732441.841
  20732448.052          51.180          48.370
  22401781.962    22401788.564   119750401.509    93139231.949    22401782.735
  22401788.895          47.560          43.310
  22950496.008    22950501.065   122554359.677    95320094.934    22950495.700
  22950500.829          44.180          42.250
  22421054.733    22421058.504   119811362.620    93186630.743    22421055.171
  22421058.826          46.250          42.500
  20819578.468    20819585.202   111370731.712    86621733.047    20819578.750
  20819585.153          39.870          45.180
  20082345.363    20082353.612   107389268.708    83525090.399    20082345.766
  20082352.874          41.250          50.120
 21 04 28 22 01 13.0000000  0 16G02G03G04G06G09G12G17G19G25R03R04R05
                                R09R11R19R20
  21526240.499                   113121208.1284   88146405.0394   21526239.413
  21526237.829          50.500          44.810
  24932521.526    24932529.266   131021315.6914  102094548.8354   24932521.374
  24932527.643          27.180          14.620
  24505767.263    24505768.649   128778685.9824  100347044.7814   24505766.825
  24505767.124          37.620          18.620
  20366057.161    20366059.812   107024393.1204   83395657.5154   20366057.027
  20366059.182          52.560          50.120
  24325760.178    24325764.122   127832751.2084   99609962.3024   24325759.620
  24325763.469          38.680          34.680
  21437365.855    21437365.216   112654150.0894   87782476.1194   21437365.435
  21437364.930          49.560          42.750
  22487121.504    22487121.893   118170650.6814   92081039.4354   22487121.071
  22487121.361          46.370          36.810
  20811472.394                   109365057.5094   85219517.3384   20811471.111
  20811470.212          49.620          44.560
  23891284.219    23891288.324   125549562.8914   97830841.1214   23891283.473
  23891287.058          37.430          18.620
  22482067.899    22482074.364   120348325.954    93604267.521    22482067.970
  22482074.887          46.000          43.370
  20732211.843    20732218.247   111020080.480    86349010.331    20732212.004
  20732218.270          51.000          48.500
  22401002.629    22401009.294   119746235.714    93135991.901    22401003.394
  22401009.473          47.560          43.250
  22951282.169    22951287.195   122558558.946    95323361.050    22951281.946
  22951287.128          44.060          42.180
  22420679.694    22420683.330   119809359.757    93185072.958    22420680.212
  22420683.961          46.430          42.430
  20819964.794    20819971.322   111372795.946    86623338.571    20819964.705
  20819971.103          39.870          45.060
  20082101.164    20082109.032   107387961.692    83524073.827    20082101.472
  20082108.429          41.250          50.180
 21 04 28 22 01 14.0000000  0 16G02G03G04G06G09G12G17G19G25R03R04R05
                                R09R11R19R20
  21526008.355                   113119988.1684   88145454.4214   21526007.269
  21526005.675          50.560          44.810
  24933191.666    24933200.108   131024836.5154  102097292.3234   24933191.528
  24933197.622          26.680          14.120
  24505592.803    24505594.859   128777773.0814  100346333.4304   24505592.355
  24505593.361          37.310          18.430
  20366180.618    20366183.377   107025041.8754   83396163.0374   20366180.480
  20366182.639          52.620          50.120
  24325331.475    24325335.485   127830498.6494   99608207.0604   24325330.917
  24325334.810          38.680          34.750
  21437155.166    21437154.397   112653042.8164   87781613.3104   21437154.746
  21437154.222          49.560          42.750
  22487577.981    22487578.213   118173049.0614   92082908.3014   22487577.543
  22487577.761          46.310          36.810
  20811820.229                   109366885.2954   85220941.5864   20811818.945
  20811818.028          49.750          44.560
  23890725.441    23890729.890   125546626.7844   97828553.2524   23890724.690
  23890728.415          37.370          18.750
  22482529.643    22482536.166   120350798.256    93606190.431    22482529.723
  22482536.810          45.870          43.370
  20731982.118    20731988.768   111018850.826    86348053.926    20731982.301
  20731988.692          50.870          48.560
  22400223.556    22400229.970   119742070.177    93132752.039    22400224.102
  22400230.113          47.560          43.060
  22952068.513    22952073.650   122562758.368    95326627.252    22952068.303
  22952073.498          43.870          41.930
  22420305.142    22420308.523   119807357.700    93183515.802    22420305.419
  22420309.198          46.560          42.370
  20820351.133    20820357.241   111374860.469    86624944.298    20820350.561
  20820357.071          40.060          45.060
  20081856.695    20081864.568   107386654.981    83523057.504    20081857.299
  20081864.050          41.370          50.180
 21 04 28 22 01 15.0000000  0 16G02G03G04G06G09G12G17G19G25R03R04R05
                                R09R11R19R20
  21525776.291                   113118768.4994   88144504.0294   21525775.205
  21525773.580          50.560          44.810
  24933862.078    24933869.603   131028357.5834  102100036.0074   24933861.958
  24933867.694          26.620          14.310
  24505418.463    24505421.333   128776860.7564  100345622.5324   24505418.007
  24505419.768          37.180          18.430
  20366304.102    20366306.972   107025691.0164   83396668.8614   20366303.968
  20366306.168          52.560          50.120
  24324903.062    24324906.858   127828246.4514   99606452.1014   24324902.508
  24324906.228          38.810          34.810
  21436944.584    21436943.859   112651936.2204   87780751.0254   21436944.169
  21436943.649          49.620          42.750
  22488034.421    22488034.614   118175447.7114   92084777.3794   22488033.989
  22488034.211          46.310          36.810
  20812168.161                   109368713.4944   85222366.1564   20812166.874
  20812165.925          49.750          44.560
  23890166.953    23890171.648   125543691.0674   97826265.6774   23890166.202
  23890169.779          37.620          18.810
  22482991.257    22482998.027   120353271.274    93608113.878    22482991.544
  22482998.868          45.810          43.430
  20731752.665    20731759.275   111017622.064    86347098.226    20731752.853
  20731759.302          50.810          48.500
  22399444.676    22399450.500   119737904.898    93129512.372    22399444.886
  22399450.782          47.680          43.060
  22952854.753    22952860.155   122566957.986    95329893.622    22952854.678
  22952859.976          43.620          41.870
  22419930.782    22419933.931   119805356.435    93181959.264    22419930.831
  22419934.557          46.620          42.310
  20820737.128    20820743.294   111376925.241    86626550.234    20820736.506
  20820743.120          40.000          45.000
  20081612.894    20081620.217   107385348.617    83522041.433    20081613.153
  20081619.756          41.560          50.120
 21 04 28 22 01 16.0000000  0 16G02G03G04G06G09G12G17G19G25R03R04R05
                                R09R11R19R20
  21525544.231                   113117549.1224   88143553.8664   21525543.145
  21525541.544          50.500          44.680
  24934531.435    24934539.895   131031878.8394  102102779.8494   24934531.324
  24934537.744          26.560          14.500
  24505244.132    24505248.009   128775948.9664  100344912.0464   24505243.667
  24505246.283          36.930          18.250
  20366427.666    20366430.688   107026340.5464   83397174.9894   20366427.528
  20366429.777          52.500          50.000
  24324474.435    24324478.244   127825994.5894   99604697.4034   24324473.877
  24324477.721          38.810          34.750
  21436734.141    21436733.465   112650830.3074   87779889.2764   21436733.725
  21436733.205          49.560          42.750
  22488490.903    22488491.144   118177846.6284   92086646.6624   22488490.465
  22488490.715          46.180          36.680
  20812516.103                   109370542.1114   85223791.0504   20812514.819
  20812513.897          49.750          44.430
  23889608.085    23889613.151   125540755.7524   97823978.4224   23889607.331
  23889611.157          37.620          18.560
  22483453.131    22483460.062   120355745.002    93610037.890    22483453.552
  22483460.956          45.750          43.310
  20731523.244    20731529.984   111016394.203    86346143.219    20731523.620
  20731530.024          50.810          48.560
  22398665.598    22398671.355   119733739.896    93126272.932    22398665.799
  22398671.485          47.680          42.930
  22953641.031    22953646.521   122571157.783    95333160.121    22953641.080
  22953646.499          43.560          42.000
  22419556.565    22419559.526   119803355.936    93180403.330    22419556.409
  22419560.085          46.680          42.310
  20821122.846    20821129.477   111378990.271    86628156.367    20821122.725
  20821129.177          40.060          45.060
  20081368.815    20081375.914   107384042.583    83521025.623    20081368.953
  20081375.534          41.500          50.250
 21 04 28 22 01 17.0000000  0 16G02G03G04G06G09G12G17G19G25R03R04R05
                                R09R11R19R20
  21525312.208                   113116330.0354   88142603.9274   21525311.122
  21525309.560          50.750          44.750
  24935201.951    24935209.977   131035400.3224  102105523.8734   24935201.844
  24935207.870          27.060          14.560
  24505070.115    24505074.393   128775037.7344  100344201.9934   24505069.642
  24505072.855          37.000          18.000
  20366551.240    20366554.365   107026990.4734   83397681.4264   20366551.102
  20366553.453          52.560          49.930
  24324046.156    24324049.608   127823743.0884   99602942.9864   24324045.598
  24324049.273          39.120          34.870
  21436523.804    21436523.294   112649725.0704   87779028.0524   21436523.390
  21436522.887          49.750          42.620
  22488947.335    22488947.648   118180245.8134   92088516.1564   22488946.902
  22488947.267          46.310          36.680
  20812864.133                   109372371.1474   85225216.2734   20812862.846
  20812861.955          49.870          44.430
  23889049.379    23889054.199   125537820.8534   97821691.4824   23889048.624
  23889052.625          37.560          18.560
  22483915.130    22483922.177   120358219.466    93611962.467    22483915.600
  22483923.134          45.870          43.680
  20731294.047    20731300.813   111015167.184    86345188.878    20731294.574
  20731300.920          50.870          48.560
  22397886.565    22397892.399   119729575.175    93123033.709    22397886.641
  22397892.327          47.750          43.250
  22954427.397    22954432.981   122575357.748    95336426.759    22954427.526
  22954433.008          43.430          42.310
  22419182.277    22419185.480   119801356.234    93178848.005    22419182.107
  22419185.882          46.870          42.250
  20821509.266    20821515.624   111381055.569    86629762.702    20821508.662
  20821515.293          40.120          45.060
  20081124.794    20081131.660   107382736.865    83520010.070    20081124.838
  20081131.370          41.680          50.180
 21 04 28 22 01 18.0000000  0 16G02G03G04G06G09G12G17G19G25R03R04R05
                                R09R11R19R20
  21525080.287                   113115111.2364   88141654.2134   21525079.201
  21525077.630          50.750          44.680
  24935871.777    24935879.651   131038922.0314  102108268.0714   24935871.679
  24935878.019          27.120          13.870
  24504896.513    24504900.953   128774127.0634  100343492.3774   24504896.035
  24504899.522          36.750          17.930
  20366674.898    20366678.121   107027640.7804   83398188.1584   20366674.760
  20366677.201          52.430          50.000
  24323617.971    24323621.244   127821491.9464   99601188.8514   24323617.413
  24323620.887          39.250          34.870
  21436313.602    21436313.070   112648620.5094   87778167.3554   21436313.187
  21436312.703          49.750          42.680
  22489403.713    22489404.195   118182645.2694   92090385.8614   22489403.280
  22489403.869          46.310          36.560
  20813212.218                   109374200.5974   85226641.8184   20813210.931
  20813210.089          49.870          44.430
  23888491.069    23888495.751   125534886.3444   97819404.8594   23888490.314
  23888494.204          37.370          18.430
  22484377.639    22484384.664   120360694.645    93613887.601    22484377.921
  22484385.459          45.870          43.500
  20731065.131    20731071.754   111013941.033    86344235.203    20731065.659
  20731071.991          51.180          48.560
  22397107.453    22397113.205   119725410.749    93119794.708    22397107.524
  22397113.317          47.810          43.000
  22955213.557    22955219.638   122579557.893    95339693.533    22955214.066
  22955219.620          43.560          42.180
  22418808.257    22418811.697   119799357.325    93177293.303    22418808.025
  22418811.782          46.870          42.310
  20821895.766    20821901.833   111383121.129    86631369.255    20821894.885
  20821901.444          40.000          45.060
  20080880.344    20080887.622   107381431.492    83518994.774    20080880.835
  20080887.309          41.430          50.120
 21 04 28 22 01 19.0000000  0 16G02G03G04G06G09G12G17G19G25R03R04R05
                                R09R11R19R20
  21524848.447                   113113892.7314   88140704.7294   21524847.361
  21524845.764          50.750          44.680
  24936541.904    24936550.136   131042443.8464  102111012.3414   24936541.819
  24936548.239          26.620          14.120
  24504723.398    24504727.391   128773216.9364  100342783.1884   24504722.925
  24504726.314          36.560          17.500
  20366798.591    20366801.896   107028291.4824   83398695.1994   20366798.454
  20366801.028          52.370          49.930
  24323189.805    24323192.680   127819241.1474   99599434.9824   24323189.247
  24323192.550          39.250          34.870
  21436103.476    21436102.930   112647516.6264   87777307.1854   21436103.061
  21436102.644          49.750          42.620
  22489860.293    22489860.824   118185044.9914   92092255.7734   22489859.859
  22489860.511          46.250          36.620
  20813560.347                   109376030.4664   85228067.6914   20813559.060
  20813558.299          49.680          44.430
  23887932.863    23887937.388   125531952.2354   97817118.5414   23887932.100
  23887935.864          37.500          18.310
  22484840.180    22484847.195   120363170.535    93615813.297    22484840.394
  22484847.977          45.930          43.430
  20730836.372    20730842.887   111012715.786    86343282.235    20730836.900
  20730843.169          51.310          48.560
  22396328.446    22396334.190   119721246.609    93116555.944    22396328.599
  22396334.378          47.870          43.180
  22956000.160    22956006.067   122583758.203    95342960.449    22956000.661
  22956006.152          43.370          41.870
  22418434.286    22418437.672   119797359.205    93175739.210    22418434.179
  22418437.878          46.870          42.370
  20822281.627    20822288.146   111385186.946    86632976.001    20822281.256
  20822287.676          40.060          45.180
  20080636.278    20080643.646   107380126.444    83517979.739    20080636.707
  20080643.288          41.370          50.180
 21 04 28 22 01 20.0000000  0 16G02G03G04G06G09G12G17G19G25R03R04R05
                                R09R11R19R20
  21524616.616                   113112674.5214   88139755.4754   21524615.530
  21524613.945          50.750          44.680
  24937212.535    24937220.338   131045965.9384  102113756.8334   24937212.464
  24937218.468          26.930          13.870
  24504549.962    24504553.999   128772307.3674  100342074.4494   24504549.493
  24504553.244          36.370          17.560
  20366922.402    20366925.782   107028942.5724   83399202.5414   20366922.264
  20366924.928          52.370          49.930
  24322761.575    24322764.356   127816990.7114   99597681.3994   24322761.012
  24322764.285          39.620          34.870
  21435893.556    21435892.956   112646413.4234   87776447.5454   21435893.141
  21435892.728          49.750          42.620
  22490316.917    22490317.552   118187444.9794   92094125.8924   22490316.484
  22490317.203          46.250          36.620
  20813908.432                   109377860.7664   85229493.8994   20813907.148
  20813906.589          49.620          44.430
  23887374.613    23887378.713   125529018.5584   97814832.5694   23887373.849
  23887377.555          37.310          18.560
  22485302.898    22485309.824   120365647.128    93617739.534    22485302.997
  22485310.665          46.000          43.560
  20730607.980    20730614.240   111011491.442    86342329.960    20730608.341
  20730614.589          51.430          48.500
  22395549.459    22395555.511   119717082.737    93113317.379    22395549.700
  22395555.453          47.870          43.120
  22956786.924    22956792.746   122587958.686    95346227.476    22956787.295
  22956792.790          43.560          41.930
  22418060.597    22418064.216   119795361.870    93174185.724    22418060.539
  22418064.140          46.870          42.250
  20822667.707    20822674.499   111387253.033    86634582.954    20822667.443
  20822673.917          40.120          45.000
  20080392.624    20080399.808   107378821.718    83516964.949    20080392.651
  20080399.348          41.180          50.120
 21 04 28 22 01 21.0000000  0 16G02G03G04G06G09G12G17G19G25R03R04R05
                                R09R11R19R20
  21524384.842                   113111456.6054   88138806.4504   21524383.757
  21524382.181          50.680          44.680
  24937882.854    24937890.424   131049488.2154  102116501.4554   24937882.783
  24937888.738          26.680          13.680
  24504376.239    24504381.113   128771398.3644  100341366.1204   24504375.774
  24504380.201          35.930          17.250
  20367046.266    20367049.731   107029594.0494   83399710.1854   20367046.128
  20367048.909          52.310          49.930
  24322333.382    24322336.042   127814740.6224   99595928.0854   24322332.819
  24322336.096          39.750          34.930
  21435683.734    21435683.197   112645310.8964   87775588.4344   21435683.319
  21435682.925          49.680          42.560
  22490773.720    22490774.211   118189845.2384   92095996.2214   22490773.287
  22490773.948          46.250          36.500
  20814256.677                   109379691.4824   85230920.4304   20814255.390
  20814254.960          49.430          44.370
  23886816.286    23886820.444   125526085.2904   97812546.9024   23886815.517
  23886819.375          37.310          18.620
  22485765.788    22485772.552   120368124.427    93619666.316    22485765.837
  22485773.451          46.000          43.680
  20730379.609    20730385.722   111010267.969    86341378.371    20730379.971
  20730386.075          51.500          48.680
  22394770.708    22394776.742   119712919.120    93110079.009    22394770.801
  22394776.603          47.810          43.250
  22957573.796    22957579.170   122592159.330    95349494.631    22957574.060
  22957579.452          43.620          42.000
  22417686.908    22417690.715   119793365.320    93172632.853    22417687.038
  22417690.576          46.750          42.560
  20823053.952    20823060.793   111389319.366    86636190.115    20823053.733
  20823060.189          40.000          45.310
  20080148.840    20080155.908   107377517.288    83515950.399    20080148.647
  20080155.456          41.120          50.180
 21 04 28 22 01 22.0000000  0 16G02G03G04G06G09G12G17G19G25R03R04R05
                                R09R11R19R20
  21524153.141                   113110238.9814   88137857.6524   21524152.055
  21524150.475          50.620          44.620
  24938552.635    24938561.051   131053010.7144  102119246.2494   24938552.568
  24938559.043          26.250          13.620
  24504202.924    24504208.504   128770489.9134  100340658.2414   24504202.464
  24504207.288          35.810          17.250
  20367170.268    20367173.725   107030245.9164   83400218.1344   20367170.130
  20367172.960          52.250          49.870
  24321905.184    24321907.629   127812490.8884   99594175.0504   24321904.617
  24321907.951          39.680          35.000
  21435474.104    21435473.612   112644209.0464   87774729.8484   21435473.689
  21435473.254          49.680          42.560
  22491230.496    22491231.023   118192245.7624   92097866.7584   22491230.063
  22491230.751          46.180          36.500
  20814605.003                   109381522.6184   85232347.2904   20814603.716
  20814603.419          49.370          44.310
  23886258.129    23886262.243   125523152.4414   97810261.5594   23886257.365
  23886261.295          37.060          18.560
  22486228.645    22486235.379   120370602.419    93621593.642    22486228.828
  22486236.282          46.000          43.620
  20730151.252    20730157.567   111009045.368    86340427.462    20730151.700
  20730157.759          51.500          48.560
  22393991.925    22393997.696   119708755.762    93106840.841    22393991.997
  22393997.816          47.810          43.500
  22958360.622    22958365.666   122596360.114    95352761.921    22958360.895
  22958366.019          43.750          42.180
  22417313.483    22417317.133   119791369.568    93171080.590    22417313.702
  22417317.147          46.680          42.370
  20823440.577    20823447.199   111391385.993    86637797.484    20823439.844
  20823446.538          40.000          45.120
  20079904.882    20079912.088   107376213.180    83514936.099    20079904.635
  20079911.592          41.120          50.180
 21 04 28 22 01 23.0000000  0 16G02G03G04G06G09G12G17G19G25R03R04R05
                                R09R11R19R20
  21523921.462                   113109021.6564   88136909.0894   21523920.375
  21523918.837          50.620          44.620
  24939222.498    24939231.110   131056533.4234  102121991.1984   24939222.427
  24939229.411          26.620          14.060
  24504029.966    24504035.734   128769582.0004  100339950.7754   24504029.510
  24504034.428          35.500          17.310
  20367294.392    20367297.835   107030898.1754   83400726.3884   20367294.254
  20367297.088          52.310          49.870
  24321477.102    24321479.525   127810241.5164   99592422.2974   24321476.535
  24321479.896          39.750          34.930
  21435264.546    21435264.170   112643107.8744   87773871.7914   21435264.131
  21435263.718          49.750          42.560
  22491687.393    22491687.701   118194646.5524   92099737.5024   22491686.960
  22491687.608          46.180          36.500
  20814953.454                   109383354.1734   85233774.4764   20814952.171
  20814951.951          49.370          44.310
  23885700.079    23885704.037   125520219.9874   97807976.5314   23885699.315
  23885703.276          36.680          18.430
  22486691.516    22486698.410   120373081.128    93623521.519    22486691.910
  22486699.296          46.120          43.370
  20729923.284    20729929.456   111007823.637    86339477.233    20729923.638
  20729929.617          51.500          48.680
  22393213.103    22393219.034   119704592.696    93103602.899    22393213.232
  22393219.097          47.750          43.310
  22959147.467    22959152.341   122600561.089    95356029.328    22959147.753
  22959152.698          43.870          42.000
  22416940.165    22416943.422   119789374.590    93169528.936    22416940.505
  22416943.990          46.750          42.310
  20823826.720    20823833.628   111393452.869    86639405.060    20823826.469
  20823832.930          39.930          45.120
  20079660.776    20079668.380   107374909.398    83513922.045    20079660.713
  20079667.812          41.120          50.180
 21 04 28 22 01 24.0000000  0 16G02G03G04G06G09G12G17G19G25R03R04R05
                                R09R11R19R20
  21523689.867                   113107804.6164   88135960.7464   21523688.781
  21523687.247          50.620          44.620
  24939894.364    24939901.974   131060056.3434  102124736.3544   24939894.302
  24939899.788          26.810          14.060
  24503857.335    24503863.661   128768674.6444  100339243.7314   24503856.892
  24503861.721          35.180          17.120
  20367418.564    20367422.003   107031550.8224   83401234.9444   20367418.427
  20367421.283          52.370          49.870
  24321049.016    24321051.774   127807992.4864   99590669.8084   24321048.448
  24321051.899          39.810          35.000
  21435055.104    21435054.764   112642007.3774   87773014.2614   21435054.689
  21435054.303          49.750          42.620
  22492144.232    22492144.545   118197047.6114   92101608.4564   22492143.799
  22492144.509          46.120          36.500
  20815302.053                   109385186.1564   85235201.9944   20815300.770
  20815300.568          49.430          44.310
  23885142.106    23885146.010   125517287.9504   97805691.8194   23885141.337
  23885145.388          36.430          18.500
  22487155.215    22487161.452   120375560.567    93625449.975    22487155.134
  22487162.400          46.250          43.560
  20729695.353    20729701.484   111006602.791    86338527.684    20729695.679
  20729701.622          51.500          48.750
  22392434.338    22392440.323   119700429.921    93100365.186    22392434.490
  22392440.427          47.750          43.430
  22959934.217    22959938.908   122604762.229    95359296.896    22959934.571
  22959939.485          44.060          41.930
  22416567.071    22416569.983   119787380.425    93167977.914    22416567.424
  22416570.814          46.810          42.680
  20824213.130    20824219.962   111395520.027    86641012.835    20824212.929
  20824219.328          39.870          45.250
  20079416.844    20079424.704   107373605.919    83512908.232    20079416.786
  20079424.073          41.370          50.120
 21 04 28 22 01 25.0000000  0 16G02G03G04G06G09G12G17G19G25R03R04R05
                                R09R11R19R20
  21523458.291                   113106587.8714   88135012.6354   21523457.205
  21523455.711          50.500          44.620
  24940564.329    24940572.306   131063579.3674  102127481.5694   24940564.285
  24940570.182          26.250          14.370
  24503684.287    24503691.254   128767767.8254  100338537.1194   24503683.858
  24503689.134          35.060          17.370
  20367542.911    20367546.175   107032203.8674   83401743.8104   20367542.773
  20367545.558          52.250          49.870
  24320621.269    24320624.050   127805743.8324   99588917.6134   24320620.702
  24320623.992          39.620          35.120
  21434845.846    21434845.568   112640907.5604   87772157.2604   21434845.431
  21434845.023          49.680          42.620
  22492601.223    22492601.634   118199448.9334   92103479.6154   22492600.790
  22492601.460          46.000          36.500
  20815650.804                   109387018.5434   85236629.8274   20815649.521
  20815649.256          49.430          44.310
  23884583.940    23884587.835   125514356.3024   97803407.4164   23884583.167
  23884587.499          36.370          18.680
  22487618.484    22487624.761   120378040.722    93627378.978    22487618.484
  22487625.575          46.310          43.370
  20729467.443    20729473.681   111005382.818    86337578.818    20729467.828
  20729473.833          51.560          48.750
  22391655.753    22391661.586   119696267.443    93097127.707    22391655.780
  22391661.845          47.750          43.620
  22960721.183    22960725.694   122608963.556    95362564.588    22960721.532
  22960726.226          44.180          41.930
  22416194.160    22416196.943   119785387.051    93166427.519    22416194.517
  22416197.814          46.870          42.500
  20824599.653    20824606.646   111397587.418    86642620.821    20824599.412
  20824605.783          39.810          45.310
  20079172.944    20079181.009   107372302.770    83511894.673    20079173.208
  20079180.365          41.430          50.120
 21 04 28 22 01 26.0000000  0 16G02G03G04G06G09G12G17G19G25R03R04R05
                                R09R11R19R20
  21523226.817                   113105371.4214   88134064.7534   21523225.731
  21523224.228          50.500          44.620
  24941235.144    24941242.759   131067102.7844  102130227.0844   24941235.104
  24941240.698          26.620          13.870
  24503511.816    24503518.993   128766861.5924  100337830.9674   24503511.402
  24503516.637          34.870          17.000
  20367667.281    20367670.513   107032857.2944   83402252.9734   20367667.143
  20367669.905          52.310          49.870
  24320193.348    24320196.254   127803495.5094   99587165.6784   24320192.776
  24320196.138          39.750          35.180
  21434636.699    21434636.583   112639808.4084   87771300.7784   21434636.284
  21434635.871          49.750          42.620
  22493058.231    22493058.638   118201850.5284   92105350.9884   22493057.803
  22493058.459          45.930          36.500
  20815999.720                   109388851.3654   85238058.0004   20815998.442
  20815998.029          49.500          44.310
  23884025.756    23884030.398   125511425.0874   97801123.3524   23884024.975
  23884029.674          36.180          18.870
  22488082.115    22488088.227   120380521.574    93629308.529    22488082.012
  22488088.884          46.250          43.560
  20729239.784    20729246.161   111004163.723    86336630.635    20729240.177
  20729246.165          51.620          48.430
  22390877.123    22390882.826   119692105.229    93093890.431    22390877.141
  22390883.376          47.750          43.620
  22961508.077    22961512.807   122613165.036    95365832.396    22961508.381
  22961513.039          44.120          41.750
  22415821.406    22415824.349   119783394.460    93164877.718    22415821.700
  22415825.033          46.870          42.620
  20824986.502    20824993.142   111399655.073    86644228.988    20824985.818
  20824992.373          39.500          45.120
  20078929.491    20078937.467   107370999.956    83510881.370    20078929.553
  20078936.680          41.430          50.120
 21 04 28 22 01 27.0000000  0 16G02G03G04G06G09G12G17G19G25R03R04R05
                                R09R11R19R20
  21522995.433                   113104155.2654   88133117.1004   21522994.347
  21522992.808          50.500          44.620
  24941906.017    24941913.069   131070626.2604  102132972.6534   24941905.986
  24941911.177          26.870          13.810
  24503339.404    24503346.760   128765955.8944  100337125.2194   24503338.998
  24503344.292          35.310          16.750
  20367791.775    20367794.922   107033511.1074   83402762.4364   20367791.641
  20367794.323          52.310          49.870
  24319765.682    24319768.159   127801247.5734   99585414.0414   24319765.110
  24319768.347          39.750          35.180
  21434427.660    21434427.699   112638709.9394   87770444.8274   21434427.245
  21434426.846          49.750          42.560
  22493515.231    22493515.652   118204252.3944   92107222.5734   22493514.802
  22493515.504          45.870          36.430
  20816348.667                   109390684.5974   85239486.4924   20816347.394
  20816346.883          49.560          44.310
  23883467.850    23883472.773   125508494.2624   97798839.6014   23883467.068
  23883471.928          35.870          19.000
  22488545.818    22488552.028   120383003.123    93631238.630    22488545.607
  22488552.386          46.250          43.370
  20729012.169    20729018.662   111002945.535    86335683.151    20729012.661
  20729018.676          51.500          48.620
  22390098.461    22390104.022   119687943.277    93090653.355    22390098.546
  22390104.911          47.750          43.560
  22962295.248    22962300.086   122617366.683    95369100.346    22962295.261
  22962299.880          44.250          41.680
  22415448.883    22415451.841   119781402.648    93163328.529    22415449.008
  22415452.332          47.000          42.500
  20825372.765    20825379.678   111401722.981    86645837.357    20825372.345
  20825378.976          39.560          45.370
  20078685.733    20078694.005   107369697.470    83509868.324    20078686.024
  20078693.088          41.370          50.120
 21 04 28 22 01 28.0000000  0 16G02G03G04G06G09G12G17G19G25R03R04R05
                                R09R11R19R20
  21522764.076                   113102939.3934   88132169.6664   21522762.990
  21522761.438          50.560          44.620
  24942577.047    24942583.745   131074149.9834  102135718.4064   24942577.016
  24942581.755          26.870          13.430
  24503167.336    24503174.433   128765050.7724  100336419.9454   24503166.939
  24503172.036          35.810          16.620
  20367916.278    20367919.372   107034165.3194   83403272.2124   20367916.140
  20367918.818          52.370          49.810
  24319337.761    24319340.520   127798999.9634   99583662.6584   24319337.189
  24319340.631          39.680          35.250
  21434218.817    21434218.848   112637612.1434   87769589.4014   21434218.402
  21434217.940          49.810          42.560
  22493972.365    22493972.772   118206654.5264   92109094.3644   22493971.937
  22493972.611          45.870          36.370
  20816697.794                   109392518.2564   85240915.3154   20816696.516
  20816695.817          49.680          44.250
  23882909.970    23882915.121   125505563.8534   97796556.1694   23882909.184
  23882914.281          36.000          19.250
  22489009.525    22489015.976   120385485.381    93633169.269    22489009.341
  22489016.151          46.120          43.120
  20728784.765    20728791.401   111001728.236    86334736.367    20728785.283
  20728791.338          51.500          48.750
  22389319.849    22389325.588   119683781.570    93087416.479    22389320.001
  22389326.384          47.750          43.810
  22963082.352    22963087.015   122621568.491    95372368.415    22963082.249
  22963086.827          44.370          41.750
  22415076.228    22415079.292   119779411.628    93161779.960    22415076.451
  22415079.788          47.000          42.680
  20825759.283    20825766.388   111403791.135    86647445.932    20825759.118
  20825765.700          39.750          45.250
  20078442.169    20078450.579   107368395.299    83508855.521    20078442.544
  20078449.550          41.500          50.250
 21 04 28 22 01 29.0000000  0 16G02G03G04G06G09G12G17G19G25R03R04R05
                                R09R11R19R20
  21522532.772                   113101723.8174   88131222.4654   21522531.687
  21522530.120          50.560          44.560
  24943248.063    24943254.385   131077673.9034  102138464.3164   24943248.046
  24943252.351          26.500          13.560
  24502995.550    24503002.105   128764146.1684  100335715.0534   24502995.166
  24502999.892          35.750          16.750
  20368040.880    20368043.925   107034819.9144   83403782.2834   20368040.742
  20368043.388          52.370          49.810
  24318910.006    24318912.630   127796752.7244   99581911.5634   24318909.439
  24318912.974          39.870          35.370
  21434010.082    21434010.095   112636515.0264   87768734.5054   21434009.666
  21434009.164          49.870          42.500
  22494429.454    22494429.897   118209056.9354   92110966.3704   22494429.026
  22494429.772          45.870          36.370
  20817046.947                   109394352.3374   85242344.4684   20817045.669
  20817044.823          49.750          44.310
  23882352.458    23882357.403   125502633.8614   97794273.0694   23882351.676
  23882356.705          36.000          19.560
  22489473.456    22489479.957   120387968.375    93635100.480    22489473.205
  22489479.957          46.250          43.620
  20728557.589    20728564.296   111000511.813    86333790.257    20728558.045
  20728564.189          51.370          48.680
  22388541.590    22388547.262   119679620.133    93084179.813    22388541.549
  22388547.964          47.870          43.870
  22963869.371    22963873.730   122625770.488    95375636.632    22963869.103
  22963873.659          44.430          41.680
  22414703.915    22414706.989   119777421.400    93160232.018    22414704.014
  22414707.383          47.120          42.810
  20826146.244    20826153.224   111405859.550    86649054.695    20826145.641
  20826152.424          39.870          45.250
  20078198.787    20078207.126   107367093.452    83507842.975    20078199.208
  20078206.070          41.500          50.120
 21 04 28 22 01 30.0000000  0 16G02G03G04G06G09G12G17G19G25R03R04R05
                                R09R11R19R20
  21522301.491                   113100508.5334   88130275.4924   21522300.405
  21522298.857          50.500          44.560
  24943918.775    24943925.433   131081198.0414  102141210.4154   24943918.762
  24943923.023          26.180          13.430
  24502824.229    24502829.755   128763242.1494  100335010.6254   24502823.853
  24502827.860          36.180          17.120
  20368165.513    20368168.585   107035474.9004   83404292.6614   20368165.375
  20368168.026          52.250          49.810
  24318482.371    24318485.250   127794505.8244   99580160.7364   24318481.799
  24318485.398          39.560          35.430
  21433801.490    21433801.310   112635418.5844   87767880.1364   21433801.075
  21433800.519          49.810          42.500
  22494886.633    22494886.946   118211459.6034   92112838.5794   22494886.205
  22494886.977          45.680          36.370
  20817396.167                   109396186.8374   85243773.9474   20817394.894
  20817393.918          49.680          44.250
  23881794.488    23881799.961   125499704.2704   97791990.2704   23881793.715
  23881799.228          35.930          19.620
  22489937.328    22489944.281   120390452.090    93637032.253    22489937.181
  22489943.923          46.180          43.560
  20728330.502    20728337.348   110999296.265    86332844.835    20728331.043
  20728337.250          51.370          48.680
  22387763.313    22387769.146   119675459.000    93080943.386    22387763.161
  22387769.633          47.870          43.810
  22964656.408    22964660.771   122629972.659    95378904.984    22964656.050
  22964660.561          44.310          41.500
  22414331.541    22414334.802   119775431.940    93158684.670    22414331.675
  22414335.209          47.370          42.870
  20826533.147    20826539.863   111407928.219    86650663.651    20826532.441
  20826539.116          40.000          45.060
  20077955.366    20077963.672   107365791.936    83506830.685    20077955.835
  20077962.657          41.560          50.180
 21 04 28 22 01 31.0000000  0 16G02G03G04G06G09G12G17G19G25R03R04R05
                                R09R11R19R20
  21522070.273                   113099293.5444   88129328.7474   21522069.187
  21522067.656          50.500          44.560
  24944589.581    24944595.103   131084722.4344  102143956.6914   24944589.573
  24944593.708          26.870          14.000
  24502652.639    24502657.607   128762338.6764  100334306.6184   24502652.268
  24502655.952          36.000          17.180
  20368290.218    20368293.379   107036130.2734   83404803.3404   20368290.084
  20368292.748          52.250          49.750
  24318054.888    24318057.679   127792259.2994   99578410.1974   24318054.316
  24318057.889          39.620          35.500
  21433593.058    21433592.687   112634322.8214   87767026.2954   21433592.643
  21433592.007          49.810          42.500
  22495343.856    22495344.138   118213862.5494   92114711.0034   22495343.433
  22495344.245          45.750          36.310
  20817745.410                   109398021.7514   85245203.7504   20817744.132
  20817743.098          49.620          44.250
  23881236.926    23881242.238   125496775.1174   97789707.8194   23881236.153
  23881241.840          36.000          19.180
  22490401.403    22490408.655   120392936.526    93638964.605    22490401.308
  22490408.127          46.120          43.430
  20728103.580    20728110.386   110998081.608    86331900.102    20728104.193
  20728110.413          51.430          48.620
  22386984.902    22386991.133   119671298.167    93077707.178    22386984.768
  22386991.347          48.060          43.810
  22965443.190    22965447.817   122634174.978    95382173.446    22965443.042
  22965447.464          44.310          41.310
  22413959.350    22413962.794   119773443.299    93157137.946    22413959.489
  22413963.117          47.370          42.930
  20826919.848    20826926.591   111409997.161    86652272.831    20826919.236
  20826925.822          40.060          45.250
  20077712.065    20077720.219   107364490.751    83505818.650    20077712.462
  20077719.285          41.500          50.180
 21 04 28 22 01 32.0000000  0 16G02G03G04G06G09G12G17G19G25R03R04R05
                                R09R11R19R20
  21521839.076                   113098078.8464   88128382.2294   21521837.990
  21521836.505          50.620          44.620
  24945260.552    24945266.669   131088246.9904  102146703.0954   24945260.544
  24945264.424          26.930          13.930
  24502480.951    24502485.713   128761435.7634  100333603.0514   24502480.589
  24502484.126          35.810          17.250
  20368414.954    20368418.150   107036786.0414   83405314.3274   20368414.819
  20368417.542          52.310          49.810
  24317627.473    24317630.133   127790013.1164   99576659.9254   24317626.901
  24317630.428          39.680          35.680
  21433384.721    21433384.179   112633227.7264   87766172.9744   21433384.306
  21433383.620          50.000          42.500
  22495801.169    22495801.598   118216265.7554   92116583.6284   22495800.741
  22495801.554          45.810          36.370
  20818094.724                   109399857.0964   85246633.8884   20818093.446
  20818092.345          49.810          44.250
  23880679.901    23880684.708   125493846.3484   97787425.6584   23880679.132
  23880684.537          36.370          19.120
  22490865.821    22490872.957   120395421.678    93640897.486    22490865.588
  22490872.389          46.060          43.180
  20727876.922    20727883.729   110996867.818    86330956.046    20727877.477
  20727883.724          51.500          48.620
  22386206.518    22386212.919   119667137.597    93074471.182    22386206.500
  22386213.088          48.180          43.750
  22966230.146    22966234.684   122638377.477    95385442.068    22966229.999
  22966234.501          44.180          41.500
  22413587.521    22413591.010   119771455.421    93155591.828    22413587.445
  22413591.104          47.370          42.810
  20827306.599    20827313.293   111412066.356    86653882.207    20827306.179
  20827312.626          40.180          45.250
  20077468.808    20077476.843   107363189.887    83504806.863    20077469.206
  20077476.015          41.370          50.250
 21 04 28 22 01 33.0000000  0 16G02G03G04G06G09G12G17G19G25R03R04R05
                                R09R11R19R20
  21521607.960                   113096864.4414   88127435.9394   21521606.874
  21521605.411          50.620          44.620
  24945931.095    24945937.650   131091771.7164  102149449.6334   24945931.095
  24945935.141          27.560          14.120
  24502309.563    24502313.753   128760533.3704  100332899.8844   24502309.206
  24502312.380          35.810          16.870
  20368539.793    20368543.007   107037442.1884   83405825.6104   20368539.659
  20368542.408          52.310          49.810
  24317200.451    24317202.874   127787767.3084   99574909.9464   24317199.879
  24317203.053          39.750          35.810
  21433176.469    21433175.869   112632133.3164   87765320.1874   21433176.054
  21433175.363          50.000          42.560
  22496258.563    22496259.023   118218669.2224   92118456.4584   22496258.139
  22496258.907          45.930          36.310
  20818444.030                   109401692.8604   85248064.3524   20818442.752
  20818441.677          49.750          44.310
  23880123.152    23880127.346   125490918.0034   97785143.8284   23880122.388
  23880127.346          36.430          19.310
  22491329.998    22491337.415   120397907.522    93642830.928    22491330.145
  22491336.780          46.000          43.250
  20727650.354    20727657.192   110995654.908    86330012.667    20727650.962
  20727657.246          51.620          48.680
  22385428.308    22385434.928   119662977.294    93071235.403    22385428.339
  22385434.798          48.250          43.750
  22967017.232    22967021.542   122642580.144    95388710.801    22967016.946
  22967021.498          44.120          41.310
  22413215.531    22413219.231   119769468.351    93154046.331    22413215.585
  22413219.280          47.250          42.810
  20827693.564    20827699.949   111414135.809    86655491.785    20827693.028
  20827699.480          39.930          45.310
  20077225.874    20077233.519   107361889.319    83503795.312    20077225.973
  20077232.822          41.250          50.180
 21 04 28 22 01 34.0000000  0 16G02G03G04G06G09G12G17G19G25R03R04R05
                                R09R11R19R20
  21521376.934                   113095650.3294   88126489.8774   21521375.848
  21521374.376          50.680          44.620
  24946602.102    24946608.630   131095296.6934  102152196.3744   24946602.102
  24946605.970          27.370          14.000
  24502138.063    24502142.185   128759631.5664  100332197.1914   24502137.710
  24502140.790          35.560          17.120
  20368664.734    20368667.967   107038098.7234   83406337.1984   20368664.596
  20368667.341          52.310          49.810
  24316773.018    24316775.441   127785521.8344   99573160.2264   24316772.445
  24316775.727          39.930          35.810
  21432968.332    21432967.746   112631039.5854   87764467.9304   21432967.912
  21432967.236          50.000          42.560
  22496716.050    22496716.349   118221072.9784   92120329.5134   22496715.626
  22496716.314          46.120          36.250
  20818793.313                   109403529.0464   85249495.1454   20818792.035
  20818791.090          49.750          44.250
  23879566.346    23879570.361   125487990.0524   97782862.3054   23879565.586
  23879570.187          36.430          19.560
  22491794.259    22491801.797   120400394.053    93644764.894    22491794.711
  22491801.275          45.930          43.370
  20727424.198    20727430.722   110994442.862    86329069.964    20727424.653
  20727430.887          51.560          48.620
  22384650.268    22384656.887   119658817.272    93067999.832    22384650.214
  22384656.579          48.370          43.750
  22967804.314    22967808.696   122646782.990    95391979.690    22967803.938
  22967808.583          44.120          41.370
  22412843.511    22412847.724   119767482.067    93152501.437    22412843.900
  22412847.491          47.060          42.810
  20828080.610    20828086.503   111416205.545    86657101.571    20828080.002
  20828086.315          40.000          45.180
  20076983.114    20076990.308   107360589.072    83502784.011    20076982.868
  20076989.704          41.250          50.120
 21 04 28 22 01 35.0000000  0 16G02G03G04G06G09G12G17G19G25R03R04R05
                                R09R11R19R20
  21521145.939                   113094436.5074   88125544.0414   21521144.853
  21521143.394          50.870          44.620
  24947273.632    24947279.771   131098821.8574  102154943.2644   24947273.632
  24947276.816          27.310          14.060
  24501966.638    24501970.792   128758730.3014  100331494.9024   24501966.295
  24501969.317          36.000          17.120
  20368789.734    20368792.984   107038755.6484   83406849.0874   20368789.600
  20368792.354          52.560          49.810
  24316345.767    24316348.262   127783276.7254   99571410.7934   24316345.195
  24316348.490          40.060          35.870
  21432760.317    21432759.708   112629946.5344   87763616.2034   21432759.902
  21432759.230          50.180          42.560
  22497173.600    22497173.859   118223476.9884   92122202.7674   22497173.180
  22497173.765          46.370          36.250
  20819142.725                   109405365.6464   85250926.2614   20819141.442
  20819140.583          49.930          44.250
  23879009.544    23879012.759   125485062.5284   97780581.1144   23879008.780
  23879013.036          36.680          19.620
  22492258.901    22492266.408   120402881.290    93646699.411    22492259.366
  22492265.965          45.930          43.560
  20727198.117    20727204.436   110993231.706    86328127.954    20727198.510
  20727204.722          51.500          48.560
  22383872.196    22383878.615   119654657.540    93064764.490    22383872.111
  22383878.311          48.500          43.500
  22968591.261    22968595.804   122650986.016    95395248.694    22968590.989
  22968595.589          44.060          41.250
  22412471.668    22412476.414   119765496.579    93150957.171    22412472.393
  22412475.828          46.810          43.120
  20828467.553    20828473.200   111418275.516    86658711.549    20828466.981
  20828473.151          39.930          45.120
  20076740.024    20076747.163   107359289.157    83501772.962    20076739.853
  20076746.636          41.310          50.250
 21 04 28 22 01 36.0000000  0 16G02G03G04G06G09G12G17G19G25R03R04R05
                                R09R11R19R20
  21520915.015                   113093222.9774   88124598.4324   21520913.929
  21520912.471          50.930          44.620
  24947944.792    24947950.318   131102347.2214  102157690.2964   24947944.787
  24947947.662          27.750          14.500
  24501795.156    24501799.413   128757829.5894  100330793.0354   24501794.817
  24501797.919          35.930          17.120
  20368914.800    20368918.105   107039412.9654   83407361.2824   20368914.666
  20368917.443          52.560          49.750
  24315918.338    24315920.833   127781031.9714   99569661.6364   24315917.762
  24315921.320          39.930          35.870
  21432552.409    21432551.684   112628854.1614   87762765.0034   21432551.994
  21432551.353          50.180          42.500
  22497631.275    22497631.502   118225881.2804   92124076.2404   22497630.855
  22497631.275          46.370          36.250
  20819492.258                   109407202.6714   85252357.7094   20819490.975
  20819490.157          49.930          44.250
  23878452.581    23878455.930   125482135.4024   97778300.2374   23878451.821
  23878456.082          37.250          19.560
  22492723.708    22492731.032   120405369.270    93648634.491    22492724.120
  22492730.786          46.000          43.430
  20726972.175    20726978.520   110992021.451    86327186.646    20726972.510
  20726978.721          51.310          48.620
  22383094.040    22383100.633   119650498.095    93061529.366    22383094.067
  22383100.030          48.500          43.560
  22969378.379    22969382.764   122655189.190    95398517.834    22969378.182
  22969382.706          44.000          41.180
  22412099.933    22412105.001   119763511.871    93149413.512    22412100.935
  22412104.361          46.560          42.930
  20828853.897    20828860.179   111420345.754    86660321.732    20828853.946
  20828860.062          40.060          45.120
  20076497.027    20076504.045   107357989.558    83500762.166    20076496.673
  20076503.652          41.250          50.250
 21 04 28 22 01 37.0000000  0 16G02G03G04G06G09G12G17G19G25R03R04R05
                                R09R11R19R20
  21520684.159                   113092009.7354   88123653.0504   21520683.073
  21520681.605          50.930          44.620
  24948616.707    24948620.565   131105872.8224  102160437.4964   24948616.703
  24948618.602          27.680          14.870
  24501623.907    24501628.329   128756929.4244  100330091.6014   24501623.568
  24501626.563          35.870          17.120
  20369039.992    20369043.319   107040070.6814   83407873.7894   20369039.854
  20369042.603          52.620          49.750
  24315490.977    24315493.744   127778787.5804   99567912.7584   24315490.404
  24315494.223          40.060          35.930
  21432344.559    21432343.789   112627762.4704   87761914.3364   21432344.139
  21432343.611          50.180          42.500
  22498088.945    22498089.084   118228285.8274   92125949.9124   22498088.522
  22498088.838          46.500          36.180
  20819841.881                   109409040.1004   85253789.4704   20819840.598
  20819839.797          49.930          44.250
  23877895.717    23877899.030   125479208.6974   97776019.6964   23877894.953
  23877899.181          37.500          19.750
  22493188.690    22493195.947   120407857.960    93650570.140    22493189.008
  22493195.714          46.120          43.620
  20726746.224    20726752.757   110990812.088    86326246.032    20726746.707
  20726752.882          51.120          48.680
  22382316.143    22382322.446   119646338.898    93058294.448    22382316.067
  22382321.923          48.500          43.560
  22970165.308    22970170.208   122659392.521    95401787.083    22970165.402
  22970169.811          43.810          41.370
  22411728.337    22411733.646   119761527.961    93147870.460    22411729.647
  22411733.047          46.430          42.560
  20829240.616    20829247.068   111422416.255    86661932.116    20829241.036
  20829247.117          39.810          45.060
  20076253.712    20076260.968   107356690.287    83499751.626    20076253.770
  20076260.695          41.430          50.250
 21 04 28 22 01 38.0000000  0 16G02G03G04G06G09G12G17G19G25R03R04R05
                                R09R11R19R20
  21520453.387                   113090796.7884   88122707.8974   21520452.301
  21520450.789          51.000          44.620
  24949287.213    24949291.568   131109398.5814  102163184.8474   24949287.209
  24949289.502          28.120          14.680
  24501452.759    24501457.370   128756029.8324  100329390.6264   24501452.415
  24501455.357          35.810          17.180
  20369165.287    20369168.587   107040728.7764   83408386.5904   20369165.153
  20369167.840          52.750          49.810
  24315063.928    24315066.512   127776543.5404   99566164.1584   24315063.351
  24315067.178          40.180          36.000
  21432136.915    21432136.060   112626671.4464   87761064.1884   21432136.500
  21432135.998          50.120          42.500
  22498546.666    22498546.683   118230690.6384   92127823.7904   22498546.241
  22498546.442          46.500          36.250
  20820191.535                   109410877.9554   85255221.5654   20820190.252
  20820189.532          50.000          44.250
  23877338.955    23877342.156   125476282.3774   97773739.4564   23877338.191
  23877342.393          37.620          20.000
  22493653.793    22493660.960   120410347.366    93652506.352    22493654.007
  22493660.830          46.180          43.430
  20726520.424    20726527.133   110989603.601    86325306.094    20726521.046
  20726527.191          51.120          48.680
  22381538.121    22381544.227   119642179.966    93055059.717    22381538.058
  22381543.900          48.560          43.500
  22970952.340    22970957.585   122663596.014    95405056.474    22970952.595
  22970956.995          43.810          41.310
  22411357.049    22411362.309   119759544.856    93146328.047    22411358.471
  22411361.795          46.560          42.810
  20829627.725    20829633.993   111424486.980    86663542.681    20829628.042
  20829634.185          39.810          45.250
  20076010.541    20076018.208   107355391.348    83498741.347    20076010.719
  20076017.797          41.310          50.250
 21 04 28 22 01 39.0000000  0 16G02G03G04G06G09G12G17G19G25R03R04R05
                                R09R11R19R20
  21520222.687                   113089584.1334   88121762.9704   21520221.602
  21520220.031          50.930          44.620
  24949957.366    24949962.857   131112924.6034  102165932.3924   24949957.358
  24949960.487          28.060          14.930
  24501282.047    24501285.700   128755130.7834  100328690.0644   24501281.703
  24501284.251          36.120          17.180
  20369290.712    20369293.918   107041387.2594   83408899.6934   20369290.578
  20369293.148          52.810          49.750
  24314637.031    24314640.160   127774299.8494   99564415.8274   24314636.459
  24314640.183          40.180          36.060
  21431929.436    21431928.706   112625581.1044   87760214.5724   21431929.021
  21431928.514          50.180          42.500
  22499004.394    22499004.233   118233095.7254   92129697.8814   22499003.970
  22499004.116          46.500          36.250
  20820541.278                   109412716.2304   85256653.9884   20820539.996
  20820539.346          49.930          44.250
  23876782.318    23876785.721   125473356.4874   97771459.5534   23876781.555
  23876785.636          37.870          19.930
  22494119.127    22494125.830   120412837.480    93654443.106    22494119.221
  22494126.013          46.180          43.680
  20726294.974    20726301.655   110988395.970    86324366.825    20726295.524
  20726301.695          51.180          48.620
  22380760.130    22380766.160   119638021.322    93051825.219    22380760.063
  22380765.803          48.430          43.560
  22971739.610    22971744.836   122667799.666    95408325.972    22971739.838
  22971744.148          43.750          41.430
  22410986.177    22410991.276   119757562.517    93144786.221    22410987.461
  22410990.753          46.680          42.560
  20830015.034    20830021.102   111426557.951    86665153.448    20830015.231
  20830021.316          39.680          45.120
  20075767.352    20075775.475   107354092.745    83497731.320    20075767.705
  20075774.987          41.180          50.250
 21 04 28 22 01 40.0000000  0 16G02G03G04G06G09G12G17G19G25R03R04R05
                                R09R11R19R20
  21519992.028                   113088371.7754   88120818.2764   21519990.945
  21519989.322          50.930          44.620
  24950628.748    24950633.935   131116450.7304  102168680.0304   24950628.741
  24950631.436          27.810          14.870
  24501111.168    24501114.258   128754232.3024  100327989.9554   24501110.824
  24501113.256          36.060          16.810
  20369416.221    20369419.324   107042046.1354   83409413.1044   20369416.087
  20369418.538          52.870          49.750
  24314210.008    24314213.031   127772056.5264   99562667.7844   24314209.437
  24314213.272          40.060          36.000
  21431722.144    21431721.272   112624491.4394   87759365.4834   21431721.730
  21431721.147          50.120          42.500
  22499462.096    22499461.895   118235501.0874   92131572.1894   22499461.672
  22499461.827          46.560          36.180
  20820891.147                   109414554.9194   85258086.7324   20820889.861
  20820889.233          49.810          44.250
  23876225.664    23876229.134   125470430.9854   97769179.9454   23876224.895
  23876228.999          38.060          20.120
  22494584.583    22494591.218   120415328.286    93656380.397    22494584.498
  22494591.343          46.120          43.620
  20726069.694    20726076.317   110987189.219    86323428.240    20726070.186
  20726076.361          51.430          48.620
  22379982.068    22379988.268   119633862.996    93048590.957    22379982.086
  22379987.798          48.310          43.560
  22972526.852    22972532.066   122672003.505    95411595.633    22972527.085
  22972531.467          43.750          41.310
  22410615.654    22410620.400   119755580.981    93143245.020    22410616.571
  22410619.930          46.930          42.680
  20830402.956    20830408.433   111428629.194    86666764.408    20830402.523
  20830408.500          39.810          45.000
  20075524.578    20075532.849   107352794.477    83496721.544    20075524.748
  20075532.237          41.310          50.180
 21 04 28 22 01 41.0000000  0 16G02G03G04G06G09G12G17G19G25R03R04R05
                                R09R11R19R20
  21519761.364                   113087159.7054   88119873.8084   21519760.278
  21519758.676          50.870          44.620
  24951300.105    24951305.157   131119977.1614  102171427.8984   24951300.097
  24951302.488          28.120          14.870
  24500940.388    24500942.646   128753334.3504  100327290.2484   24500940.044
  24500942.382          36.430          17.310
  20369541.744    20369544.802   107042705.3914   83409926.8084   20369541.607
  20369543.998          52.810          49.750
  24313783.357    24313786.487   127769813.5534   99560920.0124   24313782.791
  24313786.425          40.310          36.000
  21431514.925    21431514.120   112623402.4524   87758516.9234   21431514.510
  21431513.923          50.120          42.500
  22499919.874    22499919.663   118237906.7114   92133446.7024   22499919.450
  22499919.578          46.430          36.180
  20821241.087                   109416394.0334   85259519.8094   20821239.800
  20821239.196          49.810          44.250
  23875669.206    23875672.644   125467505.9344   97766900.6844   23875668.442
  23875672.448          38.180          20.060
  22495049.837    22495056.499   120417819.807    93658318.246    22495049.824
  22495056.772          46.250          43.620
  20725844.740    20725851.189   110985983.370    86322490.356    20725844.995
  20725851.184          51.500          48.750
  22379204.127    22379210.045   119629704.959    93045356.935    22379204.149
  22379209.893          48.250          43.370
  22973314.225    22973319.120   122676207.519    95414865.415    22973314.412
  22973318.875          43.620          41.560
  22410245.431    22410249.542   119753600.246    93141704.453    22410245.726
  22410249.184          47.060          42.810
  20830790.033    20830795.743   111430700.693    86668375.572    20830789.752
  20830795.788          39.870          45.120
  20075282.033    20075290.331   107351496.511    83495712.020    20075282.073
  20075289.548          41.250          50.250
 21 04 28 22 01 42.0000000  0 16G02G03G04G06G09G12G17G19G25R03R04R05
                                R09R11R19R20
  21519530.704                   113085947.9324   88118929.5694   21519529.618
  21519528.088          50.810          44.620
  24951970.844    24951975.713   131123503.7824  102174175.9004   24951970.827
  24951973.576          28.120          14.750
  24500770.167    24500771.709   128752436.9814  100326591.0004   24500769.823
  24500771.593          36.680          17.370
  20369667.285    20369670.232   107043365.0474   83410440.8254   20369667.147
  20369669.525          52.810          49.750
  24313356.742    24313359.935   127767570.9334   99559172.5174   24313356.171
  24313359.649          40.500          36.060
  21431307.840    21431307.231   112622314.1514   87757668.8964   21431307.420
  21431306.820          50.120          42.500
  22500377.634    22500377.638   118240312.6054   92135321.4234   22500377.210
  22500377.397          46.370          36.180
  20821591.180                   109418233.5634   85260953.2094   20821589.897
  20821589.248          49.810          44.250
  23875113.093    23875116.178   125464581.2754   97764621.7274   23875112.324
  23875115.892          38.120          20.120
  22495515.651    22495522.116   120420312.042    93660256.653    22495515.440
  22495522.357          46.310          43.750
  20725619.853    20725626.163   110984778.412    86321553.167    20725620.005
  20725626.150          51.500          48.680
  22378426.252    22378432.067   119625547.193    93042123.124    22378426.279
  22378432.000          48.060          43.620
  22974101.453    22974106.305   122680411.699    95418135.342    22974101.749
  22974106.229          43.620          41.370
  22409875.538    22409878.589   119751620.269    93140164.463    22409875.105
  22409878.593          47.180          42.560
  20831177.477    20831183.156   111432772.448    86669986.945    20831176.882
  20831183.071          39.870          45.000
  20075039.354    20075047.705   107350198.859    83494702.741    20075039.599
  20075046.931          41.370          50.250
 21 04 28 22 01 43.0000000  0 16G02G03G04G06G09G12G17G19G25R03R04R05
                                R09R11R19R20
  21519300.116                   113084736.4544   88117985.5614   21519299.030
  21519297.562          50.620          44.620
  24952642.105    24952646.796   131127030.5674  102176924.0334   24952642.089
  24952644.694          28.500          14.500
  24500599.968    24500600.280   128751540.1354  100325892.1684   24500599.629
  24500600.888          37.000          17.500
  20369792.822    20369795.768   107044025.0854   83410955.1414   20369792.684
  20369795.128          52.680          49.750
  24312930.221    24312933.369   127765328.6684   99557425.3034   24312929.654
  24312932.935          40.310          36.120
  21431100.911    21431100.320   112621226.5184   87756821.3904   21431100.496
  21431099.851          50.060          42.500
  22500835.452    22500835.550   118242718.7684   92137196.3544   22500835.028
  22500835.268          46.250          36.310
  20821941.330                   109420073.5044   85262386.9284   20821940.047
  20821939.380          49.750          44.250
  23874556.622    23874559.738   125461657.0174   97762343.0874   23874555.858
  23874559.466          38.060          20.370
  22495981.281    22495987.759   120422805.010    93662195.629    22495981.241
  22495988.073          46.310          43.870
  20725395.065    20725401.227   110983574.317    86320616.658    20725395.158
  20725401.276          51.560          48.810
  22377648.485    22377654.135   119621389.685    93038889.507    22377648.377
  22377654.220          47.930          43.620
  22974888.875    22974893.427   122684616.034    95421405.370    22974889.184
  22974893.472          43.620          41.430
  22409505.458    22409507.770   119749641.090    93138625.114    22409504.572
  22409508.249          47.180          42.750
  20831564.617    20831570.545   111434844.460    86671598.503    20831564.295
  20831570.452          40.000          45.250
  20074796.943    20074805.106   107348901.537    83493693.705    20074797.045
  20074804.306          41.310          50.180
 21 04 28 22 01 44.0000000  0 16G02G03G04G06G09G12G17G19G25R03R04R05
                                R09R11R19R20
  21519069.554                   113083525.2684   88117041.7804   21519068.468
  21519067.090          50.560          44.620
  24953312.737    24953317.647   131130557.6044  102179672.3804   24953312.715
  24953315.858          28.180          14.370
  24500429.912    24500429.469   128750643.8614  100325193.7734   24500429.568
  24500430.301          37.370          17.370
  20369918.439    20369921.438   107044685.5194   83411469.7654   20369918.300
  20369920.808          52.620          49.810
  24312503.727    24312506.915   127763086.7424   99555678.3504   24312503.160
  24312506.284          40.370          36.180
  21430894.049    21430893.557   112620139.5674   87755974.4164   21430893.634
  21430893.021          50.000          42.560
  22501293.315    22501293.569   118245125.2034   92139071.4974   22501292.895
  22501293.198          46.180          36.310
  20822291.601                   109421913.8814   85263820.9874   20822290.319
  20822289.593          49.870          44.250
  23874000.119    23874003.746   125458733.1854   97760064.7784   23873999.350
  23874003.142          37.870          20.560
  22496447.077    22496453.676   120425298.695    93664135.157    22496447.202
  22496453.962          46.500          43.750
  20725170.281    20725176.470   110982371.095    86319680.815    20725170.477
  20725176.550          51.500          48.680
  22376870.557    22376876.327   119617232.431    93035656.083    22376870.499
  22376876.502          47.810          43.430
  22975676.238    22975680.660   122688820.526    95424675.523    22975676.627
  22975680.880          43.680          41.180
  22409135.310    22409137.565   119747662.705    93137086.368    22409134.228
  22409138.106          47.120          42.810
  20831951.935    20831958.007   111436916.719    86673210.259    20831951.663
  20831957.873          40.000          45.180
  20074554.464    20074562.489   107347604.522    83492684.923    20074554.536
  20074561.729          41.370          50.180
 21 04 28 22 01 45.0000000  0 16G02G03G04G06G09G12G17G19G25R03R04R05
                                R09R11R19R20
  21518839.092                   113082314.3754   88116098.2264   21518838.005
  21518836.672          50.500          44.560
  24953984.344    24953988.882   131134084.8294  102182420.8634   24953984.336
  24953987.102          28.310          14.250
  24500259.838    24500258.536   128749748.1374  100324495.8014   24500259.485
  24500259.842          37.680          17.180
  20370044.131    20370047.136   107045346.3324   83411984.6844   20370043.993
  20370046.559          52.560          49.810
  24312077.241    24312080.282   127760845.2064   99553931.7014   24312076.678
  24312079.723          40.560          36.120
  21430687.259    21430686.981   112619053.2984   87755127.9734   21430686.844
  21430686.315          49.930          42.500
  22501751.289    22501751.785   118247531.8974   92140946.8414   22501750.866
  22501751.182          46.250          36.180
  20822641.957                   109423754.6734   85265255.3704   20822640.675
  20822639.887          49.870          44.250
  23873443.840    23873447.628   125455809.7584   97757786.7894   23873443.068
  23873446.939          38.000          20.620
  22496912.974    22496919.762   120427793.073    93666075.210    22496913.172
  22496919.909          46.500          43.620
  20724945.649    20724952.012   110981168.765    86318745.676    20724945.971
  20724951.981          51.620          48.680
  22376092.561    22376098.470   119613075.454    93032422.880    22376092.709
  22376098.842          47.870          43.370
  22976463.575    22976467.907   122693025.185    95427945.812    22976464.098
  22976468.373          43.620          41.620
  22408765.194    22408767.556   119745685.105    93135548.251    22408763.946
  22408768.146          47.060          42.870
  20832339.611    20832345.505   111438989.246    86674822.227    20832339.227
  20832345.343          39.870          45.310
  20074312.183    20074319.966   107346307.842    83491676.389    20074312.026
  20074319.251          41.370          50.250
 21 04 28 22 01 46.0000000  0 16G02G03G04G06G09G12G17G19G25R03R04R05
                                R09R11R19R20
  21518608.691                   113081103.7734   88115154.9014   21518607.609
  21518606.312          50.500          44.560
  24954655.910    24954660.551   131137612.2194  102185169.4854   24954655.897
  24954658.333          28.430          14.430
  24500089.791    24500087.841   128748852.9714  100323798.2834   24500089.438
  24500089.545          38.120          17.370
  20370169.922    20370172.972   107046007.5374   83412499.9084   20370169.779
  20370172.377          52.560          49.750
  24311650.743    24311653.841   127758604.0064   99552185.3174   24311650.179
  24311653.215          40.750          36.180
  21430480.554    21430480.486   112617967.7094   87754282.0594   21430480.139
  21430479.740          50.000          42.430
  22502209.286    22502209.840   118249938.8704   92142822.4024   22502208.866
  22502209.214          46.250          36.180
  20822992.421                   109425595.8814   85266690.0764   20822991.134
  20822990.257          50.000          44.180
  23872887.710    23872891.698   125452886.7254   97755509.1024   23872886.936
  23872890.794          38.000          20.680
  22497379.083    22497386.157   120430288.117    93668015.804    22497379.320
  22497386.098          46.560          43.810
  20724721.263    20724727.568   110979967.339    86317811.240    20724721.692
  20724727.640          51.680          48.680
  22375314.817    22375320.828   119608918.746    93029189.895    22375315.076
  22375321.235          47.810          43.430
  22977251.090    22977255.347   122697230.003    95431216.218    22977251.479
  22977255.722          43.750          41.180
  22408394.912    22408397.748   119743708.304    93134010.746    22408393.911
  22408398.200          46.750          43.060
  20832726.957    20832732.859   111441062.036    86676434.399    20832726.724
  20832732.828          40.120          45.120
  20074069.848    20074077.444   107345011.487    83490668.107    20074069.696
  20074076.795          41.310          50.120
 21 04 28 22 01 47.0000000  0 16G02G03G04G06G09G12G17G19G25R03R04R05
                                R09R11R19R20
  21518378.340                   113079893.4654   88114211.8054   21518377.254
  21518376.005          50.500          44.560
  24955327.132    24955331.938   131141139.8314  102187918.2814   24955327.119
  24955329.636          28.620          14.430
  24499920.040    24499918.174   128747958.3534  100323101.1674   24499919.683
  24499919.252          38.370          17.680
  20370295.771    20370298.852   107046669.1324   83413015.4364   20370295.634
  20370298.280          52.560          49.750
  24311224.288    24311227.642   127756363.1624   99550439.2054   24311223.725
  24311226.760          40.870          36.180
  21430274.037    21430273.982   112616882.7984   87753436.6754   21430273.617
  21430273.289          49.930          42.430
  22502667.355    22502667.998   118252346.1084   92144698.1704   22502666.931
  22502667.310          46.180          36.250
  20823342.916                   109427437.5184   85268125.1174   20823341.632
  20823340.702          49.930          44.180
  23872331.386    23872335.634   125449964.1474   97753231.7784   23872330.608
  23872334.614          37.870          20.680
  22497845.442    22497852.305   120432783.868    93669956.948    22497845.634
  22497852.297          46.680          43.560
  20724496.966    20724503.321   110978766.816    86316877.491    20724497.561
  20724503.464          51.750          48.750
  22374537.161    22374543.200   119604762.344    93025957.139    22374537.550
  22374543.727          47.930          43.370
  22978038.440    22978042.670   122701435.000    95434486.764    22978038.798
  22978043.148          43.750          41.370
  22408024.707    22408028.236   119741732.299    93132473.863    22408024.018
  22408028.455          46.500          42.620
  20833114.794    20833120.504   111443135.088    86678046.775    20833114.535
  20833120.446          40.000          45.250
  20073827.025    20073834.934   107343715.454    83489660.076    20073827.468
  20073834.424          41.430          50.250
 21 04 28 22 01 48.0000000  0 16G02G03G04G06G09G12G17G19G25R03R04R05
                                R09R11R19R20
  21518148.060                   113078683.4504   88113268.9374   21518146.974
  21518145.753          50.560          44.560
  24955997.754    24956003.044   131144667.6524  102190667.2384   24955997.733
  24956000.965          28.500          14.250
  24499750.082    24499748.436   128747064.3084  100322404.5074   24499749.716
  24499749.129          38.620          17.680
  20370421.737    20370424.885   107047331.1164   83413531.2684   20370421.600
  20370424.255          52.620          49.750
  24310797.977    24310801.107   127754122.6964   99548693.3894   24310797.414
  24310800.387          40.930          36.250
  21430067.747    21430067.747   112615798.5694   87752591.8204   21430067.327
  21430066.973          50.000          42.500
  22503125.347    22503126.393   118254753.6184   92146574.1514   22503124.924
  22503125.459          46.180          36.250
  20823693.437                   109429279.5754   85269560.4844   20823692.154
  20823691.237          49.930          44.250
  23871775.080    23871779.757   125447041.9584   97750954.7514   23871774.298
  23871778.577          37.870          20.680
  22498312.016    22498318.561   120435280.325    93671898.629    22498312.034
  22498318.646          46.620          43.620
  20724273.068    20724279.136   110977567.126    86315944.400    20724273.568
  20724279.409          51.810          48.750
  22373759.644    22373765.840   119600606.224    93022724.598    22373760.083
  22373766.283          48.000          43.560
  22978825.902    22978830.060   122705640.160    95437757.450    22978826.228
  22978830.596          43.680          41.250
  22407654.662    22407658.674   119739757.082    93130937.565    22407654.322
  22407658.862          46.120          42.930
  20833501.974    20833508.001   111445208.421    86679659.358    20833502.148
  20833508.051          40.000          45.120
  20073584.632    20073592.554   107342419.729    83488652.301    20073585.164
  20073592.111          41.250          50.250
 21 04 28 22 01 49.0000000  0 16G02G03G04G06G09G12G17G19G25R03R04R05
                                R09R11R19R20
  21517917.834                   113077473.7254   88112326.2934   21517916.752
  21517915.553          50.620          44.560
  24956669.665    24956674.225   131148195.6924  102193416.3424   24956669.634
  24956672.343          28.250          14.310
  24499580.259    24499578.523   128746170.8114  100321708.2734   24499579.884
  24499579.118          38.560          17.870
  20370547.774    20370550.931   107047993.4874   83414047.4014   20370547.636
  20370550.305          52.620          49.750
  24310371.899    24310374.572   127751882.5844   99546947.8494   24310371.336
  24310374.089          41.000          36.180
  21429861.565    21429861.484   112614715.0074   87751747.4874   21429861.150
  21429860.778          50.000          42.500
  22503583.505    22503584.578   118257161.3814   92148450.3294   22503583.081
  22503583.653          46.060          36.250
  20824044.021                   109431122.0394   85270996.1694   20824042.739
  20824041.844          49.870          44.250
  23871219.244    23871223.921   125444120.1674   97748678.0364   23871218.462
  23871222.580          37.560          20.870
  22498778.612    22498785.175   120437777.503    93673840.881    22498778.576
  22498785.130          46.680          43.500
  20724049.267    20724055.211   110976368.312    86315011.982    20724049.732
  20724055.577          51.810          48.750
  22372982.369    22372988.694   119596450.383    93019492.281    22372982.731
  22372988.891          48.120          43.620
  22979613.498    22979617.745   122709845.484    95441028.255    22979613.757
  22979618.179          43.680          41.750
  22407284.622    22407289.162   119737782.664    93129401.929    22407284.724
  22407289.519          46.000          42.930
  20833889.521    20833895.772   111447282.009    86681272.151    20833889.628
  20833895.669          40.000          45.310
  20073342.471    20073350.174   107341124.349    83487644.785    20073342.918
  20073349.830          41.370          50.250
 21 04 28 22 01 50.0000000  0 16G02G03G04G06G09G12G17G19G25R03R04R05
                                R09R11R19R20
  21517687.720                   113076264.2914   88111383.8784   21517686.634
  21517685.412          50.560          44.560
  24957340.824    24957345.828   131151723.8934  102196165.5884   24957340.784
  24957343.744          28.810          14.180
  24499410.717    24499409.009   128745277.8474  100321012.4674   24499410.333
  24499409.201          38.620          18.060
  20370673.941    20370677.067   107048656.2414   83414563.8334   20370673.798
  20370676.427          52.560          49.750
  24309945.722    24309948.136   127749642.8164   99545202.5764   24309945.154
  24309947.859          40.810          36.180
  21429655.464    21429655.316   112613632.1294   87750903.6854   21429655.044
  21429654.716          49.930          42.500
  22504041.511    22504042.906   118259569.4224   92150326.7244   22504041.087
  22504041.904          45.930          36.250
  20824394.690                   109432964.9364   85272432.1914   20824393.404
  20824392.539          49.680          44.180
  23870663.175    23870668.054   125441198.7984   97746401.6474   23870662.397
  23870666.659          37.180          20.810
  22499245.350    22499252.196   120440275.411    93675783.695    22499245.306
  22499251.722          46.750          43.620
  20723825.632    20723831.504   110975170.406    86314080.281    20723826.057
  20723831.866          51.750          48.750
  22372205.072    22372211.396   119592294.829    93016260.190    22372205.371
  22372211.642          48.310          43.680
  22980400.812    22980405.278   122714050.971    95444299.187    22980401.246
  22980405.677          43.620          41.430
  22406914.788    22406919.958   119735809.017    93127866.867    22406915.333
  22406920.306          45.750          43.120
  20834277.184    20834283.269   111449355.865    86682885.149    20834277.389
  20834283.336          39.930          45.060
  20073099.971    20073108.112   107339829.279    83486637.503    20073100.614
  20073107.634          41.370          50.310
 21 04 28 22 01 51.0000000  0 16G02G03G04G06G09G12G17G19G25R03R04R05
                                R09R11R19R20
  21517457.651                   113075055.1554   88110441.6954   21517456.565
  21517455.329          50.430          44.560
  24958012.028    24958017.103   131155252.3574  102198915.0504   24958011.984
  24958015.184          28.810          14.060
  24499240.912    24499239.235   128744385.4654  100320317.1004   24499240.523
  24499239.355          38.370          17.870
  20370800.175    20370803.220   107049319.3884   83415080.5724   20370800.033
  20370802.621          52.500          49.750
  24309519.706    24309521.972   127747403.4254   99543457.5964   24309519.143
  24309521.704          40.620          36.180
  21429449.527    21429449.187   112612549.9254   87750060.4084   21429449.108
  21429448.780          49.870          42.500
  22504499.795    22504501.010   118261977.7254   92152203.3224   22504499.375
  22504500.206          45.930          36.250
  20824745.369                   109434808.2514   85273868.5394   20824744.082
  20824743.315          49.560          44.250
  23870106.982    23870112.253   125438277.8494   97744125.5844   23870106.200
  23870110.841          37.120          20.810
  22499712.416    22499719.029   120442774.045    93677727.079    22499712.161
  22499718.403          46.870          43.560
  20723602.195    20723608.089   110973973.391    86313149.268    20723602.481
  20723608.352          51.750          48.810
  22371427.876    22371434.103   119588139.551    93013028.314    22371428.140
  22371434.443          48.500          43.810
  22981188.465    22981193.120   122718256.643    95447570.253    22981188.658
  22981193.259          43.430          41.620
  22406545.239    22406551.031   119733836.184    93126332.430    22406546.245
  22406551.259          45.620          43.120
  20834665.168    20834671.016   111451429.970    86684498.338    20834665.039
  20834671.021          39.930          45.120
  20072857.958    20072865.969   107338534.521    83485630.477    20072858.386
  20072865.491          41.430          50.180
 21 04 28 22 01 52.0000000  0 16G02G03G04G06G09G12G17G19G25R03R04R05
                                R09R11R19R20
  21517227.631                   113073846.3134   88109499.7414   21517226.548
  21517225.305          50.500          44.620
  24958683.075    24958689.005   131158780.9624  102201664.5954   24958683.031
  24958686.626          28.500          14.180
  24499071.079    24499069.268   128743493.6204  100319622.1544   24499070.687
  24499069.586          38.250          18.060
  20370926.427    20370929.485   107049982.9314   83415597.6194   20370926.284
  20370928.895          52.430          49.750
  24309093.641    24309095.769   127745164.3864   99541712.8914   24309093.073
  24309095.599          40.870          36.250
  21429243.690    21429243.179   112611468.4024   87749217.6624   21429243.270
  21429242.978          49.750          42.500
  22504958.131    22504959.330   118264386.3034   92154080.1344   22504957.711
  22504958.565          45.810          36.250
  20825096.131                   109436651.9834   85275305.2124   20825094.849
  20825094.168          49.560          44.250
  23869550.837    23869556.256   125435357.2994   97741849.8354   23869550.050
  23869555.098          36.620          20.810
  22500179.419    22500186.085   120445273.381    93679671.003    22500179.106
  22500185.298          46.870          43.620
  20723378.953    20723384.843   110972777.248    86312218.933    20723379.091
  20723384.991          51.810          48.750
  22370650.690    22370657.306   119583984.572    93009796.657    22370650.928
  22370657.234          48.500          43.810
  22981975.815    22981981.025   122722462.499    95450841.475    22981976.169
  22981980.930          43.250          41.500
  22406175.972    22406182.140   119731864.155    93124798.627    22406177.283
  22406182.346          45.500          43.310
  20835053.180    20835058.814   111453504.343    86686111.730    20835052.639
  20835058.836          39.810          45.310
  20072615.689    20072623.898   107337240.098    83484623.695    20072616.061
  20072623.433          41.430          50.250
 21 04 28 22 01 53.0000000  0 16G02G03G04G06G09G12G17G19G25R03R04R05
                                R09R11R19R20
  21516997.677                   113072637.7624   88108558.0124   21516996.595
  21516995.334          50.500          44.680
  24959354.525    24959359.918   131162309.8654  102204414.3794   24959354.477
  24959358.196          28.250          14.000
  24498901.462    24498899.892   128742602.3284  100318927.6444   24498901.060
  24498899.972          38.250          18.180
  20371052.737    20371055.880   107050646.8554   83416114.9614   20371052.599
  20371055.241          52.430          49.810
  24308667.678    24308669.248   127742925.6964   99539968.4574   24308667.111
  24308669.560          40.560          36.180
  21429038.044    21429037.503   112610387.5534   87748375.4424   21429037.624
  21429037.306          49.810          42.560
  22505416.540    22505417.773   118266795.1524   92155957.1574   22505416.120
  22505416.969          45.930          36.370
  20825446.993                   109438496.1384   85276742.2154   20825445.710
  20825445.106          49.620          44.250
  23868995.126    23869000.429   125432437.1774   97739574.4204   23868994.344
  23868999.414          36.620          20.930
  22500646.301    22500652.905   120447773.404    93681615.468    22500646.212
  22500652.418          46.930          43.810
  20723155.721    20723161.735   110971581.969    86311289.278    20723155.842
  20723161.807          51.750          48.750
  22369873.666    22369880.264   119579829.869    93006565.223    22369873.768
  22369880.075          48.500          43.620
  22982762.964    22982768.602   122726668.512    95454112.808    22982763.782
  22982768.602          43.180          41.310
  22405806.880    22405813.468   119729892.898    93123265.420    22405808.584
  22405813.446          45.680          43.430
  20835441.062    20835446.673   111455578.959    86687725.327    20835440.248
  20835446.637          39.680          45.120
  20072373.770    20072381.961   107335945.983    83483617.164    20072374.056
  20072381.402          41.310          50.180
 21 04 28 22 01 54.0000000  0 16G02G03G04G06G09G12G17G19G25R03R04R05
                                R09R11R19R20
  21516767.786                   113071429.5074   88107616.5154   21516766.705
  21516765.412          50.500          44.680
  24960025.528    24960031.135   131165838.9274  102207164.3004   24960025.479
  24960029.700          28.310          14.000
  24498731.978    24498730.695   128741711.6054  100318233.5834   24498731.573
  24498730.471          38.250          18.120
  20371179.105    20371182.262   107051311.1664   83416632.6054   20371178.962
  20371181.658          52.430          49.810
  24308241.640    24308243.294   127740687.3524   99538224.2944   24308241.068
  24308243.593          40.680          36.120
  21428832.511    21428831.982   112609307.3884   87747533.7554   21428832.096
  21428831.764          49.750          42.500
  22505875.011    22505876.227   118269204.2674   92157834.3894   22505874.595
  22505875.422          46.000          36.370
  20825797.975                   109440340.7084   85278179.5414   20825796.688
  20825796.110          49.680          44.310
  23868439.469    23868444.875   125429517.4644   97737299.3174   23868438.687
  23868443.887          36.430          21.180
  22501113.509    22501120.028   120450274.120    93683560.464    22501113.389
  22501119.577          46.930          43.750
  20722932.600    20722938.821   110970387.581    86310360.312    20722932.766
  20722938.749          51.680          48.810
  22369096.681    22369103.086   119575675.448    93003334.019    22369096.735
  22369102.908          48.500          43.930
  22983550.851    22983556.359   122730874.671    95457384.258    22983551.405
  22983556.373          43.310          41.750
  22405438.446    22405445.029   119727922.443    93121732.835    22405440.019
  22405444.783          46.060          43.680
  20835829.150    20835834.600   111457653.822    86689339.114    20835828.081
  20835834.492          39.810          45.060
  20072131.735    20072140.086   107334652.201    83482610.893    20072131.981
  20072139.491          41.500          50.180
 21 04 28 22 01 55.0000000  0 16G02G03G04G06G09G12G17G19G25R03R04R05
                                R09R11R19R20
  21516537.954                   113070221.5424   88106675.2434   21516536.872
  21516535.553          50.620          44.750
  24960697.577    24960702.688   131169368.1624  102209914.3514   24960697.528
  24960701.311          28.000          14.120
  24498562.522    24498561.261   128740821.4344  100317539.9464   24498562.107
  24498561.122          38.120          18.120
  20371305.513    20371308.768   107051975.8774   83417150.5614   20371305.375
  20371308.147          52.430          49.810
  24307815.602    24307817.586   127738449.3814   99536480.4224   24307815.035
  24307817.703          40.680          36.120
  21428627.058    21428626.570   112608227.8964   87746692.5924   21428626.637
  21428626.355          49.750          42.560
  22506333.612    22506334.751   118271613.6454   92159711.8234   22506333.197
  22506333.915          46.120          36.430
  20826149.028                   109442185.6864   85279617.1864   20826147.742
  20826147.195          49.680          44.310
  23867883.977    23867889.397   125426598.1544   97735024.5414   23867883.195
  23867888.404          36.250          21.060
  22501580.749    22501587.371   120452775.559    93685506.025    22501580.629
  22501586.857          46.810          43.430
  20722709.610    20722715.969   110969194.075    86309432.029    20722709.851
  20722715.839          51.620          48.680
  22368319.584    22368326.106   119571521.299    93000103.009    22368319.656
  22368325.847          48.370          44.000
  22984338.644    22984344.085   122735080.994    95460655.847    22984339.122
  22984344.125          43.370          41.680
  22405070.560    22405076.630   119725952.766    93120200.872    22405071.544
  22405076.223          46.430          43.370
  20836217.161    20836222.567   111459728.944    86690953.105    20836215.976
  20836222.397          39.810          45.060
  20071890.236    20071898.283   107333358.752    83481604.876    20071890.182
  20071897.631          41.370          50.250
 21 04 28 22 01 56.0000000  0 16G02G03G04G06G09G12G17G19G25R03R04R05
                                R09R11R19R20
  21516308.135                   113069013.8674   88105734.1994   21516307.049
  21516305.743          50.620          44.750
  24961369.193    24961374.679   131172897.5884  102212664.5374   24961369.140
  24961372.953          28.060          14.680
  24498392.860    24498391.710   128739931.8294  100316846.7514   24498392.440
  24498391.898          38.000          18.180
  20371432.029    20371435.280   107052640.9674   83417668.8124   20371431.891
  20371434.716          52.430          49.870
  24307389.729    24307391.866   127736211.7544   99534736.8204   24307389.157
  24307391.866          40.430          36.060
  21428421.783    21428421.376   112607149.0804   87745851.9564   21428421.363
  21428421.068          49.680          42.620
  22506792.337    22506793.097   118274023.2914   92161589.4684   22506791.922
  22506792.476          46.250          36.430
  20826500.122                   109444031.0944   85281055.1674   20826498.840
  20826498.370          49.750          44.370
  23867328.043    23867334.075   125423679.2404   97732750.0644   23867327.252
  23867332.943          36.000          21.120
  22502048.079    22502054.700   120455277.709    93687452.141    22502047.981
  22502054.253          46.810          43.430
  20722486.739    20722493.241   110968001.463    86308504.445    20722487.056
  20722493.098          51.500          48.560
  22367542.569    22367549.412   119567367.427    92996872.217    22367542.551
  22367548.755          48.180          43.930
  22985126.610    22985131.667   122739287.479    95463927.543    22985126.865
  22985131.837          43.370          42.000
  22404702.662    22404708.087   119723983.897    93118669.528    22404703.226
  22404707.725          46.930          43.370
  20836604.645    20836610.668   111461804.324    86692567.278    20836603.925
  20836610.355          39.870          45.060
  20071648.298    20071656.427   107332065.623    83480599.120    20071648.491
  20071655.801          41.310          50.250
 21 04 28 22 01 57.0000000  0 16G02G03G04G06G09G12G17G19G25R03R04R05
                                R09R11R19R20
  21516078.415                   113067806.4934   88104793.3874   21516077.332
  21516075.991          50.560          44.750
  24962040.924    24962046.992   131176427.2504  102215414.9164   24962040.866
  24962044.635          28.060          15.250
  24498223.537    24498222.258   128739042.7734  100316153.9724   24498223.108
  24498222.763          37.750          18.250
  20371558.652    20371561.965   107053306.4484   83418187.3684   20371558.514
  20371561.357          52.370          49.870
  24306964.012    24306966.431   127733974.5134   99532993.5194   24306963.440
  24306966.109          40.310          36.060
  21428216.581    21428216.164   112606070.9444   87745011.8494   21428216.161
  21428215.900          49.620          42.560
  22507251.050    22507251.398   118276433.2024   92163467.3194   22507250.639
  22507251.090          46.370          36.500
  20826851.405                   109445876.9184   85282493.4724   20826850.117
  20826849.620          49.680          44.310
  23866772.712    23866778.739   125420760.7644   97730475.9284   23866771.921
  23866777.599          36.000          21.180
  22502515.891    22502522.334   120457780.594    93689398.830    22502515.412
  22502521.784          46.810          43.560
  20722264.057    20722270.573   110966809.750    86307577.549    20722264.473
  20722270.483          51.250          48.750
  22366765.508    22366772.258   119563213.863    92993641.674    22366765.495
  22366771.748          48.000          44.060
  22985914.434    22985919.800   122743494.129    95467199.385    22985914.618
  22985919.742          43.500          41.560
  22404334.974    22404339.590   119722015.797    93117138.794    22404335.050
  22404339.429          47.120          43.620
  20836992.853    20836998.845   111463879.949    86694181.649    20836992.049
  20836998.393          39.930          45.120
  20071406.388    20071414.731   107330772.841    83479593.607    20071406.809
  20071414.024          41.250          50.250
 21 04 28 22 01 58.0000000  0 16G02G03G04G06G09G12G17G19G25R03R04R05
                                R09R11R19R20
  21515848.730                   113066599.4184   88103852.8084   21515847.647
  21515846.292          50.620          44.810
  24962713.076    24962719.126   131179957.0974  102218165.4494   24962713.018
  24962716.336          27.620          15.310
  24498053.942    24498053.128   128738154.2634  100315461.6294   24498053.509
  24498053.772          37.750          18.560
  20371685.373    20371688.700   107053972.3134   83418706.2234   20371685.235
  20371688.069          52.370          49.870
  24306538.247    24306540.670   127731737.5934   99531250.4694   24306537.671
  24306540.402          40.370          35.870
  21428011.498    21428011.212   112604993.5144   87744172.2934   21428011.078
  21428010.867          49.560          42.560
  22507709.879    22507709.820   118278843.4144   92165345.4054   22507709.468
  22507709.758          46.310          36.500
  20827202.775                   109447723.1634   85283932.1044   20827201.493
  20827200.946          49.680          44.370
  23866217.220    23866223.234   125417842.7124   97728202.1244   23866216.433
  23866222.331          35.810          21.180
  22502983.426    22502989.905   120460284.188    93691346.067    22502983.104
  22502989.408          46.620          43.560
  20722041.576    20722048.132   110965618.903    86306651.336    20722042.041
  20722048.029          51.060          48.680
  22365988.326    22365995.148   119559060.573    92990411.344    22365988.470
  22365994.723          47.750          43.870
  22986702.160    22986707.561   122747700.940    95470471.351    22986702.446
  22986707.615          43.430          41.870
  22403967.429    22403971.441   119720048.497    93115608.670    22403966.986
  22403971.321          47.430          43.560
  20837380.615    20837387.044   111465955.834    86695796.232    20837380.284
  20837386.423          40.120          45.250
  20071164.442    20071173.129   107329480.358    83478588.353    20071165.184
  20071172.342          41.310          50.310
 21 04 28 22 01 59.0000000  0 16G02G03G04G06G09G12G17G19G25R03R04R05
                                R09R11R19R20
  21515619.112                   113065392.6274   88102912.4524   21515618.030
  21515616.652          50.750          44.750
  24963385.295    24963390.482   131183487.1794  102220916.1674   24963385.228
  24963388.058          27.560          15.000
  24497884.579    24497884.199   128737266.3164  100314769.7304   24497884.141
  24497884.807          37.810          18.930
  20371812.108    20371815.529   107054638.5644   83419225.3794   20371811.970
  20371814.857          52.500          49.810
  24306112.539    24306114.865   127729501.0654   99529507.7204   24306111.964
  24306114.766          40.310          36.000
  21427806.609    21427806.278   112603916.7604   87743333.2644   21427806.194
  21427805.964          49.810          42.560
  22508168.676    22508168.622   118281253.8794   92167223.6884   22508168.261
  22508168.461          46.500          36.500
  20827554.259                   109449569.8234   85285371.0594   20827552.975
  20827552.358          49.870          44.310
  23865661.545    23865667.894   125414925.0494   97725928.6174   23865660.758
  23865667.184          36.000          21.310
  22503450.916    22503457.735   120462788.466    93693293.845    22503450.782
  22503457.243          46.560          43.310
  20721819.229    20721825.923   110964428.932    86305725.805    20721819.806
  20721825.789          51.060          48.750
  22365211.042    22365218.172   119554907.540    92987181.212    22365211.458
  22365217.730          47.680          44.000
  22987490.127    22987495.300   122751907.894    95473743.417    22987490.252
  22987495.501          43.620          41.680
  22403599.875    22403602.953   119718081.972    93114079.164    22403599.012
  22403603.243          47.560          43.430
  20837768.926    20837775.351   111468031.978    86697411.007    20837768.510
  20837774.515          40.000          45.180
  20070923.095    20070931.563   107328188.198    83477583.335    20070923.538
  20070930.673          41.180          50.310
 21 04 28 22 02 00.0000000  0 16G02G03G04G06G09G12G17G19G25R03R04R05
                                R09R11R19R20
  21515389.534                   113064186.1334   88101972.3274   21515388.452
  21515387.057          50.750          44.870
  24964057.425    24964061.851   131187017.4644  102223667.0394   24964057.354
  24964059.826          28.060          14.750
  24497715.382    24497715.717   128736378.9304  100314078.2634   24497714.940
  24497716.057          37.810          19.120
  20371938.990    20371942.411   107055305.2034   83419744.8384   20371938.852
  20371941.722          52.560          50.000
  24305686.948    24305689.295   127727264.8714   99527765.2324   24305686.372
  24305689.206          40.120          35.870
  21427601.786    21427601.656   112602840.6894   87742494.7674   21427601.371
  21427601.200          49.810          42.620
  22508627.478    22508627.205   118283664.6254   92169102.1884   22508627.063
  22508627.213          46.620          36.620
  20827905.791                   109451416.9044   85286810.3444   20827904.508
  20827903.854          49.870          44.430
  23865106.330    23865112.573   125412007.8124   97723655.4404   23865105.543
  23865112.108          35.930          21.310
  22503918.786    22503925.654   120465293.452    93695242.159    22503918.728
  22503925.109          46.560          43.430
  20721597.123    20721603.634   110963239.850    86304800.959    20721597.709
  20721603.719          51.180          48.750
  22364433.718    22364440.834   119550754.769    92983951.287    22364434.514
  22364440.839          47.680          43.810
  22988277.861    22988283.012   122756115.019    95477015.636    22988278.134
  22988283.450          43.680          41.870
  22403232.138    22403235.117   119716116.243    93112550.264    22403231.087
  22403235.417          47.370          43.310
  20838157.081    20838163.398   111470108.386    86699025.989    20838156.732
  20838162.679          40.000          45.180
  20070681.306    20070689.912   107326896.349    83476578.561    20070681.963
  20070689.076          41.370          50.250
 21 04 28 22 02 01.0000000  0 16G02G03G04G06G09G12G17G19G25R03R04R05
                                R09R11R19R20
  21515160.010                   113062979.9364   88101032.4324   21515158.928
  21515157.528          50.750          44.870
  24964728.732    24964733.180   131190547.8834  102226418.0184   24964728.648
  24964731.651          27.750          14.500
  24497546.592    24497547.271   128735492.0974  100313387.2164   24497546.154
  24497547.392          38.000          19.000
  20372065.962    20372069.279   107055972.2384   83420264.6064   20372065.824
  20372068.658          52.500          50.000
  24305261.500    24305263.964   127725029.0344   99526023.0214   24305260.924
  24305263.713          40.060          35.810
  21427397.151    21427397.271   112601765.2904   87741656.7964   21427396.736
  21427396.565          49.810          42.620
  22509086.392    22509086.105   118286075.6334   92170980.8974   22509085.977
  22509086.011          46.680          36.620
  20828257.475                   109453264.3994   85288249.9514   20828256.192
  20828255.422          49.750          44.370
  23864551.219    23864557.765   125409090.9854   97721382.5944   23864550.437
  23864557.152          35.620          21.310
  22504386.778    22504393.753   120467799.163    93697191.056    22504386.746
  22504393.185          46.560          43.180
  20721375.322    20721381.605   110962051.648    86303876.807    20721375.787
  20721381.788          51.310          48.750
  22363656.675    22363663.836   119546602.288    92980721.583    22363657.587
  22363664.015          47.680          43.870
  22989065.801    22989071.171   122760322.329    95480287.966    22989066.128
  22989071.368          43.870          42.000
  22402864.543    22402867.380   119714151.320    93111021.994    22402863.359
  22402867.675          47.120          43.310
  20838545.227    20838551.357   111472185.056    86700641.166    20838545.070
  20838550.892          40.000          45.180
  20070439.825    20070448.333   107325604.830    83475574.042    20070440.585
  20070447.564          41.120          50.310
 21 04 28 22 02 02.0000000  0 16G02G03G04G06G09G12G17G19G25R03R04R05
                                R09R11R19R20
  21514930.580                   113061774.0294   88100092.7654   21514929.498
  21514928.058          50.750          44.870
  24965400.486    24965404.465   131194078.5494  102229169.1674   24965400.396
  24965403.512          27.310          14.500
  24497377.681    24497379.469   128734605.8044  100312696.5954   24497377.242
  24497378.798          37.500          19.180
  20372193.014    20372196.242   107056639.6614   83420784.6764   20372192.871
  20372195.665          52.560          50.000
  24304836.084    24304838.493   127722793.5804   99524281.1104   24304835.507
  24304838.279          40.000          35.810
  21427192.664    21427192.838   112600690.5684   87740819.3514   21427192.249
  21427192.051          49.810          42.620
  22509545.359    22509544.996   118288486.9004   92172859.8054   22509544.944
  22509544.867          46.620          36.680
  20828609.132                   109455112.3184   85289689.8874   20828607.849
  20828607.066          49.750          44.430
  23863996.339    23864002.658   125406174.5694   97719110.0684   23863995.558
  23864002.237          35.750          21.310
  22504855.091    22504862.043   120470305.578    93699140.490    22504854.916
  22504861.345          46.430          43.250
  20721153.717    20721159.826   110960864.350    86302953.356    20721154.079
  20721160.018          51.500          48.750
  22362879.918    22362886.883   119542450.091    92977492.103    22362880.777
  22362887.227          47.750          43.930
  22989853.867    22989859.116   122764529.791    95483560.441    22989854.228
  22989859.263          43.930          41.870
  22402496.748    22402499.857   119712187.196    93109494.350    22402495.693
  22402500.161          46.750          43.620
  20838933.193    20838939.695   111474261.962    86702256.549    20838933.346
  20838939.238          40.000          45.180
  20070198.724    20070206.897   107324313.619    83474569.768    20070199.175
  20070206.082          41.060          50.310
 21 04 28 22 02 03.0000000  0 16G02G03G04G06G09G12G17G19G25R03R04R05
                                R09R11R19R20
  21514701.208                   113060568.4164   88099153.3274   21514700.127
  21514698.632          50.810          44.870
  24966071.238    24966076.402   131197609.4874  102231920.5374   24966071.131
  24966075.387          27.620          14.370
  24497209.123    24497210.961   128733720.0854  100312006.4274   24497208.681
  24497210.312          37.620          19.370
  20372320.174    20372323.218   107057307.4664   83421305.0444   20372320.036
  20372322.749          52.620          50.000
  24304410.712    24304413.265   127720558.4734   99522539.4684   24304410.135
  24304412.924          39.810          35.750
  21426988.315    21426988.324   112599616.5344   87739982.4404   21426987.895
  21426987.671          49.870          42.620
  22510004.250    22510003.932   118290898.4414   92174738.9284   22510003.830
  22510003.776          46.560          36.680
  20828960.870                   109456960.6554   85291130.1494   20828959.587
  20828958.786          49.750          44.430
  23863441.501    23863447.702   125403258.5574   97716837.8574   23863440.723
  23863447.336          36.000          21.120
  22505323.319    22505330.343   120472812.693    93701090.466    22505323.216
  22505329.591          46.500          43.180
  20720932.202    20720938.315   110959677.943    86302030.594    20720932.520
  20720938.440          51.370          48.680
  22362103.130    22362110.238   119538298.178    92974262.840    22362104.052
  22362110.484          47.810          43.750
  22990641.784    22990647.320   122768737.417    95486833.034    22990642.272
  22990647.217          43.930          42.060
  22402128.761    22402132.129   119710223.872    93107967.314    22402128.143
  22402132.782          46.310          43.500
  20839321.911    20839327.890   111476339.157    86703872.140    20839321.424
  20839327.559          39.930          45.250
  20069957.395    20069965.397   107323022.731    83473565.748    20069957.640
  20069964.646          40.930          50.310
 21 04 28 22 02 04.0000000  0 16G02G03G04G06G09G12G17G19G25R03R04R05
                                R09R11R19R20
  21514471.894                   113059363.0924   88098214.1124   21514470.813
  21514469.265          50.810          44.870
  24966743.358    24966747.651   131201140.5244  102234672.0084   24966743.252
  24966747.356          26.810          14.250
  24497040.458    24497042.420   128732834.9134  100311316.6854   24497040.016
  24497041.969          37.370          19.120
  20372447.427    20372450.257   107057975.6564   83421825.7124   20372447.284
  20372449.900          52.680          50.060
  24303985.460    24303987.879   127718323.7244   99520798.1074   24303984.884
  24303987.646          39.930          35.750
  21426784.128    21426783.975   112598543.1664   87739146.0504   21426783.712
  21426783.425          49.930          42.620
  22510463.061    22510462.886   118293310.2464   92176618.2564   22510462.646
  22510462.734          46.500          36.680
  20829312.679                   109458809.4094   85292570.7354   20829311.397
  20829310.595          49.680          44.430
  23862886.501    23862892.850   125400342.9694   97714565.9824   23862885.732
  23862892.448          36.060          21.180
  22505791.980    22505798.826   120475320.499    93703040.980    22505791.752
  22505798.097          46.500          43.310
  20720710.906    20720716.773   110958492.407    86301108.508    20720711.139
  20720717.024          51.180          48.620
  22361326.544    22361333.459   119534146.552    92971033.798    22361327.344
  22361333.817          47.870          43.750
  22991429.957    22991435.349   122772945.203    95490105.744    22991430.373
  22991435.237          44.120          41.810
  22401760.907    22401764.579   119708261.334    93106440.898    22401760.791
  22401765.491          46.000          43.430
  20839709.740    20839716.098   111478416.595    86705487.928    20839709.588
  20839715.919          39.930          45.310
  20069716.236    20069723.966   107321732.182    83472561.986    20069716.240
  20069723.308          41.120          50.310
 21 04 28 22 02 05.0000000  0 16G02G03G04G06G09G12G17G19G25R03R04R05
                                R09R11R19R20
  21514242.599                   113058158.0644   88097275.1304   21514241.517
  21514239.956          50.750          44.870
  24967415.403    24967419.593   131204671.8214  102237423.6724   24967415.301
  24967419.378          27.000          14.500
  24496871.676    24496873.550   128731950.3114  100310627.3934   24496871.239
  24496873.670          37.310          19.180
  20372574.730    20372577.430   107058644.2434   83422346.6904   20372574.592
  20372577.135          52.680          50.060
  24303559.994    24303562.914   127716089.3434   99519057.0304   24303559.418
  24303562.422          40.060          35.750
  21426580.078    21426579.872   112597470.4734   87738310.1864   21426579.664
  21426579.291          50.000          42.680
  22510922.064    22510922.068   118295722.3244   92178497.7964   22510921.644
  22510921.733          46.430          36.680
  20829664.515                   109460658.5834   85294011.6504   20829663.233
  20829662.485          49.680          44.430
  23862332.038    23862338.146   125397427.8084   97712294.4244   23862331.268
  23862337.698          35.870          21.000
  22506260.598    22506267.483   120477828.999    93704992.036    22506260.360
  22506266.642          46.430          43.180
  20720489.556    20720495.472   110957307.735    86300187.102    20720489.878
  20720495.821          51.060          48.680
  22360549.962    22360556.662   119529995.199    92967804.973    22360550.731
  22360557.203          48.000          43.680
  22992217.879    22992223.272   122777153.153    95493378.601    22992218.469
  22992223.258          44.060          41.930
  22401393.241    22401397.513   119706299.590    93104915.093    22401393.590
  22401398.318          45.620          43.500
  20840098.328    20840104.396   111480494.324    86707103.933    20840097.975
  20840104.374          39.810          45.500
  20069474.982    20069482.552   107320441.960    83471558.489    20069474.723
  20069482.002          41.060          50.310
 21 04 28 22 02 06.0000000  0 16G02G03G04G06G09G12G17G19G25R03R04R05
                                R09R11R19R20
  21514013.307                   113056953.3244   88096336.3724   21514012.221
  21514010.704          50.680          44.930
  24968086.401    24968091.583   131208203.2334  102240175.4294   24968086.290
  24968091.387          26.680          14.560
  24496702.953    24496705.224   128731066.2474  100309938.5074   24496702.524
  24496705.457          36.810          19.310
  20372702.122    20372704.697   107059313.2114   83422867.9644   20372701.979
  20372704.433          52.680          50.060
  24303134.900    24303138.159   127713855.2994   99517316.2164   24303134.323
  24303137.287          40.060          35.810
  21426376.190    21426375.828   112596398.4644   87737474.8544   21426375.775
  21426375.287          50.000          42.750
  22511381.058    22511381.362   118298134.6604   92180377.5384   22511380.638
  22511380.785          46.500          36.750
  20830016.414                   109462508.1774   85295452.8914   20830015.131
  20830014.456          49.680          44.500
  23861777.480    23861783.011   125394513.0504   97710023.1814   23861776.711
  23861783.056          35.810          21.060
  22506729.326    22506736.073   120480338.209    93706943.647    22506729.134
  22506735.461          46.500          43.120
  20720268.452    20720274.592   110956123.970    86299266.396    20720268.774
  20720274.771          51.000          48.560
  22359773.616    22359779.995   119525844.144    92964576.375    22359774.180
  22359780.567          48.000          43.870
  22993006.034    22993011.493   122781361.240    95496651.551    22993006.539
  22993011.221          44.180          41.870
  22401025.683    22401030.741   119704338.641    93103389.907    22401026.550
  22401031.233          45.250          43.620
  20840486.859    20840492.747   111482572.293    86708720.122    20840486.300
  20840492.819          39.930          45.120
  20069233.417    20069241.343   107319152.084    83470555.245    20069233.363
  20069240.780          41.000          50.250
 21 04 28 22 02 07.0000000  0 16G02G03G04G06G09G12G17G19G25R03R04R05
                                R09R11R19R20
  21513784.029                   113055748.8804   88095397.8454   21513782.943
  21513781.507          50.620          44.870
  24968758.214    24968764.013   131211734.9294  102242927.3774   24968758.106
  24968763.436          26.680          15.000
  24496534.677    24496536.541   128730182.7384  100309250.0634   24496534.257
  24496537.311          37.120          19.180
  20372829.532    20372832.053   107059982.5704   83423389.5414   20372829.393
  20372831.812          52.680          50.060
  24302709.948    24302713.292   127711621.6464   99515575.7064   24302709.372
  24302712.206          40.250          35.810
  21426172.378    21426171.881   112595327.1324   87736640.0504   21426171.963
  21426171.416          50.060          42.750
  22511840.084    22511840.575   118300547.2634   92182257.4874   22511839.660
  22511839.900          46.430          36.750
  20830368.402                   109464358.1784   85296894.4504   20830367.120
  20830366.497          49.680          44.500
  23861222.981    23861228.342   125391598.6824   97707752.2514   23861222.208
  23861228.548          36.120          21.180
  22507198.122    22507204.829   120482848.150    93708895.828    22507198.051
  22507204.395          46.620          43.120
  20720047.666    20720053.833   110954941.087    86298346.380    20720047.832
  20720053.877          51.120          48.560
  22358997.320    22359003.824   119521693.376    92961348.009    22358997.741
  22359004.061          48.060          43.680
  22993794.211    22993799.451   122785569.508    95499924.649    22993794.734
  22993799.210          44.250          42.120
  22400658.348    22400663.961   119702378.490    93101865.337    22400659.645
  22400664.373          45.310          43.500
  20840875.318    20840881.237   111484650.501    86710336.516    20840874.968
  20840881.318          39.930          45.250
  20068992.043    20069000.270   107317862.520    83469552.255    20068992.186
  20068999.621          41.060          50.370
 21 04 28 22 02 08.0000000  0 16G02G03G04G06G09G12G17G19G25R03R04R05
                                R09R11R19R20
  21513554.841                   113054544.7284   88094459.5464   21513553.755
  21513552.367          50.620          44.870
  24969430.347    24969435.982   131215266.8224  102245679.5044   24969430.246
  24969435.597          26.680          14.750
  24496366.481    24496368.377   128729299.8034  100308562.0584   24496366.061
  24496369.236          36.930          19.250
  20372956.973    20372959.459   107060652.3154   83423911.4214   20372956.830
  20372959.262          52.620          50.060
  24302285.009    24302288.099   127709388.3344   99513835.4634   24302284.433
  24302287.200          40.370          35.810
  21425968.692    21425968.119   112594256.4814   87735805.7774   21425968.276
  21425967.680          50.060          42.680
  22512299.185    22512299.882   118302960.1294   92184137.6404   22512298.765
  22512299.078          46.370          36.680
  20830720.547                   109466208.6104   85298336.3444   20830719.265
  20830718.624          49.810          44.500
  23860668.549    23860673.790   125388684.7464   97705481.6474   23860667.776
  23860674.080          36.430          21.120
  22507667.151    22507673.875   120485358.802    93710848.553    22507667.106
  22507673.392          46.680          43.310
  20719827.009    20719833.194   110953759.078    86297427.041    20719827.050
  20719833.167          51.250          48.560
  22358220.971    22358227.354   119517542.892    92958119.855    22358221.404
  22358227.559          48.120          43.680
  22994582.639    22994587.146   122789777.944    95503197.871    22994582.925
  22994587.244          44.250          41.620
  22400291.662    22400297.377   119700419.114    93100341.380    22400292.967
  22400297.605          45.620          43.370
  20841263.852    20841269.786   111486728.997    86711953.117    20841263.544
  20841269.763          39.680          45.120
  20068750.835    20068759.133   107316573.276    83468549.508    20068751.184
  20068758.565          41.250          50.370
 21 04 28 22 02 09.0000000  0 16G02G03G04G06G09G12G17G19G25R03R04R05
                                R09R11R19R20
  21513325.711                   113053340.8694   88093521.4754   21513324.624
  21513323.287          50.560          44.870
  24970101.498    24970108.755   131218798.9144  102248431.7764   24970101.396
  24970107.713          26.430          14.560
  24496198.510    24496200.629   128728417.4004  100307874.4754   24496198.094
  24496201.281          36.750          19.310
  20373084.405    20373087.034   107061322.4444   83424433.5994   20373084.262
  20373086.784          52.620          50.060
  24301860.219    24301863.120   127707155.3694   99512095.4904   24301859.647
  24301862.271          40.370          35.810
  21425765.108    21425764.378   112593186.5154   87734972.0384   21425764.692
  21425764.069          50.000          42.620
  22512758.381    22512759.091   118305373.2644   92186018.0034   22512757.956
  22512758.282          46.430          36.680
  20831072.831                   109468059.4554   85299778.5604   20831071.548
  20831070.827          49.810          44.430
  23860113.907    23860119.496   125385771.2434   97703211.3834   23860113.138
  23860119.738          36.370          21.180
  22508136.313    22508142.957   120487870.142    93712801.820    22508136.246
  22508142.542          46.750          43.310
  20719606.371    20719612.752   110952577.938    86296508.370    20719606.424
  20719612.582          51.310          48.560
  22357444.652    22357451.093   119513392.679    92954891.911    22357445.073
  22357451.241          48.060          43.560
  22995371.093    22995375.148   122793986.541    95506471.224    22995371.003
  22995375.376          44.310          41.750
  22399925.270    22399930.776   119698460.542    93098818.053    22399926.424
  22399930.986          46.060          43.430
  20841651.935    20841658.410   111488807.717    86713569.907    20841652.186
  20841658.325          39.750          45.120
  20068509.519    20068517.924   107315284.336    83467547.005    20068510.181
  20068517.535          41.250          50.370
 21 04 28 22 02 10.0000000  0 16G02G03G04G06G09G12G17G19G25R03R04R05
                                R09R11R19R20
  21513096.625                   113052137.3034   88092583.6324   21513095.539
  21513094.259          50.560          44.870
  24970773.668    24970779.829   131222331.1794  102251184.1834   24970773.561
  24970779.847          26.250          14.870
  24496030.662    24496032.746   128727535.5704  100307187.3384   24496030.251
  24496033.448          36.680          19.060
  20373211.945    20373214.726   107061992.9634   83424956.0824   20373211.802
  20373214.386          52.430          50.060
  24301435.611    24301438.120   127704922.7894   99510355.8194   24301435.035
  24301437.386          40.620          35.810
  21425561.608    21425560.588   112592117.2244   87734138.8244   21425561.193
  21425560.579          49.870          42.680
  22513217.554    22513218.273   118307786.6674   92187898.5764   22513217.129
  22513217.544          46.370          36.750
  20831425.204                   109469910.7204   85301221.1034   20831423.921
  20831423.106          49.810          44.430
  23859559.967    23859565.203   125382858.1214   97700941.4174   23859559.198
  23859565.381          36.500          21.310
  22508605.624    22508612.138   120490382.200    93714755.628    22508605.526
  22508611.825          46.750          43.500
  20719385.933    20719392.350   110951397.675    86295590.386    20719386.013
  20719392.207          51.310          48.620
  22356668.535    22356674.744   119509242.762    92951664.199    22356668.826
  22356674.887          47.930          43.430
  22996159.453    22996163.120   122798195.290    95509744.697    22996159.185
  22996163.567          44.310          41.560
  22399559.272    22399564.228   119696502.755    93097295.322    22399560.104
  22399564.559          46.310          43.180
  20842040.944    20842046.963   111490886.705    86715186.885    20842040.801
  20842046.945          39.680          45.120
  20068268.834    20068276.931   107313995.735    83466544.753    20068269.371
  20068276.569          41.370          50.370
 21 04 28 22 02 11.0000000  0 16G02G03G04G06G09G12G17G19G25R03R04R05
                                R09R11R19R20
  21512867.620                   113050934.0324   88091646.0184   21512866.534
  21512865.285          50.560          44.870
  24971444.813    24971451.597   131225863.6914  102253936.7914   24971444.712
  24971452.030          25.120          14.560
  24495863.169    24495865.216   128726654.3114  100306500.6414   24495862.758
  24495865.780          36.620          19.180
  20373339.524    20373342.476   107062663.8744   83425478.8684   20373339.381
  20373342.051          52.430          50.060
  24301011.134    24301013.557   127702690.5574   99508616.4194   24301010.558
  24301012.618          40.620          35.870
  21425358.185    21425357.277   112591048.6144   87733306.1404   21425357.770
  21425357.224          49.870          42.680
  22513676.888    22513677.424   118310200.3334   92189779.3514   22513676.459
  22513676.865          46.430          36.680
  20831777.652                   109471762.4044   85302663.9734   20831776.369
  20831775.470          49.870          44.430
  23859005.798    23859010.820   125379945.4304   97698671.7924   23859005.026
  23859011.035          36.370          21.500
  22509075.162    22509081.475   120492894.956    93716709.993    22509074.925
  22509081.220          46.620          43.560
  20719165.598    20719172.123   110950218.293    86294673.094    20719165.741
  20719172.033          51.310          48.680
  22355892.431    22355898.881   119505093.139    92948436.715    22355892.650
  22355898.577          47.750          43.430
  22996947.801    22996951.181   122802404.204    95513018.287    22996947.402
  22996951.717          44.310          41.680
  22399193.431    22399198.020   119694545.763    93095773.214    22399193.905
  22399198.284          46.680          43.180
  20842429.801    20842435.551   111492965.927    86716804.070    20842429.457
  20842435.555          39.620          45.180
  20068028.462    20068036.084   107312707.448    83465542.755    20068028.498
  20068035.673          41.560          50.370
 21 04 28 22 02 12.0000000  0 16G02G03G04G06G09G12G17G19G25R03R04R05
                                R09R11R19R20
  21512638.672                   113049731.0504   88090708.6304   21512637.586
  21512636.365          50.430          44.750
  24972117.609    24972123.963   131229396.3234  102256689.4854   24972117.511
  24972124.330          26.180          14.500
  24495695.282    24495698.277   128725773.5824  100305814.3614   24495694.867
  24495698.197          36.310          18.870
  20373467.199    20373470.320   107063335.1714   83426001.9574   20373467.056
  20373469.792          52.370          50.060
  24300586.700    24300589.218   127700458.6914   99506877.3044   24300586.125
  24300587.908          40.370          35.810
  21425154.865    21425154.060   112589980.6854   87732473.9864   21425154.445
  21425154.001          49.750          42.680
  22514136.271    22514136.767   118312614.2664   92191660.3344   22514135.847
  22514136.235          46.430          36.680
  20832130.132                   109473614.5134   85304107.1744   20832128.850
  20832127.910          49.810          44.370
  23858451.639    23858456.898   125377033.1414   97696402.4764   23858450.875
  23858456.759          36.430          21.370
  22509544.865    22509550.924   120495408.413    93718664.903    22509544.490
  22509550.727          46.680          43.180
  20718945.612    20718951.940   110949039.816    86293756.504    20718945.679
  20718951.985          51.310          48.560
  22355116.193    22355122.697   119500943.813    92945209.459    22355116.421
  22355122.321          47.620          43.250
  22997735.960    22997739.537   122806613.292    95516292.024    22997735.575
  22997739.850          44.310          41.810
  22398827.737    22398831.973   119692589.558    93094251.728    22398827.871
  22398832.134          46.810          43.250
  20842818.497    20842824.551   111495045.429    86718421.452    20842818.264
  20842824.300          39.680          45.180
  20067787.951    20067795.180   107311419.492    83464541.014    20067787.715
  20067794.831          41.680          50.310
 21 04 28 22 02 13.0000000  0 16G02G03G04G06G09G12G17G19G25R03R04R05
                                R09R11R19R20
  21512409.819                   113048528.3674   88089771.4754   21512408.733
  21512407.502          50.430          44.750
  24972790.700    24972796.401   131232929.2594  102259442.4414   24972790.608
  24972796.652          25.680          14.680
  24495528.048    24495531.070   128724893.4274  100305128.5274   24495527.633
  24495530.708          36.250          18.750
  20373594.979    20373598.203   107064006.8614   83426525.3514   20373594.836
  20373597.608          52.370          50.000
  24300162.098    24300164.794   127698227.1554   99505138.4464   24300161.522
  24300163.264          40.310          35.810
  21424951.746    21424950.905   112588913.4294   87731642.3584   21424951.331
  21424950.905          49.810          42.620
  22514595.681    22514595.931   118315028.4694   92193541.5274   22514595.252
  22514595.658          46.500          36.680
  20832482.711                   109475467.0264   85305550.6904   20832481.428
  20832480.425          49.750          44.370
  23857897.453    23857902.868   125374121.2654   97694133.4854   23857896.684
  23857902.573          36.370          21.370
  22510014.739    22510020.453   120497922.569    93720620.356    22510014.109
  22510020.369          46.680          43.430
  20718725.572    20718731.949   110947862.222    86292840.602    20718725.765
  20718732.128          51.250          48.560
  22354339.906    22354346.629   119496794.764    92941982.430    22354340.282
  22354346.195          47.560          43.370
  22998524.495    22998527.803   122810822.541    95519565.867    22998523.761
  22998528.076          44.180          41.620
  22398462.200    22398466.176   119690634.146    93092730.868    22398462.030
  22398466.172          47.000          43.250
  20843207.542    20843213.345   111497125.164    86720039.037    20843207.135
  20843213.112          39.750          45.180
  20067547.056    20067554.460   107310131.878    83463539.530    20067546.980
  20067554.039          41.560          50.430
 21 04 28 22 02 14.0000000  0 16G02G03G04G06G09G12G17G19G25R03R04R05
                                R09R11R19R20
  21512181.020                   113047325.9674   88088834.5394   21512179.934
  21512178.690          50.430          44.810
  24973462.682    24973468.812   131236462.3454  102262195.4644   24973462.593
  24973468.951          25.620          14.120
  24495360.827    24495363.577   128724013.8244  100304443.1244   24495360.416
  24495363.371          36.430          18.750
  20373722.855    20373726.110   107064678.9344   83427049.0434   20373722.712
  20373725.497          52.370          50.000
  24299737.521    24299740.231   127695996.0204   99503399.8984   24299736.941
  24299738.720          40.250          35.810
  21424748.752    21424747.965   112587846.8544   87730811.2614   21424748.332
  21424747.947          49.810          42.620
  22515055.153    22515055.180   118317442.9354   92195422.9274   22515054.730
  22515055.135          46.560          36.680
  20832835.348                   109477319.9694   85306994.5414   20832834.065
  20832833.018          49.750          44.370
  23857343.370    23857349.192   125371209.8164   97691864.8294   23857342.601
  23857348.517          36.750          21.370
  22510484.818    22510490.157   120500437.435    93722576.356    22510483.875
  22510490.130          46.680          43.560
  20718505.667    20718512.178   110946685.521    86291925.382    20718506.016
  20718512.308          51.250          48.620
  22353563.691    22353570.602   119492645.999    92938755.619    22353564.116
  22353570.029          47.430          43.430
  22999313.119    22999316.258   122815031.935    95522839.851    22999312.001
  22999316.338          44.120          41.750
  22398096.627    22398100.317   119688679.539    93091210.622    22398096.363
  22398100.358          46.930          43.180
  20843596.541    20843602.058   111499205.160    86721656.804    20843596.049
  20843601.906          39.620          45.180
  20067306.652    20067313.828   107308844.581    83462538.302    20067306.340
  20067313.318          41.680          50.310
 21 04 28 22 02 15.0000000  0 16G02G03G04G06G09G12G17G19G25R03R04R05
                                R09R11R19R20
  21511952.256                   113046123.8684   88087897.8394   21511951.170
  21511949.939          50.500          44.810
  24974134.906    24974141.787   131239995.6274  102264948.6814   24974134.826
  24974141.246          25.430          14.310
  24495193.378    24495195.953   128723134.7644  100303758.1414   24495192.976
  24495196.150          36.500          18.680
  20373850.819    20373854.119   107065351.3884   83427573.0324   20373850.676
  20373853.462          52.430          50.000
  24299313.035    24299315.651   127693765.2314   99501661.6224   24299312.450
  24299314.242          40.000          35.810
  21424545.946    21424545.257   112586780.9574   87729980.6934   21424545.526
  21424545.114          49.870          42.680
  22515514.684    22515514.679   118319857.6724   92197304.5394   22515514.255
  22515514.666          46.560          36.680
  20833187.935                   109479173.3304   85308438.7194   20833186.652
  20833185.703          49.680          44.430
  23856789.573    23856795.493   125368298.7764   97689596.4854   23856788.804
  23856794.554          36.810          21.500
  22510954.777    22510960.138   120502953.030    93724532.931    22510953.717
  22510960.120          46.680          43.500
  20718285.985    20718292.599   110945509.703    86291010.860    20718286.450
  20718292.715          51.310          48.680
  22352787.524    22352794.430   119488497.514    92935529.016    22352788.043
  22352793.880          47.310          43.310
  23000101.082    23000104.587   122819241.500    95526113.952    23000100.272
  23000104.596          44.060          42.000
  22397731.264    22397734.722   119686725.726    93089690.984    22397730.741
  22397734.695          46.870          43.180
  20843985.697    20843990.884   111501285.416    86723274.777    20843985.085
  20843990.732          39.810          45.310
  20067066.388    20067073.138   107307557.612    83461537.321    20067065.874
  20067072.624          41.620          50.430
